~Version Information
 VERS.                  2.0:   CWLS log ASCII Standard -VERSION 2.0
 WRAP.                   NO:   One line per depth step
~Well Information Block
#MNEM.UNIT     VALUE/NAME     DESCRIPTION
#---------     -----------    ---------------------------
 STRT.F              1831.0000: START DEPTH
 STOP.F              6790.7500: STOP DEPTH
 STEP.F                 0.2500: STEP DEPTH
 NULL.                 -999.25: NULL VALUE
 FL5 .        Long -120.825003:  LOCATIONLINE5
 FL4 .          Lat  35.869473:  LOCATIONLINE4
 FL3 .          X  6,020,938.4:  LOCATIONLINE3
 FL2 .          Y  1,840,736.7:  LOCATIONLINE2
 FL1 .        NAD 83 CA ZONE 4:  LOCATIONLINE1
 RIG .                KENAI 16:  RIG NAME
 CTRY.                      US:  COUNTRY NAME
 CNTY.                MONTEREY:  COUNTY NAME
 LUL .                   BKFLD:  LOGGINGUNITLOC
 FLD .           SOUTH SALINAS:  FIELD NAME
 WELL.     BRADLEY MINERALS 2-6:  WELL NAME
 COMP.             VENOCO INC.:  COMPANY
 MDS .        Operator Entered:  MAG DATA SOURCE
 SVCO.             Halliburton:  SERVICECONAME
 IQVR.                  R2.6.1:  WLIQ VERSION
 PROV.                      CA:  PROVINCE
 STAT.                      CA:  STATE NAME
 SON .                 7136075:  JOB NUMBER
 SECT.                       6:  SECTION
 TOWN.                     24S:  TOWNSHIP
 RANG.                     11E:  RANGE
 UWI .            040532202900:  UNIQUE WELL IDENTIFIER
 API .       04-053-22029-0000:  API NUMBER
 PDAT.                      GL:  PERMANENT DATUM
 DMF .                      KB:  DRILL MEAS FROM
 DATE.                        :  DATE
 SRVC.             Halliburton:  SERVICE COMPANY
 LOC .                        :  LOCATION
 LMF .                      KB:  LOG MEASURED FROM
 APD .ft               23.0000:  DEPTH ABOVE PD
 GRDC.deg               0.0000:  GRID CORRECTION
 MDEC.deg               0.0000:  MAGNETIC DECL
 AZTC.deg               0.0000:  AZM TOTAL CORR
 MFLD.nT            48150.0000:  MAGNETIC FIELD
 EGL .ft              542.0000:  GROUND ELEVATION
 EPD .ft              542.0000:  ELEVATION
 GVFD.g                 1.0000:  GRAVITY FIELD
 TVDS.ft              565.0000:  TVDSS CORRECTN
 EKB .ft              565.0000:  KB ELEVATION
 EDF .ft                0.0000:  DF ELEVATION
 MAGU.                 1444500:  MAGUTM CHECKSUM
 VSC .                       1:  VS TO CLOSURE
~Parameter Information Block
#MNEM.UNIT       Value        Description
#---------     -----------    ---------------------------
 LUL .                   BKFLD:  LoggingUnitLoc 
 LUN .                   61841:  LoggingUnitNum 
 ENGI.             D. SANDOVAL:  Engineer Name 
 DCS .               27-Jan-10:  DateCircEndT 
 TCS .                   05 42:  Time Ciculation Ended 
 TDCE.ucts  05.43.28 27-Jan-10:  Time Circ End 
 IQVR.     WL INSITE R2.6.1 (Build 9):  WLIQ Version 
 RUN .                       1:  Run Number 
 SVCN.               XRMI_WSST:  Service Name 
 SVCS.      
 TLAB.ucts  10.01.36 27-Jan-10:  Log Start Time 
 DATE.               27-Jan-10:  Run Date 
 TLAB.                   10 01:  LogStartTimeT 
 DLAB.               27-Jan-10:  LogStartDateT 
~Curve Information Block
#MNEM.UNIT                 API CODE     Curve Description
#---------               -----------    ---------------------------
 DEPT.F                 00 000 000 000:  Depth
 DLOD.lbs               00 000 000 000:  DLOD
 GRLL.api               00 000 000 000:  Natural Gamma Ray
 LLD .ohmm              00 000 000 000:  LLD
 LLDC.ohmm              00 000 000 000:  LLDC
 LLS .ohmm              00 000 000 000:  LLS
 LLSC.ohmm              00 000 000 000:  LLSC
 MSFL.ohmm              00 000 000 000:  MSFL
 MSFLUF.ohmm            00 000 000 000:  Msfl Unfiltered
 SP  .mV                00 000 000 000:  SP
 TENS.lbs               00 000 000 000:  Cable Tension
~A   DEPT      DLOD      GRLL      LLD     LLDC    LLS     LLSC     MSFL      MSFLUF      SP      TENS    
# ...
   4130.0000 1883.0808 121.7549   2.2925 0.0000   1.9821 0.0000     2.1521     2.4422  28.7725 3376.9465 
   4130.2500 1881.4871 122.8674   2.3191 0.0000   1.9950 0.0000     2.0722     2.4600  28.4915 3368.9380 
   4130.5000 1880.9554 123.0375   2.3269 0.0000   2.0054 0.0000     1.9564     2.6339  28.2318 3360.7710 
   4130.7500 1880.9554 122.8935   2.3308 0.0000   2.0076 0.0000     1.9560     2.6362  28.1351 3351.5955 
   4131.0000 1876.9718 121.6240   2.3330 0.0000   2.0014 0.0000     1.9715     2.6765  27.9332 3342.4202 
   4131.2500 1874.0503 119.5431   2.3376 0.0000   1.9999 0.0000     1.9714     2.4403  27.7398 3335.5256 
   4131.5000 1871.1287 117.8809   2.3437 0.0000   2.0015 0.0000     2.0247     2.5812  27.6127 3331.7068 
   4131.7500 1867.1450 116.3104   2.3725 0.0000   2.0145 0.0000     2.0812     2.4531  27.4400 3331.0173 
   4132.0000 1867.9425 114.8315   2.4073 0.0000   2.0380 0.0000     2.1783     2.4877  27.3634 3333.9875 
   4132.2500 1869.5361 114.8577   2.4474 0.0000   2.0596 0.0000     2.2901     2.3686  27.3244 3341.2009 
   4132.5000 1871.1287 115.3812   2.4993 0.0000   2.0954 0.0000     2.4259     2.6501  27.1669 3351.4890 
   4132.7500 1875.1134 117.3051   2.5334 0.0000   2.1363 0.0000     2.5460     2.4898  27.1213 3362.3088 
   4133.0000 1879.0972 120.3414   2.5756 0.0000   2.1641 0.0000     2.6225     2.4074  26.9924 3371.1655 
   4133.2500 1883.0808 123.0113   2.6092 0.0000   2.1885 0.0000     2.6545     2.6844  26.8945 3378.5376 
   4133.5000 1887.8607 123.8882   2.6374 0.0000   2.2093 0.0000     2.6667     2.5871  26.8787 3385.2202 
   4133.7500 1890.5176 124.6168   2.6515 0.0000   2.2233 0.0000     2.6545     3.1400  26.7443 3391.4253 
   4134.0000 1892.1101 124.9178   2.6676 0.0000   2.2273 0.0000     2.6175     2.3456  26.5429 3394.9253 
   4134.2500 1893.7039 125.0617   2.6572 0.0000   2.2186 0.0000     2.5344     2.6581  26.3641 3394.7131 
   4134.5000 1892.6417 126.9987   2.6616 0.0000   2.2100 0.0000     2.5284     2.8623  26.1555 3391.3718 
   4134.7500 1891.8455 131.5271   2.6824 0.0000   2.2201 0.0000     2.4987     2.5259  26.0741 3388.9856 
   4135.0000 1892.6417 135.6541   2.6983 0.0000   2.2356 0.0000     2.4957     2.4988  26.0363 3386.8647 
   4135.2500 1891.0481 138.5857   2.7263 0.0000   2.2547 0.0000     2.5239     2.5252  25.9171 3385.0613 
   4135.5000 1890.5176 140.2086   2.7424 0.0000   2.2726 0.0000     2.6517     2.7412  25.8429 3382.7273 
   4135.7500 1891.3138 139.1615   2.7720 0.0000   2.2961 0.0000     2.7372     2.5338  25.8356 3381.7722 
   4136.0000 1890.5176 136.6618   2.7964 0.0000   2.3156 0.0000     2.7875     2.0306  25.9323 3383.9475 
   4136.2500 1891.8455 132.6962   2.8094 0.0000   2.3288 0.0000     2.7879     2.2835  26.0357 3389.7808 
   4136.5000 1893.4380 130.4451   2.7912 0.0000   2.3216 0.0000     2.8360     3.1855  26.1099 3395.5093 
   4136.7500 1892.6417 129.5944   2.7809 0.0000   2.2991 0.0000     2.7650     3.4719  26.0801 3400.5474 
   4137.0000 1893.9696 129.8038   2.7515 0.0000   2.2684 0.0000     2.6676     3.1072  26.0874 3404.0474 
   4137.2500 1894.5012 130.9686   2.7364 0.0000   2.2484 0.0000     2.6213     3.0552  26.1835 3406.3281 
   4137.5000 1892.9076 133.3113   2.7366 0.0000   2.2426 0.0000     2.6302     4.0396  26.3465 3406.4348 
   4137.7500 1892.9076 133.8218   2.7521 0.0000   2.2546 0.0000     2.5079     2.6729  26.4505 3404.2073 
   4138.0000 1891.0481 134.4107   2.7982 0.0000   2.2770 0.0000     2.4260     2.5228  26.5782 3400.9182 
   4138.2500 1887.0645 134.1620   2.8554 0.0000   2.3274 0.0000     2.4125     3.0613  26.6840 3399.4336 
   4138.5000 1883.8771 134.3845   2.9368 0.0000   2.4020 0.0000     2.5904     3.1909  26.8568 3400.1765 
   4138.7500 1879.6276 133.8872   3.0222 0.0000   2.4801 0.0000     2.7813     3.5804  27.1262 3401.1304 
   4139.0000 1875.3782 135.1567   3.1250 0.0000   2.5549 0.0000     2.9843     3.8700  27.3141 3401.2900 
   4139.2500 1874.5819 135.5232   3.1889 0.0000   2.6094 0.0000     3.2376     2.8171  27.4509 3400.7061 
   4139.5000 1874.3160 135.5624   3.2566 0.0000   2.6586 0.0000     3.4598     3.2431  27.5501 3400.0698 
   4139.7500 1875.9098 134.7379   3.2958 0.0000   2.6999 0.0000     3.2934     2.5139  27.6194 3398.9561 
   4140.0000 1880.6908 133.6124   3.3201 0.0000   2.7152 0.0000     3.1363     2.2311  27.7617 3397.2061 
   4140.2500 1883.0808 131.1126   3.3107 0.0000   2.7164 0.0000     3.0927     2.5037  27.9715 3394.8730 
   4140.5000 1885.4707 128.3642   3.2863 0.0000   2.7097 0.0000     3.1974     2.7191  28.0993 3394.1833 
   4140.7500 1887.0645 124.7913   3.2446 0.0000   2.6922 0.0000     3.2843     2.5935  28.2647 3394.9253 
   4141.0000 1887.0645 120.9958   3.1928 0.0000   2.6675 0.0000     3.4578     3.6473  28.3991 3396.2510 
   4141.2500 1887.0645 117.1349   3.1423 0.0000   2.6291 0.0000     3.4445     2.5963  28.5560 3396.7285 
   4141.5000 1886.2681 114.2033   3.0810 0.0000   2.5891 0.0000     3.3920     2.2266  28.7932 3396.3044 
   4141.7500 1883.8771 113.2086   3.0541 0.0000   2.5610 0.0000     3.0732     1.5338  28.9562 3394.2356 
   4142.0000 1886.0023 113.8892   3.0055 0.0000   2.5324 0.0000     2.7034     1.7487  29.0218 3392.0615 
   4142.2500 1889.1886 115.0016   2.9619 0.0000   2.5028 0.0000     2.5301     1.5604  29.0279 3389.5686 
   4142.5000 1892.3760 117.6323   2.9066 0.0000   2.4658 0.0000     2.5148     1.2962  29.0176 3387.9785 
   4142.7500 1894.7659 118.4175   2.8540 0.0000   2.4345 0.0000     2.6169     2.0073  29.0742 3389.2510 
   4143.0000 1896.6254 116.8339   2.7658 0.0000   2.3845 0.0000     2.7509     1.8408  29.2414 3392.5391 
   4143.2500 1898.2191 115.2765   2.6660 0.0000   2.3198 0.0000     2.7227     2.2572  29.2834 3396.9407 
   4143.5000 1900.6090 112.3448   2.5457 0.0000   2.2367 0.0000     2.5768     2.1106  29.3259 3401.1836 
   4143.7500 1899.8127 108.3138   2.4273 0.0000   2.1481 0.0000     2.4079     1.2435  29.4579 3404.1538 
   4144.0000 1897.9532 104.3483   2.3334 0.0000   2.0602 0.0000     2.0585     1.8451  29.6197 3406.2227 
   4144.2500 1897.1570 102.1757   2.2369 0.0000   1.9900 0.0000     1.7268     2.2216  29.7833 3407.6006 
   4144.5000 1895.8291  98.7205   2.1800 0.0000   1.9327 0.0000     1.5738     1.7490  29.8952 3407.1765 
   4144.7500 1895.0317  97.1369   2.1453 0.0000   1.9049 0.0000     1.5710     0.8463  29.8599 3406.9121 
   4145.0000 1895.8291  97.1500   2.1462 0.0000   1.9011 0.0000     1.5580     1.2330  29.8173 3407.6006 
   4145.2500 1896.6254  98.7075   2.1622 0.0000   1.9371 0.0000     1.6769     1.7618  29.8198 3410.2002 
   4145.5000 1899.5470 100.2911   2.1931 0.0000   1.9652 0.0000     1.7485     1.7310  29.7109 3413.3816 
   4145.7500 1905.1243 103.6284   2.2044 0.0000   1.9837 0.0000     1.7995     2.3450  29.7291 3414.7607 
   4146.0000 1910.7017 105.7356   2.2297 0.0000   1.9946 0.0000     1.8003     1.9049  29.7310 3413.3293 
   4146.2500 1916.2789 106.6124   2.2307 0.0000   2.0034 0.0000     1.9434     2.0951  29.7778 3409.2451 
   4146.5000 1921.0599 107.1359   2.2333 0.0000   2.0046 0.0000     1.7472     2.8452  29.9122 3401.3435 
   4146.7500 1921.0599 105.3822   2.2336 0.0000   2.0012 0.0000     1.5914     3.5668  30.0831 3389.0923 
   4147.0000 1918.1384 102.6469   2.2145 0.0000   1.9746 0.0000     1.5454     4.9384  30.2382 3372.2261 
   4147.2500 1911.7637 100.2256   2.2189 0.0000   1.9684 0.0000     1.6238     4.4456  30.5271 3354.9368 
   4147.5000 1900.6090  97.2416   2.2616 0.0000   1.9975 0.0000     1.5817     2.0321  30.6590 3341.8894 
   4147.7500 1889.4543  93.9174   2.3798 0.0000   2.0941 0.0000     1.9090     2.0938  30.7618 3334.9949 
   4148.0000 1879.6276  91.3914   2.5513 0.0000   2.2491 0.0000     2.1120     1.9266  30.7898 3333.2981 
   4148.2500 1871.6603  87.0856   2.7629 0.0000   2.4443 0.0000     2.3168     2.5068  30.7296 3336.3740 
   4148.5000 1869.2704  81.0521   2.9730 0.0000   2.6412 0.0000     2.5083     2.5230  30.7588 3344.1169 
   4148.7500 1870.0667  74.7962   3.1840 0.0000   2.8120 0.0000     3.2727     2.5248  30.7217 3356.4749 
