~VERSION INFORMATION
VERS  .       2.0                       : CWLS LOG ASCII STANDARD - VERSION 2.0
WRAP  .       NO                        : One line per depth step
~WELL INFORMATION
#MNEM .UNIT   DATA                      : DESCRIPTION OF MNEMONIC
#-----.----   ----                      : -----------------------
STRT  .ft     1900.0000                 : Start
STOP  .ft     6773.0000                 : Stop
STEP  .ft        1.0000                 : Step increment
NULL  .       -999.2500                 : Null value
COMP  .       Venoco                    : Company
WELL  .       Bradley Minerals2-6       : Well
FLD   .       Bradley Minerals          : Field
LOC   .                                 : Location
SRVC  .                                 : Service company
DATE  .       1/26/2010                 : Logging date
CNTY  .       Monterey                  : County
STAT  .       California                : State
CTRY  .       USA                       : Country
API   .       040532202900              : API number
UWI   .       040532202900              : Unique Well Identifier
~CURVE INFORMATION
#MNEM .UNIT   API CODE                  : CURVE DESCRIPTION
#-----.----   --------                  : -----------------
DEPT  .ft                               : Measured Depth
GR    .aapi                             : Gamma Ray
ROP   .ft/hr                            : Rate of Penetration
VRMS  .G                                : Average Vibration
VPK   .G                                : Peak Vibration
T-TEMP.degF                             : Tool Temperature
~PARAMETER INFORMATION
#MNEM .UNIT   VALUE                     : DESCRIPTION
#-----.----   -----                     : -----------
~OTHER INFORMATION
~A  DEPT         GR        ROP       VRMS        VPK     T-TEMP   
# ...
 3460.0000    74.2933    65.5306     2.4693     6.0472   101.4488 
 3461.0000    75.9144    70.1181     2.4786     6.0472   101.4488 
 3462.0000    80.6213    74.5898     2.4878     6.0472   101.4488 
 3463.0000    89.9540    75.3586     2.4970     6.0472   101.4488 
 3464.0000    89.8263    72.1116     2.5063     6.0472   101.4488 
 3465.0000    88.7423    14.1083     2.5155     6.0472   101.4488 
 3466.0000    90.8911    32.5238     2.5278     6.0472   101.4488 
 3467.0000    91.3245    69.9706     2.5424     6.0472   101.4488 
 3468.0000    85.5831    77.3105     2.5571     6.0472   101.4488 
 3469.0000    83.1108    77.2699     2.5718     6.0472   101.4488 
 3470.0000    74.7014    78.1278     2.5865     6.0472   101.4488 
 3471.0000    67.2581    79.1037     2.6011     6.0472   101.4488 
 3472.0000    57.8890    84.7835     2.6158     6.0472   101.4488 
 3473.0000    60.4022    96.9212     2.6305     6.0472   101.4488 
 3474.0000    71.8227    92.3802     2.6452     6.0472   101.4488 
 3475.0000    79.2447    82.1214     2.6598     6.0472   101.4488 
 3476.0000    80.7588    69.7882     2.6745     6.0682   101.4488 
 3477.0000    78.9962    63.7805     2.6913     6.1548   101.4598 
 3478.0000    77.3414    67.2353     2.7085     6.2413   101.7371 
 3479.0000    75.7872    63.8585     2.7258     6.3279   102.0144 
 3480.0000    73.0799    70.5953     2.7430     6.4144   102.2917 
 3481.0000    68.7930    67.9458     2.7603     6.5010   102.5690 
 3482.0000    68.7948    61.8654     2.7775     6.5875   102.8463 
 3483.0000    67.9934    72.4083     2.7947     6.6740   103.1236 
 3484.0000    66.1128    92.0013     2.8120     6.7606   103.4008 
 3485.0000    66.2585   112.9816     2.8292     6.8471   103.6781 
 3486.0000    65.5338   115.4927     2.8478     6.9337   103.9291 
 3487.0000    64.9098   112.8388     2.8670     7.0202   103.9291 
 3488.0000    60.9226   113.5658     2.8862     7.1068   103.9291 
 3489.0000    54.0720   108.3356     2.9055     7.1933   103.9291 
 3490.0000    53.7500    94.1622     2.9247     7.2799   103.9291 
 3491.0000    58.5509   101.9310     2.9439     7.3664   103.9291 
 3492.0000    56.9837   114.7587     2.9631     7.4530   103.9291 
 3493.0000    58.1426   114.6098     2.9823     7.5395   103.9291 
 3494.0000    60.3996   112.7146     2.9735     7.8242   103.9291 
 3495.0000    60.3763   106.9436     2.9356     8.1668   103.9291 
 3496.0000    61.8267   103.9002     2.8976     8.5094   103.9291 
 3497.0000    66.4103    33.3327     2.8596     8.8520   103.9291 
 3498.0000    70.0796    26.7699     2.8216     9.1946   103.9291 
 3499.0000    73.4779    20.2118     2.7837     9.5372   103.9291 
 3500.0000    73.6154    14.0951     2.7457     9.8798   103.9291 
 3501.0000    73.1889    19.2706     2.7077     9.9074   103.9291 
 3502.0000    75.3244    27.0170     2.6800     9.4988   103.9291 
 3503.0000    76.0742    30.4524     2.6947     9.0902   103.9291 
 3504.0000    80.3316    35.0900     2.7094     8.6816   103.9291 
 3505.0000    83.3999    38.4033     2.7240     8.2730   103.9291 
 3506.0000    84.0878    31.5100     2.7387     7.8644   103.9291 
 3507.0000    83.4995    26.9485     2.7534     7.4558   103.9291 
 3508.0000    82.0329    33.0527     2.7680     7.0472   103.9291 
 3509.0000    82.2721    39.7744     2.7827     6.6386   103.9291 
 3510.0000    85.1698    38.9179     2.7974     6.2300   103.9291 
 3511.0000    90.9323    51.5277     2.8120     5.8214   103.9291 
 3512.0000    89.7859    64.9484     2.8267     5.5657   103.9291 
 3513.0000    89.4929    78.5982     2.8346     5.6360   103.9291 
 3514.0000    94.4040   102.1730     2.8346     5.7062   103.9291 
 3515.0000   100.3276   110.1247     2.8346     5.7765   103.9291 
 3516.0000   100.1253   111.5856     2.8346     5.8467   103.9291 
 3517.0000   100.7778   116.9286     2.8346     5.9170   103.9291 
 3518.0000   102.0942   120.4044     2.8346     5.9873   103.9291 
 3519.0000   103.4814   121.3921     2.8346     6.0575   103.9291 
 3520.0000   113.7810   122.3533     2.8346     6.1278   103.9291 
 3521.0000   123.9486   125.0378     2.8346     6.1980   103.9291 
 3522.0000   101.2108   125.3296     2.8346     6.2683   103.9291 
 3523.0000    65.4155    90.3399     2.8346     6.3385   103.9291 
 3524.0000    65.8577    61.8961     2.8346     6.4088   103.9291 
 3525.0000    66.8832    54.9255     2.8346     6.4790   103.9291 
 3526.0000    64.8647    67.5955     2.8346     6.5493   103.9291 
 3527.0000    64.9694    71.6275     2.8373     6.5834   103.9291 
 3528.0000    62.3596    56.8313     2.8432     6.6166   103.9291 
 3529.0000    62.5121    36.3104     2.8491     6.6498   103.9291 
 3530.0000    64.4444    40.2176     2.8550     6.6830   103.9291 
 3531.0000    61.8826    63.8502     2.8609     6.7161   103.9291 
 3532.0000    59.8128    74.8506     2.8667     6.7493   103.9291 
 3533.0000    62.6009    76.2651     2.8726     6.7825   103.9291 
 3534.0000    62.1092    78.9201     2.8785     6.8157   103.9291 
 3535.0000    55.9212    75.1826     2.8844     6.8488   103.9291 
 3536.0000    60.1225    70.1463     2.8903     6.8820   103.9291 
 3537.0000    67.5093    68.8142     2.8962     6.9152   103.9291 
 3538.0000    65.9875    61.1888     2.9020     6.9483   103.9291 
 3539.0000    65.8776    53.6936     2.9079     6.9815   103.9291 
 3540.0000    68.3859    52.5886     2.9138     7.0147   103.9291 
 3541.0000    74.3333    52.3523     2.9197     7.0479   103.9291 
 3542.0000    73.8290    53.5046     2.9256     7.0551   103.9291 
 3543.0000    68.4768    50.5844     2.9314     7.0551   103.9291 
 3544.0000    70.0611    46.9051     2.9373     7.0551   103.9291 
 3545.0000    68.0000    47.0250     2.9432     7.0551   103.9291 
 3546.0000    70.0423    47.9759     2.9491     7.0551   103.9291 
 3547.0000    76.3640    46.0042     2.9550     7.0551   103.9291 
 3548.0000    73.8743    45.0879     2.9608     7.0551   103.9291 
 3549.0000    69.4099    46.7778     2.9667     7.0551   103.9291 
 3550.0000    62.8718    50.5009     2.9726     7.0551   103.9291 
 3551.0000    62.0664    53.0574     2.9785     7.0551   103.9291 
 3552.0000    68.2716    50.9200     2.9844     7.0551   103.9291 
 3553.0000    73.7620    50.0437     2.9902     7.0683   103.9291 
 3554.0000    75.6667    51.0303     2.9830     7.1600   103.9291 
 3555.0000    75.1728    52.2738     2.9695     7.2518   103.9291 
 3556.0000    68.7914    53.1357     2.9561     7.3436   103.9291 
 3557.0000    63.2376    54.8404     2.9426     7.4353   103.9291 
 3558.0000    60.4782    56.7596     2.9291     7.5271   103.9291 
 3559.0000    61.2605    45.4454     2.9157     7.6188   103.9291 
 3560.0000    61.1838    33.8170     2.9022     7.7106   103.9291 
 3561.0000    55.7010    50.0226     2.8887     7.8024   103.9291 
 3562.0000    61.1291    69.4959     2.8753     7.8941   103.9291 
 3563.0000    68.2453    69.5853     2.8618     7.9859   103.9291 
 3564.0000    64.1000    62.4769     2.8483     7.9668   103.9291 
 3565.0000    61.8344    61.2052     2.8349     7.3638   103.9291 
 3566.0000    60.9218    69.1128     2.7821     6.7608   103.9291 
 3567.0000    59.9662    76.7649     2.7285     6.1578   103.9291 
 3568.0000    56.6142    75.4078     2.6750     5.5548   103.9291 
 3569.0000    58.1500    58.9497     2.6214     4.9518   103.9291 
 3570.0000    56.1429    56.9458     2.5679     4.5712   103.9291 
 3571.0000    52.8337    62.0838     2.5216     4.6868   103.9985 
 3572.0000    54.6049    52.8886     2.5406     4.8024   104.0679 
 3573.0000    57.0000    64.9787     2.5596     4.9179   104.1374 
 3574.0000    54.0840    84.8836     2.5785     5.0335   104.2068 
 3575.0000    51.1790    78.9974     2.5975     5.1491   104.2762 
 3576.0000    54.0000    72.9027     2.6165     5.2647   104.3456 
 3577.0000    59.8096    73.1749     2.6355     5.3803   104.4150 
 3578.0000    65.0903    74.3287     2.6545     5.4958   104.4845 
 3579.0000    63.0840    64.6438     2.6735     5.6114   104.5539 
