~Version Information
 VERS.                  2.0:   CWLS log ASCII Standard -VERSION 2.0
 WRAP.                   NO:   One line per depth step
~Well Information Block
#MNEM.UNIT     VALUE/NAME     DESCRIPTION
#---------     -----------    ---------------------------
 STRT.F              1831.0000: START DEPTH
 STOP.F              6790.7500: STOP DEPTH
 STEP.F                 0.2500: STEP DEPTH
 NULL.                 -999.25: NULL VALUE
 FL5 .        Long -120.825003:  LOCATIONLINE5
 FL4 .          Lat  35.869473:  LOCATIONLINE4
 FL3 .          X  6,020,938.4:  LOCATIONLINE3
 FL2 .          Y  1,840,736.7:  LOCATIONLINE2
 FL1 .        NAD 83 CA ZONE 4:  LOCATIONLINE1
 RIG .                KENAI 16:  RIG NAME
 CTRY.                      US:  COUNTRY NAME
 CNTY.                MONTEREY:  COUNTY NAME
 LUL .                   BKFLD:  LOGGINGUNITLOC
 FLD .           SOUTH SALINAS:  FIELD NAME
 WELL.     BRADLEY MINERALS 2-6:  WELL NAME
 COMP.             VENOCO INC.:  COMPANY
 MDS .        Operator Entered:  MAG DATA SOURCE
 SVCO.             Halliburton:  SERVICECONAME
 IQVR.                  R2.6.1:  WLIQ VERSION
 PROV.                      CA:  PROVINCE
 STAT.                      CA:  STATE NAME
 SON .                 7136075:  JOB NUMBER
 SECT.                       6:  SECTION
 TOWN.                     24S:  TOWNSHIP
 RANG.                     11E:  RANGE
 UWI .            040532202900:  UNIQUE WELL IDENTIFIER
 API .       04-053-22029-0000:  API NUMBER
 PDAT.                      GL:  PERMANENT DATUM
 DMF .                      KB:  DRILL MEAS FROM
 DATE.                        :  DATE
 SRVC.             Halliburton:  SERVICE COMPANY
 LOC .                        :  LOCATION
 LMF .                      KB:  LOG MEASURED FROM
 APD .ft               23.0000:  DEPTH ABOVE PD
 GRDC.deg               0.0000:  GRID CORRECTION
 MDEC.deg               0.0000:  MAGNETIC DECL
 AZTC.deg               0.0000:  AZM TOTAL CORR
 MFLD.nT            48150.0000:  MAGNETIC FIELD
 EGL .ft              542.0000:  GROUND ELEVATION
 EPD .ft              542.0000:  ELEVATION
 GVFD.g                 1.0000:  GRAVITY FIELD
 TVDS.ft              565.0000:  TVDSS CORRECTN
 EKB .ft              565.0000:  KB ELEVATION
 EDF .ft                0.0000:  DF ELEVATION
 MAGU.                 1444500:  MAGUTM CHECKSUM
 VSC .                       1:  VS TO CLOSURE
~Parameter Information Block
#MNEM.UNIT       Value        Description
#---------     -----------    ---------------------------
 LUL .                   BKFLD:  LoggingUnitLoc 
 LUN .                   61841:  LoggingUnitNum 
 ENGI.             D. SANDOVAL:  Engineer Name 
 DCS .               27-Jan-10:  DateCircEndT 
 TCS .                   05 42:  Time Ciculation Ended 
 TDCE.ucts  05.43.28 27-Jan-10:  Time Circ End 
 IQVR.     WL INSITE R2.6.1 (Build 9):  WLIQ Version 
 RUN .                       1:  Run Number 
 SVCN.               XRMI_WSST:  Service Name 
 SVCS.      
 TLAB.ucts  10.01.36 27-Jan-10:  Log Start Time 
 DATE.               27-Jan-10:  Run Date 
 TLAB.                   10 01:  LogStartTimeT 
 DLAB.               27-Jan-10:  LogStartDateT 
~Curve Information Block
#MNEM.UNIT                 API CODE     Curve Description
#---------               -----------    ---------------------------
 DEPT.F                 00 000 000 000:  Depth
 DLOD.lbs               00 000 000 000:  DLOD
 GRLL.api               00 000 000 000:  Natural Gamma Ray
 LLD .ohmm              00 000 000 000:  LLD
 LLDC.ohmm              00 000 000 000:  LLDC
 LLS .ohmm              00 000 000 000:  LLS
 LLSC.ohmm              00 000 000 000:  LLSC
 MSFL.ohmm              00 000 000 000:  MSFL
 MSFLUF.ohmm            00 000 000 000:  Msfl Unfiltered
 SP  .mV                00 000 000 000:  SP
 TENS.lbs               00 000 000 000:  Cable Tension
~A   DEPT      DLOD      GRLL      LLD     LLDC    LLS     LLSC     MSFL      MSFLUF      SP      TENS    
# ...
   5783.0000 1913.8889  82.1842   6.1800 0.0000   5.8347 0.0000     4.4856     7.1610  20.6601 4014.2236 
   5783.2500 1912.0295  68.7890   6.4434 0.0000   6.0761 0.0000     4.1057     6.5776  20.7130 4009.6096 
   5783.5000 1908.0459  57.4594   6.7898 0.0000   6.3417 0.0000     5.2442     6.5204  20.7422 4004.3586 
   5783.7500 1904.8585  48.7342   7.2608 0.0000   6.7436 0.0000     7.8092     6.0834  20.7422 3997.7827 
   5784.0000 1900.0785  43.0302   7.6650 0.0000   7.1164 0.0000     9.7375     9.3514  20.7191 3991.5244 
   5784.2500 1894.5012  40.6919   7.8704 0.0000   7.2650 0.0000     9.6210    15.9435  20.6723 3989.2437 
   5784.5000 1893.7039  42.2907   7.8030 0.0000   7.1828 0.0000     9.5641     9.2307  20.6176 3991.5244 
   5784.7500 1895.0317  47.8945   7.5912 0.0000   6.9863 0.0000     8.1204     2.8171  20.5172 3997.7827 
   5785.0000 1898.4849  57.2980   7.3610 0.0000   6.8008 0.0000     6.2497     4.5844  20.3639 4006.0032 
   5785.2500 1904.0623  69.2579   7.0587 0.0000   6.5994 0.0000     5.6980     5.6000  20.1967 4015.9202 
   5785.5000 1909.6395  82.6990   6.6651 0.0000   6.2855 0.0000     6.7261     5.4800  20.0063 4026.4214 
   5785.7500 1915.4827  96.2884   6.2973 0.0000   5.9483 0.0000     7.3523     5.1745  19.7935 4034.4832 
   5786.0000 1921.0599 109.3107   5.9657 0.0000   5.6891 0.0000     7.1527     4.8987  19.5520 4035.7556 
   5786.2500 1921.8563 120.0993   5.6962 0.0000   5.4986 0.0000     6.5301     4.2860  19.2595 4030.7178 
   5786.5000 1919.9968 130.1507   5.4719 0.0000   5.3129 0.0000     6.1508     4.6549  18.9688 4023.7166 
   5786.7500 1916.0132 138.8540   5.2677 0.0000   5.1186 0.0000     5.2407     4.3903  18.7091 4016.4509 
   5787.0000 1906.4521 145.1732   5.0650 0.0000   4.9196 0.0000     4.9495     4.8151  18.4719 4010.5647 
   5787.2500 1897.4227 149.2107   4.8600 0.0000   4.7041 0.0000     4.7379     3.9997  18.2579 4005.8442 
   5787.5000 1889.4543 151.6123   4.6464 0.0000   4.5081 0.0000     4.5893     4.4961  18.0523 4005.4724 
   5787.7500 1883.0808 151.2568   4.4796 0.0000   4.3642 0.0000     4.3702     4.4935  17.8838 4012.4202 
   5788.0000 1883.0808 150.6613   4.3596 0.0000   4.2591 0.0000     4.5253     4.3853  17.7817 4024.3538 
   5788.2500 1885.7366 150.9819   4.2751 0.0000   4.1833 0.0000     4.3900     4.5832  17.7014 4035.0139 
   5788.5000 1889.7202 151.2132   4.2254 0.0000   4.1372 0.0000     4.2922     5.1960  17.6211 4041.4309 
   5788.7500 1899.2811 151.6625   4.1938 0.0000   4.1115 0.0000     4.2619     5.5853  17.5262 4042.1206 
   5789.0000 1907.7800 153.5210   4.1976 0.0000   4.1103 0.0000     4.2476     5.6670  17.4314 4040.1584 
   5789.2500 1915.2169 154.3477   4.2361 0.0000   4.1462 0.0000     4.3317     5.0029  17.3803 4035.5969 
   5789.5000 1921.5905 154.6029   4.2996 0.0000   4.3438 0.0000     4.3737     5.3242  17.3292 4028.6489 
   5789.7500 1923.1842 155.9727   4.3638 0.0000   4.6044 0.0000     4.4062     3.7907  17.2781 4020.9060 
   5790.0000 1922.6526 157.2597   4.4403 0.0000   4.7880 0.0000     4.4681     2.7926  17.2781 4015.9736 
   5790.2500 1920.2626 155.6062   4.5405 0.0000   4.9410 0.0000     4.5818     3.5658  17.3146 4015.6025 
   5790.5000 1916.2789 153.4424   4.6772 0.0000   5.0921 0.0000     4.9434     3.5714  17.4168 4018.2544 
   5790.7500 1913.3574 149.8302   4.8227 0.0000   5.2156 0.0000     5.5268     2.5534  17.5925 4021.2769 
   5791.0000 1910.9674 144.0629   4.9578 0.0000   5.3298 0.0000     5.7545     3.0210  17.7829 4023.1335 
   5791.2500 1910.1700 138.5879   5.0578 0.0000   5.2688 0.0000     6.1476     2.7095  18.0474 4024.6182 
   5791.5000 1912.5610 135.2352   5.1446 0.0000   5.2253 0.0000     6.2932     1.4732  18.3491 4025.8918 
   5791.7500 1916.0132 132.9144   5.1954 0.0000   5.2969 0.0000     5.6355     2.9749  18.6367 4024.1941 
   5792.0000 1919.9968 133.4946   5.1948 0.0000   5.4242 0.0000     4.7223     2.7628  18.9323 4018.2009 
   5792.2500 1923.1842 137.1242   5.1120 0.0000   5.3618 0.0000     4.3452     2.4063  19.2066 4009.9807 
   5792.5000 1925.3094 142.0888   4.9322 0.0000   5.2314 0.0000     3.7227     3.3998  19.4377 4001.2295 
   5792.7500 1926.1057 147.3719   4.7170 0.0000   5.0115 0.0000     3.0748     3.7712  19.6548 3992.6382 
   5793.0000 1922.1221 154.3367   4.5349 0.0000   4.8090 0.0000     2.9175     4.1515  19.7673 3982.5078 
   5793.2500 1917.0752 159.6133   4.3892 0.0000   4.5490 0.0000     2.6236     4.1990  19.8275 3971.3704 
   5793.5000 1910.9674 163.1927   4.2952 0.0000   4.2823 0.0000     2.1678     4.0952  19.8652 3963.3098 
   5793.7500 1903.7964 165.1123   4.2517 0.0000   4.0175 0.0000     1.9907     3.7276  19.8652 3960.9224 
   5794.0000 1899.5470 165.5965   4.2849 0.0000   3.9804 0.0000     1.9806     4.9140  19.8202 3963.5740 
   5794.2500 1897.1570 164.2921   4.4424 0.0000   4.0969 0.0000     1.9558     5.1088  19.7284 3969.6201 
   5794.5000 1896.3596 162.7783   4.7359 0.0000   4.4250 0.0000     2.2989     5.1383  19.6293 3980.2280 
   5794.7500 1901.9369 160.4138   5.1487 0.0000   4.8846 0.0000     2.8572     5.2503  19.5897 3995.5020 
   5795.0000 1907.5143 160.2764   5.6170 0.0000   5.3201 0.0000     3.3696     5.9662  19.5587 4013.6929 
   5795.2500 1913.8889 160.3571   6.0953 0.0000   5.7536 0.0000     3.8794     6.2343  19.5204 4029.6572 
   5795.5000 1921.8563 160.5272   6.5801 0.0000   6.1695 0.0000     4.2501     6.4459  19.4900 4040.2639 
   5795.7500 1926.6373 163.2255   7.0429 0.0000   6.5535 0.0000     4.5075     5.4826  19.4821 4045.1965 
   5796.0000 1928.4957 166.3905   7.4491 0.0000   6.8685 0.0000     4.9305     6.8569  19.5283 4045.7273 
   5796.2500 1927.6995 168.5500   7.6959 0.0000   7.0343 0.0000     5.2203     6.4601  19.5666 4040.8479 
   5796.5000 1921.3247 172.0989   7.7362 0.0000   7.0316 0.0000     5.5547     8.2880  19.5910 4032.0435 
   5796.7500 1914.9510 175.1636   7.6900 0.0000   7.0084 0.0000     5.9819     7.4833  19.6299 4022.6028 
   5797.0000 1908.5774 176.0776   7.6183 0.0000   6.9213 0.0000     6.3654     8.0847  19.6755 4019.3147 
   5797.2500 1904.5927 176.4266   7.5430 0.0000   6.8327 0.0000     6.4283     7.4673  19.7521 4023.4521 
   5797.5000 1904.8585 175.2662   7.4742 0.0000   6.7375 0.0000     6.3682     7.7845  19.8361 4035.7556 
   5797.7500 1909.3738 172.4589   7.4111 0.0000   6.6603 0.0000     6.4975     7.4495  19.9194 4052.9395 
   5798.0000 1918.1384 169.4400   7.3905 0.0000   6.6078 0.0000     6.7028     7.5711  20.0252 4072.4038 
   5798.2500 1933.2767 166.0241   7.4192 0.0000   6.6113 0.0000     6.9392     7.4571  20.1389 4091.4963 
   5798.5000 1948.4150 161.8905   7.5124 0.0000   6.6849 0.0000     7.3686     7.0273  20.2600 4106.5059 
   5798.7500 1964.3507 157.5214   7.6763 0.0000   6.8642 0.0000     7.7729     6.8733  20.4199 4111.8628 
   5799.0000 1977.0980 153.3443   7.8729 0.0000   7.0735 0.0000     8.2104     5.7588  20.5634 4109.2109 
   5799.2500 1984.5348 148.5345   8.0572 0.0000   7.2821 0.0000     8.4777     5.0864  20.7380 4100.8306 
   5799.5000 1987.4563 143.3932   8.1841 0.0000   7.4443 0.0000     8.6180     7.1905  20.8827 4090.4893 
   5799.7500 1986.6600 137.3096   8.2176 0.0000   7.5461 0.0000     8.4701     4.8801  21.0123 4079.7227 
   5800.0000 1980.2854 131.4289   8.1562 0.0000   7.5562 0.0000     8.5252     5.3754  21.1479 4068.5852 
   5800.2500 1973.1144 125.4653   7.9816 0.0000   7.4597 0.0000     8.1459     5.4052  21.2683 4058.7202 
   5800.5000 1965.9434 120.2498   7.7146 0.0000   7.2489 0.0000     7.7039     5.3469  21.3942 4053.4167 
   5800.7500 1957.9761 115.5841   7.3625 0.0000   6.9595 0.0000     7.0522     4.8751  21.5201 4052.0911 
   5801.0000 1953.1960 111.3589   6.9785 0.0000   6.6215 0.0000     6.3064     4.5544  21.6587 4052.1975 
   5801.2500 1950.8051 106.8240   6.6201 0.0000   6.2852 0.0000     5.6491     5.2052  21.8485 4051.8257 
   5801.5000 1950.0087 102.1343   6.3044 0.0000   5.9762 0.0000     5.2161     3.6440  22.0382 4053.0459 
   5801.7500 1953.1960  97.4292   6.0525 0.0000   5.7303 0.0000     4.7301     4.3633  22.2426 4057.1824 
