~Version Information
 VERS.                  2.0:   CWLS log ASCII Standard -VERSION 2.0
 WRAP.                   NO:   One line per depth step
~Well Information Block
#MNEM.UNIT     VALUE/NAME     DESCRIPTION
#---------     -----------    ---------------------------
 STRT.F              1831.0000: START DEPTH
 STOP.F              6790.7500: STOP DEPTH
 STEP.F                 0.2500: STEP DEPTH
 NULL.                 -999.25: NULL VALUE
 FL5 .        Long -120.825003:  LOCATIONLINE5
 FL4 .          Lat  35.869473:  LOCATIONLINE4
 FL3 .          X  6,020,938.4:  LOCATIONLINE3
 FL2 .          Y  1,840,736.7:  LOCATIONLINE2
 FL1 .        NAD 83 CA ZONE 4:  LOCATIONLINE1
 RIG .                KENAI 16:  RIG NAME
 CTRY.                      US:  COUNTRY NAME
 CNTY.                MONTEREY:  COUNTY NAME
 LUL .                   BKFLD:  LOGGINGUNITLOC
 FLD .           SOUTH SALINAS:  FIELD NAME
 WELL.     BRADLEY MINERALS 2-6:  WELL NAME
 COMP.             VENOCO INC.:  COMPANY
 MDS .        Operator Entered:  MAG DATA SOURCE
 SVCO.             Halliburton:  SERVICECONAME
 IQVR.                  R2.6.1:  WLIQ VERSION
 PROV.                      CA:  PROVINCE
 STAT.                      CA:  STATE NAME
 SON .                 7136075:  JOB NUMBER
 SECT.                       6:  SECTION
 TOWN.                     24S:  TOWNSHIP
 RANG.                     11E:  RANGE
 UWI .            040532202900:  UNIQUE WELL IDENTIFIER
 API .       04-053-22029-0000:  API NUMBER
 PDAT.                      GL:  PERMANENT DATUM
 DMF .                      KB:  DRILL MEAS FROM
 DATE.                        :  DATE
 SRVC.             Halliburton:  SERVICE COMPANY
 LOC .                        :  LOCATION
 LMF .                      KB:  LOG MEASURED FROM
 APD .ft               23.0000:  DEPTH ABOVE PD
 GRDC.deg               0.0000:  GRID CORRECTION
 MDEC.deg               0.0000:  MAGNETIC DECL
 AZTC.deg               0.0000:  AZM TOTAL CORR
 MFLD.nT            48150.0000:  MAGNETIC FIELD
 EGL .ft              542.0000:  GROUND ELEVATION
 EPD .ft              542.0000:  ELEVATION
 GVFD.g                 1.0000:  GRAVITY FIELD
 TVDS.ft              565.0000:  TVDSS CORRECTN
 EKB .ft              565.0000:  KB ELEVATION
 EDF .ft                0.0000:  DF ELEVATION
 MAGU.                 1444500:  MAGUTM CHECKSUM
 VSC .                       1:  VS TO CLOSURE
~Parameter Information Block
#MNEM.UNIT       Value        Description
#---------     -----------    ---------------------------
 LUL .                   BKFLD:  LoggingUnitLoc 
 LUN .                   61841:  LoggingUnitNum 
 ENGI.             D. SANDOVAL:  Engineer Name 
 DCS .               27-Jan-10:  DateCircEndT 
 TCS .                   05 42:  Time Ciculation Ended 
 TDCE.ucts  05.43.28 27-Jan-10:  Time Circ End 
 IQVR.     WL INSITE R2.6.1 (Build 9):  WLIQ Version 
 RUN .                       1:  Run Number 
 SVCN.               XRMI_WSST:  Service Name 
 SVCS.      
 TLAB.ucts  10.01.36 27-Jan-10:  Log Start Time 
 DATE.               27-Jan-10:  Run Date 
 TLAB.                   10 01:  LogStartTimeT 
 DLAB.               27-Jan-10:  LogStartDateT 
~Curve Information Block
#MNEM.UNIT                 API CODE     Curve Description
#---------               -----------    ---------------------------
 DEPT.F                 00 000 000 000:  Depth
 DLOD.lbs               00 000 000 000:  DLOD
 GRLL.api               00 000 000 000:  Natural Gamma Ray
 LLD .ohmm              00 000 000 000:  LLD
 LLDC.ohmm              00 000 000 000:  LLDC
 LLS .ohmm              00 000 000 000:  LLS
 LLSC.ohmm              00 000 000 000:  LLSC
 MSFL.ohmm              00 000 000 000:  MSFL
 MSFLUF.ohmm            00 000 000 000:  Msfl Unfiltered
 SP  .mV                00 000 000 000:  SP
 TENS.lbs               00 000 000 000:  Cable Tension
~A   DEPT      DLOD      GRLL      LLD     LLDC    LLS     LLSC     MSFL      MSFLUF      SP      TENS    
# ...
   2496.0000 1856.7878 117.1219   1.9387 0.0000   1.5082 0.0000     1.4094     1.0622  42.5481 2895.9653 
   2496.2500 1856.2562 113.2086   1.9103 0.0000   1.4825 0.0000     1.4264     1.4144  42.7640 2895.0115 
   2496.5000 1855.4600 110.6696   1.8722 0.0000   1.4619 0.0000     1.4842     1.5591  42.9568 2891.7756 
   2496.7500 1856.2562 108.4709   1.8577 0.0000   1.4488 0.0000     1.4633     0.8354  43.1192 2887.1086 
   2497.0000 1855.4600 106.9789   1.8496 0.0000   1.4287 0.0000     1.4237     1.5804  43.2725 2881.8584 
   2497.2500 1853.0688 104.1389   1.8130 0.0000   1.4072 0.0000     1.3876     1.3664  43.4038 2875.7590 
   2497.5000 1852.2726 100.6706   1.7942 0.0000   1.3834 0.0000     1.3289     1.0980  43.5504 2868.9709 
   2497.7500 1850.6788  97.5165   1.7923 0.0000   1.3773 0.0000     1.2057     1.0288  43.7122 2863.2424 
   2498.0000 1849.6168  94.5456   1.7849 0.0000   1.3810 0.0000     1.1405     1.0885  43.9707 2859.7957 
   2498.2500 1851.2104  91.5616   1.7895 0.0000   1.3827 0.0000     1.3126     1.0300  44.2881 2857.9390 
   2498.5000 1852.5383  89.2843   1.7835 0.0000   1.3833 0.0000     1.3481     0.7699  44.6129 2856.6130 
   2498.7500 1854.1321  87.3473   1.7469 0.0000   1.3736 0.0000     1.2972     1.0328  44.8276 2855.7646 
   2499.0000 1855.7246  85.2795   1.7252 0.0000   1.3565 0.0000     1.3873     1.1470  45.0733 2856.1890 
   2499.2500 1855.9904  83.1331   1.6892 0.0000   1.3352 0.0000     1.4342     0.9991  45.2600 2857.9390 
   2499.5000 1855.9904  81.2485   1.6335 0.0000   1.3157 0.0000     1.2498     1.3331  45.3731 2860.1665 
   2499.7500 1856.5220  80.5417   1.6024 0.0000   1.2848 0.0000     1.1859     1.4964  45.2928 2862.8713 
   2500.0000 1856.5220  80.4370   1.5652 0.0000   1.2587 0.0000     1.2553     1.3311  45.0727 2867.2732 
   2500.2500 1858.3815  80.6857   1.5226 0.0000   1.2325 0.0000     1.0884     0.9564  44.8598 2873.3193 
   2500.5000 1862.3651  82.8059   1.5158 0.0000   1.2164 0.0000     0.9826     0.8806  44.7497 2879.1536 
   2500.7500 1867.6766  85.8292   1.5122 0.0000   1.2073 0.0000     0.9875     0.8977  44.5484 2882.6003 
   2501.0000 1870.5983  89.3497   1.5064 0.0000   1.2150 0.0000     0.9991     0.8032  44.3684 2885.0930 
   2501.2500 1870.5983  94.0482   1.5252 0.0000   1.2181 0.0000     1.0037     0.8557  44.2547 2888.6997 
   2501.5000 1869.8008  98.0269   1.5267 0.0000   1.2212 0.0000     1.1284     0.7831  44.3410 2894.4807 
   2501.7500 1867.4109  99.7152   1.5073 0.0000   1.2210 0.0000     1.2267     0.9715  44.5381 2899.9429 
   2502.0000 1865.8171  99.0085   1.5030 0.0000   1.2112 0.0000     1.2310     0.9539  44.6986 2904.4512 
   2502.2500 1862.0994  95.0822   1.4722 0.0000   1.1940 0.0000     1.2109     0.7446  44.8081 2909.0127 
   2502.5000 1857.5841  89.7424   1.4239 0.0000   1.1748 0.0000     1.1293     0.7671  45.0088 2914.6870 
   2502.7500 1854.3967  85.0439   1.4009 0.0000   1.1467 0.0000     0.9998     1.0724  45.1955 2920.6799 
   2503.0000 1854.1321  81.2092   1.3634 0.0000   1.1192 0.0000     0.9320     0.9102  45.2782 2924.5518 
   2503.2500 1855.1941  79.9135   1.3238 0.0000   1.1004 0.0000     0.8616     0.8069  45.2058 2925.3469 
   2503.5000 1857.5841  79.9397   1.3194 0.0000   1.0859 0.0000     0.8488     1.2312  45.0964 2925.6655 
   2503.7500 1857.5841  80.5156   1.3045 0.0000   1.0817 0.0000     0.8609     0.9387  45.0161 2925.9844 
   2504.0000 1858.1157  81.4840   1.2956 0.0000   1.0814 0.0000     0.8544     1.0798  44.9869 2926.0364 
   2504.2500 1858.1157  83.2640   1.3135 0.0000   1.0851 0.0000     0.8477     1.0050  44.8963 2924.8171 
   2504.5000 1857.8499  84.4942   1.3260 0.0000   1.0965 0.0000     0.8585     0.9279  44.8282 2921.8469 
   2504.7500 1856.5220  86.6406   1.3371 0.0000   1.1115 0.0000     0.8930     1.3557  44.8707 2918.7710 
   2505.0000 1854.1321  88.3289   1.3656 0.0000   1.1256 0.0000     0.8857     0.8973  45.0167 2915.6418 
   2505.2500 1851.2104  90.0041   1.3789 0.0000   1.1363 0.0000     0.8954     2.0197  45.1706 2911.0803 
   2505.5000 1848.8195  91.0119   1.3959 0.0000   1.1519 0.0000     0.9411     1.4887  45.3025 2905.5647 
   2505.7500 1847.4915  90.8287   1.4379 0.0000   1.1727 0.0000     0.9571     1.0542  45.3761 2899.5186 
   2506.0000 1848.5547  89.6639   1.4815 0.0000   1.2089 0.0000     0.9486     0.9321  45.4515 2895.0635 
   2506.2500 1851.2104  87.5829   1.5197 0.0000   1.2463 0.0000     0.9600     1.7029  45.5349 2891.2981 
   2506.5000 1851.7410  84.5989   1.5763 0.0000   1.2821 0.0000     1.0035     1.6706  45.5525 2887.2673 
   2506.7500 1850.4131  81.1045   1.6215 0.0000   1.3166 0.0000     1.0430     2.3918  45.5184 2883.1843 
   2507.0000 1847.7573  78.5131   1.6693 0.0000   1.3512 0.0000     1.0264     1.6707  45.4400 2880.7446 
   2507.2500 1845.6332  76.1181   1.7309 0.0000   1.3876 0.0000     1.3607     1.1675  45.3913 2881.8052 
   2507.5000 1843.7737  75.0056   1.8002 0.0000   1.4323 0.0000     1.4534     1.7870  45.4242 2885.6772 
   2507.7500 1842.7115  74.2073   1.8573 0.0000   1.4854 0.0000     1.5446     1.2170  45.4850 2890.3442 
   2508.0000 1842.1799  74.3120   1.9066 0.0000   1.5150 0.0000     1.5071     1.7110  45.5069 2895.7532 
   2508.2500 1844.3053  73.6445   1.9480 0.0000   1.5381 0.0000     1.6514     1.4293  45.6030 2902.8076 
   2508.5000 1847.2268  72.8854   1.9816 0.0000   1.5613 0.0000     1.4878     1.3519  45.7137 2911.2935 
   2508.7500 1849.0852  72.7153   2.0206 0.0000   1.5944 0.0000     1.8373     1.4780  45.8529 2919.6726 
   2509.0000 1849.3510  72.2179   2.0719 0.0000   1.6166 0.0000     1.8078     1.3951  45.9703 2926.0364 
   2509.2500 1849.3510  71.6159   2.0847 0.0000   1.6371 0.0000     1.7884     2.4007  46.0050 2932.0828 
   2509.5000 1848.2889  71.9431   2.0904 0.0000   1.6229 0.0000     1.7996     1.0570  46.0257 2938.4475 
   2509.7500 1846.6952  72.1525   2.1126 0.0000   1.6259 0.0000     1.6797     0.8412  46.0628 2945.8718 
   2510.0000 1845.6332  71.7075   2.1134 0.0000   1.6391 0.0000     1.3400     1.0712  46.0476 2951.8127 
   2510.2500 1845.1016  72.7676   2.1132 0.0000   1.6393 0.0000     1.4890     1.1795  46.0621 2954.8352 
   2510.5000 1846.6952  73.7623   2.1009 0.0000   1.6179 0.0000     1.5865     0.9700  46.0847 2955.4714 
   2510.7500 1849.3510  75.8302   2.0378 0.0000   1.5921 0.0000     1.5517     1.0534  46.0615 2954.8352 
   2511.0000 1849.3510  78.8142   1.9668 0.0000   1.5481 0.0000     1.5809     0.8958  46.0105 2953.0852 
   2511.2500 1848.5547  81.6280   1.8993 0.0000   1.4986 0.0000     1.6084     0.8717  45.9746 2951.6528 
   2511.5000 1848.2889  83.5912   1.8070 0.0000   1.4421 0.0000     1.3736     0.9721  45.9083 2951.9714 
   2511.7500 1850.6788  85.2926   1.7165 0.0000   1.3728 0.0000     1.2454     0.8583  45.8189 2954.7297 
   2512.0000 1854.1321  85.3842   1.6402 0.0000   1.3062 0.0000     1.1740     0.8415  45.6030 2957.9644 
   2512.2500 1858.6461  85.4104   1.5514 0.0000   1.2481 0.0000     1.0851     0.9084  45.3646 2958.2297 
   2512.5000 1861.0372  87.2426   1.4866 0.0000   1.1959 0.0000     0.9613     1.0701  45.2004 2954.6765 
   2512.7500 1864.4893  88.6430   1.4350 0.0000   1.1480 0.0000     0.9681     1.0003  45.1542 2948.0471 
   2513.0000 1866.6146  91.1559   1.3829 0.0000   1.1162 0.0000     0.9736     0.9351  45.0623 2939.0305 
   2513.2500 1865.0209  94.5848   1.3578 0.0000   1.0962 0.0000     0.9381     0.9782  45.0222 2928.7947 
   2513.5000 1861.3020  96.6920   1.3481 0.0000   1.0826 0.0000     0.9032     0.9687  44.9979 2918.6643 
   2513.7500 1858.3815  96.2339   1.3301 0.0000   1.0774 0.0000     0.8798     1.3302  45.1000 2911.6643 
   2514.0000 1855.9904  95.1869   1.3395 0.0000   1.0790 0.0000     0.8487     1.8971  45.2034 2909.0659 
   2514.2500 1856.2562  93.4462   1.3588 0.0000   1.0827 0.0000     0.8896     1.0860  45.2265 2908.3765 
   2514.5000 1857.0536  91.0642   1.3753 0.0000   1.0977 0.0000     0.9154     2.1254  45.1158 2906.8906 
   2514.7500 1858.3815  89.7686   1.4226 0.0000   1.1210 0.0000     0.9392     1.0886  45.0435 2903.2319 
