~VERSION INFORMATION
VERS  .       2.0                       : CWLS LOG ASCII STANDARD - VERSION 2.0
WRAP  .       NO                        : One line per depth step
~WELL INFORMATION
#MNEM .UNIT   DATA                      : DESCRIPTION OF MNEMONIC
#-----.----   ----                      : -----------------------
STRT  .ft     1900.0000                 : Start
STOP  .ft     6773.0000                 : Stop
STEP  .ft        1.0000                 : Step increment
NULL  .       -999.2500                 : Null value
COMP  .       Venoco                    : Company
WELL  .       Bradley Minerals2-6       : Well
FLD   .       Bradley Minerals          : Field
LOC   .                                 : Location
SRVC  .                                 : Service company
DATE  .       1/26/2010                 : Logging date
CNTY  .       Monterey                  : County
STAT  .       California                : State
CTRY  .       USA                       : Country
API   .       040532202900              : API number
UWI   .       040532202900              : Unique Well Identifier
~CURVE INFORMATION
#MNEM .UNIT   API CODE                  : CURVE DESCRIPTION
#-----.----   --------                  : -----------------
DEPT  .ft                               : Measured Depth
GR    .aapi                             : Gamma Ray
ROP   .ft/hr                            : Rate of Penetration
VRMS  .G                                : Average Vibration
VPK   .G                                : Peak Vibration
T-TEMP.degF                             : Tool Temperature
~PARAMETER INFORMATION
#MNEM .UNIT   VALUE                     : DESCRIPTION
#-----.----   -----                     : -----------
~OTHER INFORMATION
~A  DEPT         GR        ROP       VRMS        VPK     T-TEMP   
# ...
 5020.0000    87.6000    69.3747     2.0472     4.0315   113.8504 
 5021.0000    90.3606    67.9055     2.0472     3.9427   113.8504 
 5022.0000    94.1597    65.0901     2.0472     3.6957   113.8504 
 5023.0000    97.0846    64.4470     2.0522     3.5713   113.8504 
 5024.0000    97.1557    65.8237     2.0737     3.7082   113.8504 
 5025.0000    96.9640    61.0664     2.0951     3.8452   113.8504 
 5026.0000    97.5913    55.7143     2.1166     3.9821   113.8504 
 5027.0000    98.4560    52.6045     2.1381     4.1190   113.8504 
 5028.0000    97.3449    49.1949     2.1596     4.2560   113.8504 
 5029.0000    93.8302    48.2404     2.1811     4.3929   113.8504 
 5030.0000    89.0813    51.5029     2.2026     4.5299   113.8504 
 5031.0000    82.2550    56.0094     2.2047     4.7513   113.8504 
 5032.0000    79.2830    54.6563     2.2047     4.9762   113.8504 
 5033.0000    81.3875    54.1694     2.2047     5.0394   113.8504 
 5034.0000    78.4242    57.0067     2.2047     5.0394   113.8504 
 5035.0000    76.4365    61.7300     2.2047     5.0394   113.8504 
 5036.0000    76.9594    65.8337     2.2047     5.0394   113.8504 
 5037.0000    78.9099    66.6440     2.2047     5.0394   113.8504 
 5038.0000    79.2807    70.6641     2.2047     5.0394   113.8504 
 5039.0000    78.0148    65.9621     2.2047     5.0394   113.8504 
 5040.0000    80.7013    49.8029     2.2047     5.0394   113.8504 
 5041.0000    78.6350    58.1937     2.2047     5.0394   113.8504 
 5042.0000    78.0044    69.8595     2.2047     5.0394   113.8504 
 5043.0000    79.2658    69.1982     2.2047     5.0394   113.8504 
 5044.0000    79.0472    70.1689     2.2047     5.0394   113.8504 
 5045.0000    77.4547    67.5015     2.2047     5.0394   113.8504 
 5046.0000    77.4286    64.6414     2.2047     5.0394   113.8504 
 5047.0000    80.4476    64.9940     2.2047     5.0394   113.8504 
 5048.0000    80.2957    70.4206     2.2047     5.0394   113.8504 
 5049.0000    79.1650    72.0033     2.2047     5.0394   113.8504 
 5050.0000    83.6364    68.9887     2.2047     5.0394   113.8504 
 5051.0000    84.2793    66.3667     2.2047     5.0394   113.8504 
 5052.0000    83.0447    65.4367     2.2047     5.0394   113.8504 
 5053.0000    83.3144    64.7200     2.2047     5.0394   113.8504 
 5054.0000    86.4469    65.0858     2.2047     5.0394   113.8504 
 5055.0000    89.6924    65.5179     2.2047     5.0394   113.8504 
 5056.0000    89.0071    63.3766     2.2047     5.0394   113.8504 
 5057.0000    85.4146    61.0254     2.2047     5.0394   113.8504 
 5058.0000    85.6105    61.8154     2.2047     5.0394   113.8504 
 5059.0000    86.5603    61.6934     2.2047     5.0394   113.8504 
 5060.0000    84.1613    59.7278     2.2047     5.0394   113.8504 
 5061.0000    81.9804    62.1373     2.2047     5.0394   113.8504 
 5062.0000    81.8180    63.5060     2.2047     5.0394   113.8504 
 5063.0000    79.4408    60.4149     2.2047     5.0011   113.8504 
 5064.0000    85.1696    58.3176     2.1849     4.8732   113.8504 
 5065.0000    90.3011    62.0364     2.1648     4.7453   113.8504 
 5066.0000    89.0496    63.3303     2.1446     4.6174   113.8504 
 5067.0000    89.6853    57.4882     2.1245     4.4895   113.8504 
 5068.0000    89.3313    54.3281     2.1043     4.3616   113.8504 
 5069.0000    88.5559    57.9391     2.0841     4.2337   113.8504 
 5070.0000    87.6364    54.9670     2.0640     4.1058   113.8504 
 5071.0000    92.6724    51.7819     2.0510     4.0607   113.8504 
 5072.0000   100.8567    57.0265     2.0729     4.1304   114.1881 
 5073.0000   108.5011    56.1042     2.0948     4.2001   114.5295 
 5074.0000   110.3100    57.6569     2.1167     4.2698   114.8709 
 5075.0000   110.3726    60.7919     2.1386     4.3395   115.2123 
 5076.0000   109.9346    58.2441     2.1606     4.4092   115.5536 
 5077.0000    97.1777    58.8602     2.1825     4.4789   115.8950 
 5078.0000    68.2045    63.8341     2.2044     4.5243   116.2364 
 5079.0000    45.9799    60.0017     2.1869     4.4653   116.3307 
 5080.0000    50.5560    34.1840     2.1688     4.4062   116.3307 
 5081.0000    70.2777    13.8899     2.1507     4.3472   116.3307 
 5082.0000    74.6270    16.4945     2.1326     4.2882   116.3307 
 5083.0000    81.5665    37.4904     2.1144     4.2292   116.3307 
 5084.0000    93.0641    75.7675     2.0963     4.1702   116.3307 
 5085.0000    96.9150    86.5386     2.0782     4.1112   116.3307 
 5086.0000    99.3607    90.2190     2.0601     4.0522   116.3307 
 5087.0000    99.0845    95.4805     2.0472     4.0315   116.3307 
 5088.0000    81.9294    56.9930     2.0472     4.0315   116.3307 
 5089.0000    52.8357    20.7087     2.0472     4.0315   116.3307 
 5090.0000    46.2812    15.1249     2.0472     4.0315   116.3307 
 5091.0000    48.3730    13.6764     2.0472     4.0315   116.3307 
 5092.0000    48.2834    14.1330     2.0472     4.0315   116.3307 
 5093.0000    55.6710    29.8154     2.0472     4.0315   116.3307 
 5094.0000    66.2667    76.9813     2.0472     4.0315   116.3307 
 5095.0000    73.9309    99.2301     2.0472     4.0315   116.3307 
 5096.0000    76.1538    99.9945     2.0472     4.0315   116.3307 
 5097.0000    78.1998   104.8987     2.0472     4.0400   116.3307 
 5098.0000    77.3792   109.0867     2.0651     4.1827   116.3307 
 5099.0000    77.7220   107.2116     2.0884     4.3255   116.3307 
 5100.0000    77.2975    73.0544     2.1117     4.4682   116.3307 
 5101.0000    72.8576    47.9188     2.1349     4.6110   116.3307 
 5102.0000    71.4558    76.8532     2.1582     4.7538   116.3307 
 5103.0000    74.6401    72.9142     2.1814     4.8965   116.3307 
 5104.0000    76.8575    59.3220     2.2047     5.0393   116.3307 
 5105.0000    74.1306    70.2723     2.1896     4.9390   116.3307 
 5106.0000    71.3476    74.7879     2.1744     4.8387   116.3307 
 5107.0000    75.0246    77.4625     2.1593     4.7383   116.3307 
 5108.0000    77.1770    83.9921     2.1442     4.6379   116.3307 
 5109.0000    77.7960    85.2837     2.1290     4.5375   116.3307 
 5110.0000    77.8425    83.7872     2.1139     4.4371   116.3307 
 5111.0000    75.6577    79.3951     2.0987     4.3367   116.3307 
 5112.0000    79.6923    70.9822     2.0836     4.2363   116.3307 
 5113.0000    85.2725    64.6771     2.0685     4.1360   116.3307 
 5114.0000    86.4485    66.8490     2.0533     4.0356   116.3307 
 5115.0000    81.9143    67.5182     2.1106     4.2928   116.3307 
 5116.0000    78.7843    63.0881     2.2034     4.5311   116.3307 
 5117.0000    81.6715    58.8458     2.1912     4.4909   116.3307 
 5118.0000    88.1393    56.2923     2.1791     4.4508   116.3307 
 5119.0000    89.0539    52.1465     2.1669     4.4107   116.3307 
 5120.0000    87.0563    45.5996     2.1547     4.3706   116.3307 
 5121.0000    85.5994    49.0587     2.1426     4.3304   116.3307 
 5122.0000    86.5235    58.9422     2.1304     4.2903   116.3307 
 5123.0000    85.5485    55.3959     2.1182     4.2502   116.3307 
 5124.0000    85.1872    48.9888     2.1061     4.2101   116.3307 
 5125.0000    86.5345    41.2164     2.0939     4.1699   116.3307 
 5126.0000    86.2000    40.5814     2.0817     4.1298   116.3307 
 5127.0000    88.5302    47.1322     2.0696     4.0897   116.3307 
 5128.0000    98.0085    51.2042     2.0574     4.0496   116.3307 
 5129.0000    97.2211    51.2072     2.0472     4.0509   116.3307 
 5130.0000    96.8878    41.9335     2.0472     4.0864   116.8128 
 5131.0000    88.8829    25.8397     2.0472     4.1218   117.4431 
 5132.0000    81.2289    19.6206     2.0472     4.1572   118.0733 
 5133.0000    84.4084    21.7550     2.0472     4.1926   118.7036 
 5134.0000    79.6185    32.9881     2.0472     4.2280   118.8110 
 5135.0000    77.5946    36.0061     2.0472     4.2634   118.8110 
 5136.0000    82.5058    31.1183     2.0472     4.2988   118.8110 
 5137.0000    86.3095    37.7281     2.0472     4.3342   118.8110 
 5138.0000    85.7778    55.2759     2.0472     4.3696   118.8110 
 5139.0000    89.3395    57.8880     2.0472     4.4050   118.8110 
