~Version Information
 VERS.                  2.0:   CWLS log ASCII Standard -VERSION 2.0
 WRAP.                   NO:   One line per depth step
~Well Information Block
#MNEM.UNIT     VALUE/NAME     DESCRIPTION
#---------     -----------    ---------------------------
 STRT.F              1831.0000: START DEPTH
 STOP.F              6790.7500: STOP DEPTH
 STEP.F                 0.2500: STEP DEPTH
 NULL.                 -999.25: NULL VALUE
 FL5 .        Long -120.825003:  LOCATIONLINE5
 FL4 .          Lat  35.869473:  LOCATIONLINE4
 FL3 .          X  6,020,938.4:  LOCATIONLINE3
 FL2 .          Y  1,840,736.7:  LOCATIONLINE2
 FL1 .        NAD 83 CA ZONE 4:  LOCATIONLINE1
 RIG .                KENAI 16:  RIG NAME
 CTRY.                      US:  COUNTRY NAME
 CNTY.                MONTEREY:  COUNTY NAME
 LUL .                   BKFLD:  LOGGINGUNITLOC
 FLD .           SOUTH SALINAS:  FIELD NAME
 WELL.     BRADLEY MINERALS 2-6:  WELL NAME
 COMP.             VENOCO INC.:  COMPANY
 MDS .        Operator Entered:  MAG DATA SOURCE
 SVCO.             Halliburton:  SERVICECONAME
 IQVR.                  R2.6.1:  WLIQ VERSION
 PROV.                      CA:  PROVINCE
 STAT.                      CA:  STATE NAME
 SON .                 7136075:  JOB NUMBER
 SECT.                       6:  SECTION
 TOWN.                     24S:  TOWNSHIP
 RANG.                     11E:  RANGE
 UWI .            040532202900:  UNIQUE WELL IDENTIFIER
 API .       04-053-22029-0000:  API NUMBER
 PDAT.                      GL:  PERMANENT DATUM
 DMF .                      KB:  DRILL MEAS FROM
 DATE.                        :  DATE
 SRVC.             Halliburton:  SERVICE COMPANY
 LOC .                        :  LOCATION
 LMF .                      KB:  LOG MEASURED FROM
 APD .ft               23.0000:  DEPTH ABOVE PD
 GRDC.deg               0.0000:  GRID CORRECTION
 MDEC.deg               0.0000:  MAGNETIC DECL
 AZTC.deg               0.0000:  AZM TOTAL CORR
 MFLD.nT            48150.0000:  MAGNETIC FIELD
 EGL .ft              542.0000:  GROUND ELEVATION
 EPD .ft              542.0000:  ELEVATION
 GVFD.g                 1.0000:  GRAVITY FIELD
 TVDS.ft              565.0000:  TVDSS CORRECTN
 EKB .ft              565.0000:  KB ELEVATION
 EDF .ft                0.0000:  DF ELEVATION
 MAGU.                 1444500:  MAGUTM CHECKSUM
 VSC .                       1:  VS TO CLOSURE
~Parameter Information Block
#MNEM.UNIT       Value        Description
#---------     -----------    ---------------------------
 LUL .                   BKFLD:  LoggingUnitLoc 
 LUN .                   61841:  LoggingUnitNum 
 ENGI.             D. SANDOVAL:  Engineer Name 
 DCS .               27-Jan-10:  DateCircEndT 
 TCS .                   05 42:  Time Ciculation Ended 
 TDCE.ucts  05.43.28 27-Jan-10:  Time Circ End 
 IQVR.     WL INSITE R2.6.1 (Build 9):  WLIQ Version 
 RUN .                       1:  Run Number 
 SVCN.               XRMI_WSST:  Service Name 
 SVCS.      
 TLAB.ucts  10.01.36 27-Jan-10:  Log Start Time 
 DATE.               27-Jan-10:  Run Date 
 TLAB.                   10 01:  LogStartTimeT 
 DLAB.               27-Jan-10:  LogStartDateT 
~Curve Information Block
#MNEM.UNIT                 API CODE     Curve Description
#---------               -----------    ---------------------------
 DEPT.F                 00 000 000 000:  Depth
 DLOD.lbs               00 000 000 000:  DLOD
 GRLL.api               00 000 000 000:  Natural Gamma Ray
 LLD .ohmm              00 000 000 000:  LLD
 LLDC.ohmm              00 000 000 000:  LLDC
 LLS .ohmm              00 000 000 000:  LLS
 LLSC.ohmm              00 000 000 000:  LLSC
 MSFL.ohmm              00 000 000 000:  MSFL
 MSFLUF.ohmm            00 000 000 000:  Msfl Unfiltered
 SP  .mV                00 000 000 000:  SP
 TENS.lbs               00 000 000 000:  Cable Tension
~A   DEPT      DLOD      GRLL      LLD     LLDC    LLS     LLSC     MSFL      MSFLUF      SP      TENS    
# ...
   6448.0000 1930.8867  87.8861   6.2518 0.0000   5.5094 0.0000     3.1025     2.7811  31.4685 4110.1128 
   6448.2500 1931.1515  87.0223   6.1263 0.0000   5.3930 0.0000     3.0362     2.3574  31.4545 4100.0356 
   6448.5000 1931.6831  86.3025   6.0514 0.0000   5.3093 0.0000     2.7965     3.4283  31.4551 4089.6409 
   6448.7500 1930.8867  86.3483   6.0327 0.0000   5.2863 0.0000     2.5768     5.4619  31.4557 4082.1089 
   6449.0000 1928.4957  86.3112   6.0964 0.0000   5.3335 0.0000     2.7688     3.4815  31.4339 4075.4797 
   6449.2500 1927.1678  86.4617   6.2435 0.0000   5.4654 0.0000     3.1316     3.5750  31.3895 4066.6230 
   6449.5000 1926.3715  87.6134   6.4507 0.0000   5.6682 0.0000     3.0319     3.4854  31.3524 4059.1443 
   6449.7500 1926.3715  88.1173   6.7043 0.0000   5.9088 0.0000     2.7789     2.8288  31.3219 4060.7888 
   6450.0000 1926.6373  88.0061   6.9906 0.0000   6.1594 0.0000     2.6430     2.3500  31.2909 4068.1609 
   6450.2500 1925.3094  89.2058   7.2876 0.0000   6.4271 0.0000     2.5908     2.3320  31.2453 4074.8435 
   6450.5000 1925.5741  90.8439   7.5894 0.0000   6.7174 0.0000     2.6254     3.6627  31.1705 4080.5710 
   6450.7500 1927.4336  92.1200   7.8528 0.0000   6.9648 0.0000     3.2397     3.1739  31.1188 4088.5271 
   6451.0000 1929.2931  93.3960   8.0084 0.0000   7.1348 0.0000     3.6389     5.4291  31.0744 4099.7700 
   6451.2500 1931.1515  95.1345   8.0593 0.0000   7.1973 0.0000     4.0239     4.8222  31.0519 4108.0972 
   6451.5000 1931.9489  96.3888   8.0335 0.0000   7.1802 0.0000     4.1389     2.2485  31.0452 4106.1338 
   6451.7500 1932.7451  97.6365   7.9646 0.0000   7.1253 0.0000     3.8280     2.1797  31.0908 4100.6719 
   6452.0000 1934.8704  98.7205   7.8794 0.0000   7.0467 0.0000     3.1277     2.3454  31.1365 4099.1338 
   6452.2500 1934.6046 100.3194   7.7687 0.0000   6.9218 0.0000     2.9023     2.0581  31.2113 4099.2925 
   6452.5000 1933.0110 100.8102   7.6188 0.0000   6.7934 0.0000     2.8392     3.3391  31.2782 4095.3152 
   6452.7500 1929.8236 100.6663   7.4262 0.0000   6.6436 0.0000     3.1638     2.6570  31.3596 4085.3979 
   6453.0000 1925.5741  99.9639   7.2210 0.0000   6.4544 0.0000     3.8133     2.6562  31.4265 4077.3896 
   6453.2500 1923.1842 100.2714   7.0226 0.0000   6.2932 0.0000     3.9885     3.6636  31.4855 4076.8057 
   6453.5000 1921.0599 100.9782   6.8426 0.0000   6.1429 0.0000     3.8611     3.2882  31.4855 4079.1396 
   6453.7500 1919.2006 102.6948   6.6454 0.0000   5.9755 0.0000     3.4696     3.2649  31.4709 4080.2002 
   6454.0000 1919.2006 104.7671   6.4340 0.0000   5.7805 0.0000     2.8631     2.3788  31.4418 4080.4124 
   6454.2500 1920.5284 106.6910   6.2431 0.0000   5.5763 0.0000     2.2668     1.5139  31.4199 4082.7986 
   6454.5000 1923.4500 107.6529   6.1525 0.0000   5.4227 0.0000     2.3399     1.9427  31.3682 4088.5793 
   6454.7500 1925.5741 107.8449   6.1781 0.0000   5.4314 0.0000     2.4327     3.3660  31.3019 4092.6101 
   6455.0000 1925.3094 108.3400   6.3345 0.0000   5.5817 0.0000     2.6361     2.2644  31.2356 4092.6101 
   6455.2500 1924.2462 108.1590   6.6115 0.0000   5.8237 0.0000     2.7945     1.8888  31.1687 4091.9207 
   6455.5000 1921.8563 107.5024   7.0008 0.0000   6.2069 0.0000     2.9865     1.9945  31.1091 4092.7168 
   6455.7500 1920.7942 106.3223   7.5231 0.0000   6.7390 0.0000     2.8202     1.3923  31.0416 4093.7239 
   6456.0000 1918.6689 104.2654   8.1497 0.0000   7.3632 0.0000     2.6811     1.6148  30.9522 4093.4063 
   6456.2500 1917.3411 101.4646   8.8241 0.0000   7.9759 0.0000     2.4402     1.7529  30.8707 4090.0117 
   6456.5000 1916.2789  98.7642   9.4904 0.0000   8.4940 0.0000     2.3875     2.7112  30.7965 4085.8745 
   6456.7500 1917.6068  96.2753  10.0416 0.0000   8.8841 0.0000     2.4640     2.3221  30.6992 4083.8069 
   6457.0000 1918.4042  95.1323  10.4382 0.0000   9.1819 0.0000     2.2706     2.4487  30.6244 4081.1018 
   6457.2500 1918.9347  94.5172  10.7150 0.0000   9.3438 0.0000     2.2712     2.8021  30.5338 4074.2073 
   6457.5000 1918.4042  95.0538  10.8612 0.0000   9.3653 0.0000     2.2720     1.5844  30.4583 4064.6609 
   6457.7500 1918.1384  96.1619  10.9547 0.0000   9.3417 0.0000     2.0241     1.3191  30.3896 4057.2356 
   6458.0000 1917.6068  97.0475  11.0986 0.0000   9.3967 0.0000     1.6067     2.3888  30.3209 4056.8647 
   6458.2500 1918.1384  96.7705  11.3203 0.0000   9.6109 0.0000     1.6504     1.0765  30.2516 4060.1526 
   6458.5000 1916.5448  96.6221  11.6099 0.0000   9.9090 0.0000     1.8356     0.8653  30.1908 4061.4253 
   6458.7500 1918.6689  95.7845  11.9425 0.0000  10.1591 0.0000     1.9727     0.9647  30.1293 4063.5994 
   6459.0000 1921.8563  94.6568  12.3326 0.0000  10.4478 0.0000     2.3104     1.0619  30.0910 4070.8660 
   6459.2500 1925.3094  94.1987  12.8112 0.0000  10.8080 0.0000     2.3925     0.9189  30.0600 4081.6316 
   6459.5000 1929.2931  93.5444  13.3418 0.0000  11.1992 0.0000     2.3226     0.9520  30.0138 4089.8530 
   6459.7500 1931.9489  91.6423  13.8354 0.0000  11.5655 0.0000     2.0521     0.8561  29.9596 4091.3376 
   6460.0000 1934.0730  88.5645  14.1999 0.0000  11.8112 0.0000     2.1386     1.2353  29.8976 4091.8152 
   6460.2500 1935.9325  85.0941  14.4648 0.0000  11.9469 0.0000     1.7331     2.2629  29.8423 4096.4824 
   6460.5000 1934.8704  81.8243  14.7105 0.0000  12.2046 0.0000     1.5029     1.0167  29.7650 4099.8770 
   6460.7500 1935.1362  78.6440  14.9426 0.0000  12.4593 0.0000     1.3710     0.7255  29.6878 4096.3232 
   6461.0000 1934.6046  77.4727  15.0408 0.0000  12.5910 0.0000     1.2424     0.8288  29.5729 4088.2085 
   6461.2500 1934.3389  78.1554  14.9890 0.0000  12.5896 0.0000     0.9173     2.5401  29.4962 4083.4348 
   6461.5000 1934.0730  79.2133  14.8477 0.0000  12.5012 0.0000     0.8930     1.4529  29.4421 4084.6018 
   6461.7500 1933.0110  80.2320  14.6805 0.0000  12.3693 0.0000     0.8957     1.1739  29.4117 4085.1326 
   6462.0000 1934.0730  80.8427  14.5159 0.0000  12.2598 0.0000     1.0364     1.2719  29.3892 4081.2073 
   6462.2500 1936.1982  81.0151  14.3179 0.0000  12.0822 0.0000     1.1693     1.5347  29.3892 4077.7605 
   6462.5000 1938.5883  80.5090  14.0874 0.0000  11.8743 0.0000     1.1188     2.0623  29.3892 4079.9880 
   6462.7500 1942.0414  79.6518  13.8935 0.0000  11.7169 0.0000     1.1034     3.2579  29.4196 4084.7607 
   6463.0000 1942.8378  79.3573  13.8219 0.0000  11.6479 0.0000     1.2197     1.3933  29.4275 4084.6553 
   6463.2500 1942.8378  78.6244  13.8474 0.0000  11.6807 0.0000     1.3246     1.2039  29.4056 4079.5640 
   6463.5000 1944.6971  78.1968  13.9369 0.0000  11.7743 0.0000     1.2689     1.0279  29.3533 4075.1621 
   6463.7500 1944.4314  78.5851  14.0714 0.0000  11.8977 0.0000     1.5040     1.4029  29.3010 4074.3127 
   6464.0000 1943.1035  78.9407  14.2301 0.0000  12.0379 0.0000     1.6421     1.6648  29.2718 4073.8352 
   6464.2500 1940.7135  79.2679  14.4110 0.0000  12.2052 0.0000     1.7279     1.1398  29.2128 4070.4419 
   6464.5000 1936.9946  80.4174  14.6188 0.0000  12.4194 0.0000     1.6886     1.2747  29.1538 4067.5781 
   6464.7500 1935.6667  81.4731  14.7765 0.0000  12.6292 0.0000     1.9737     2.1302  29.0723 4068.8506 
   6465.0000 1934.3389  82.6140  14.8429 0.0000  12.7400 0.0000     1.8893     1.9429  29.0133 4072.0330 
   6465.2500 1932.7451  84.3786  14.8634 0.0000  12.7652 0.0000     1.8205     4.2363  28.9768 4071.8730 
   6465.5000 1931.1515  86.5708  14.8341 0.0000  12.7603 0.0000     1.7241     2.1063  28.9185 4066.9939 
   6465.7500 1929.5588  88.4554  14.7775 0.0000  12.7364 0.0000     1.6181     2.5975  28.8066 4061.9026 
   6466.0000 1927.1678  89.0749  14.6774 0.0000  12.6739 0.0000     1.3764     3.2549  28.7099 4060.2581 
   6466.2500 1925.5741  88.3704  14.5187 0.0000  12.5637 0.0000     1.3301     2.2632  28.6059 4058.8269 
   6466.5000 1924.2462  87.0136  14.3374 0.0000  12.4058 0.0000     1.4511     2.1880  28.5463 4055.0081 
   6466.7500 1924.7778  84.6687  14.1554 0.0000  12.2772 0.0000     1.6083     1.9422  28.4721 4050.2876 
