~VERSION INFORMATION
VERS  .       2.0                       : CWLS LOG ASCII STANDARD - VERSION 2.0
WRAP  .       NO                        : One line per depth step
~WELL INFORMATION
#MNEM .UNIT   DATA                      : DESCRIPTION OF MNEMONIC
#-----.----   ----                      : -----------------------
STRT  .ft     1900.0000                 : Start
STOP  .ft     6773.0000                 : Stop
STEP  .ft        1.0000                 : Step increment
NULL  .       -999.2500                 : Null value
COMP  .       Venoco                    : Company
WELL  .       Bradley Minerals2-6       : Well
FLD   .       Bradley Minerals          : Field
LOC   .                                 : Location
SRVC  .                                 : Service company
DATE  .       1/26/2010                 : Logging date
CNTY  .       Monterey                  : County
STAT  .       California                : State
CTRY  .       USA                       : Country
API   .       040532202900              : API number
UWI   .       040532202900              : Unique Well Identifier
~CURVE INFORMATION
#MNEM .UNIT   API CODE                  : CURVE DESCRIPTION
#-----.----   --------                  : -----------------
DEPT  .ft                               : Measured Depth
GR    .aapi                             : Gamma Ray
ROP   .ft/hr                            : Rate of Penetration
VRMS  .G                                : Average Vibration
VPK   .G                                : Peak Vibration
T-TEMP.degF                             : Tool Temperature
~PARAMETER INFORMATION
#MNEM .UNIT   VALUE                     : DESCRIPTION
#-----.----   -----                     : -----------
~OTHER INFORMATION
~A  DEPT         GR        ROP       VRMS        VPK     T-TEMP   
# ...
 2860.0000    83.0000    63.7149     2.2268     5.0394    91.5276 
 2861.0000    79.1727    66.9268     2.2318     5.0394    91.5276 
 2862.0000    72.6727    70.1386     2.2369     5.0394    91.5276 
 2863.0000    71.5461    73.3505     2.2420     5.0394    91.5276 
 2864.0000    70.1710    76.5624     2.2471     5.0394    91.5276 
 2865.0000    67.9136    79.7742     2.2521     5.0394    91.5276 
 2866.0000    59.7833    82.9861     2.2572     5.0394    91.5276 
 2867.0000    58.9016    86.1979     2.2623     5.0394    91.5276 
 2868.0000    62.1337    89.4098     2.2673     5.0394    91.5276 
 2869.0000    59.5283    92.6217     2.2724     5.0394    91.5305 
 2870.0000    55.7163    95.8335     2.2775     5.0394    91.6216 
 2871.0000    54.7952    99.0454     2.2825     5.0394    91.7126 
 2872.0000    54.9892   102.2573     2.2876     5.0394    91.8037 
 2873.0000    62.0000    84.2296     2.2927     5.0394    91.8948 
 2874.0000    62.0000    85.3564     2.2977     5.0394    91.9859 
 2875.0000    62.0000   123.2913     2.3028     5.0394    92.0770 
 2876.0000    71.2387   121.8209     2.3079     5.0394    92.1680 
 2877.0000    73.8980    97.7390     2.3130     5.0394    92.2591 
 2878.0000    71.5914    78.1700     2.3180     5.0394    92.3502 
 2879.0000    69.2104    80.3227     2.3231     5.0394    92.4413 
 2880.0000    70.3717    83.4069     2.3282     5.0394    92.5323 
 2881.0000    71.0913    83.2022     2.3332     5.0394    92.6234 
 2882.0000    71.5964    55.6469     2.3383     5.0394    92.7145 
 2883.0000    71.6564    37.3508     2.3434     5.0394    92.8056 
 2884.0000    70.8566    55.7052     2.3484     5.0394    92.8967 
 2885.0000    76.6099    69.4029     2.3535     5.0394    92.9877 
 2886.0000    83.0000    76.3122     2.3586     5.0394    93.0788 
 2887.0000    79.7615    88.5964     2.3636     5.0394    93.1699 
 2888.0000    74.0000   120.0589     2.3687     5.0394    93.2610 
 2889.0000    72.2758   103.5220     2.3738     5.0394    93.3521 
 2890.0000    71.3711    88.9926     2.3789     5.0394    93.4431 
 2891.0000    83.4921    87.7815     2.3839     5.0394    93.5342 
 2892.0000    82.5639    82.2250     2.3890     5.0394    93.6253 
 2893.0000    77.3287    71.8536     2.3941     5.0394    93.7164 
 2894.0000    73.7465    65.9500     2.3991     5.0394    93.8074 
 2895.0000    70.3259    53.2728     2.4042     5.0394    93.8985 
 2896.0000    66.5998    47.0980     2.4093     5.0394    93.9896 
 2897.0000    62.9216    71.3379     2.4143     5.0394    94.0079 
 2898.0000    64.8418    85.9363     2.4194     5.0394    94.0079 
 2899.0000    67.1352    92.7429     2.4245     5.0394    94.0079 
 2900.0000    65.7827    97.9144     2.4295     5.0394    94.0079 
 2901.0000    59.1893   102.6908     2.4346     5.0394    94.0079 
 2902.0000    62.1915   105.0753     2.4397     5.0394    94.0079 
 2903.0000    67.5897   105.6170     2.4448     5.0394    94.0079 
 2904.0000    66.2674   114.9707     2.4498     5.0394    94.0079 
 2905.0000    69.6062   126.0633     2.4549     5.0394    94.0079 
 2906.0000    70.2676   119.5029     2.4600     5.0394    94.0079 
 2907.0000    68.2500   116.9518     2.4650     5.0394    94.0079 
 2908.0000    66.9939   122.1279     2.4701     5.0394    94.0079 
 2909.0000    62.5781   123.7129     2.4752     5.0394    94.0079 
 2910.0000    60.3282   121.5453     2.4802     5.0394    94.0079 
 2911.0000    61.9642   116.0151     2.4853     5.0394    94.0079 
 2912.0000    61.7322   114.0761     2.4904     5.0394    94.0079 
 2913.0000    57.5887   116.3208     2.4954     5.0394    94.0079 
 2914.0000    61.3953   118.3349     2.5005     5.0394    94.0079 
 2915.0000    65.4632   120.0143     2.5056     5.0394    94.0079 
 2916.0000    67.9890   121.4469     2.5107     5.0394    94.0079 
 2917.0000    67.5861   122.0379     2.5157     5.0394    94.0079 
 2918.0000    64.2130   122.3732     2.5197     5.0511    94.0079 
 2919.0000    64.9247   123.9430     2.5197     5.0672    94.0079 
 2920.0000    63.7029   124.2823     2.5197     5.0833    94.0079 
 2921.0000    63.6617   125.0699     2.5197     5.0994    94.0079 
 2922.0000    65.0805   127.1326     2.5197     5.1155    94.0079 
 2923.0000    65.6000   129.1742     2.5197     5.1316    94.0079 
 2924.0000    66.9746   130.8587     2.5197     5.1477    94.0079 
 2925.0000    66.3487   129.5425     2.5197     5.1638    94.0079 
 2926.0000    59.4579   106.0786     2.5197     5.1799    94.0079 
 2927.0000    56.2879   103.9826     2.5197     5.1960    94.0079 
 2928.0000    64.1287   130.5548     2.5197     5.2121    94.0079 
 2929.0000    70.3386   135.9262     2.5197     5.2282    94.0079 
 2930.0000    70.7184   130.8760     2.5197     5.2443    94.0079 
 2931.0000    63.4674   126.3231     2.5197     5.2604    94.0079 
 2932.0000    60.1018   123.2146     2.5197     5.2765    94.0079 
 2933.0000    61.2237   120.1768     2.5197     5.2926    94.0079 
 2934.0000    62.2614   116.1890     2.5197     5.3087    94.0079 
 2935.0000    61.4720   116.9595     2.5197     5.3248    94.0079 
 2936.0000    65.5858   119.2487     2.5197     5.3409    94.0079 
 2937.0000    65.3419   115.9321     2.5197     5.3570    94.0079 
 2938.0000    65.6158   115.0865     2.5197     5.3731    94.0079 
 2939.0000    71.5850   119.0312     2.5197     5.3892    94.0079 
 2940.0000    68.9539   122.8900     2.5197     5.4053    94.0079 
 2941.0000    70.3017   124.8235     2.5197     5.4214    94.0079 
 2942.0000    78.1057   122.4285     2.5197     5.4375    94.0079 
 2943.0000    76.9557   119.4287     2.5197     5.4536    94.0079 
 2944.0000    75.5471   121.3901     2.5197     5.4697    94.0079 
 2945.0000    75.5307   122.3500     2.5197     5.4858    94.0079 
 2946.0000    72.5048   121.7385     2.5197     5.5019    94.0079 
 2947.0000    67.1650   120.0764     2.5197     5.5180    94.0079 
 2948.0000    66.5051   117.6460     2.5197     5.5341    94.0079 
 2949.0000    64.9527   115.6256     2.5197     5.5377    94.0079 
 2950.0000    50.3738   114.3853     2.5168     5.5247    94.0079 
 2951.0000    46.5697   112.9178     2.5127     5.5116    94.0679 
 2952.0000    60.8479   109.0252     2.5086     5.4986    94.1297 
 2953.0000    64.0000   105.2218     2.5045     5.4856    94.1915 
 2954.0000    69.1628   105.0394     2.5004     5.4725    94.2532 
 2955.0000    73.9862   106.5533     2.4964     5.4595    94.3150 
 2956.0000   109.1551   108.9784     2.4923     5.4464    94.3768 
 2957.0000   103.5067    97.5371     2.4882     5.4334    94.4386 
 2958.0000    60.9242    81.8794     2.4841     5.4204    94.5003 
 2959.0000    58.3661    91.6930     2.4800     5.4073    94.5621 
 2960.0000    64.4079   101.5635     2.4760     5.3943    94.6239 
 2961.0000    65.8659   102.6851     2.4719     5.3813    94.6856 
 2962.0000    65.1321   106.1166     2.4678     5.3682    94.7474 
 2963.0000    67.2240   109.6915     2.4637     5.3552    94.8092 
 2964.0000    70.1286   116.1126     2.4597     5.3422    94.8710 
 2965.0000    74.5710   123.4237     2.4556     5.3291    94.9327 
 2966.0000    78.0827   127.0590     2.4515     5.3161    94.9945 
 2967.0000    72.3496   129.0090     2.4474     5.3030    95.0563 
 2968.0000    69.3012   130.0616     2.4433     5.2900    95.1180 
 2969.0000    68.8483   128.8637     2.4393     5.2770    95.1798 
 2970.0000    63.5510   125.0604     2.4352     5.2639    95.2416 
 2971.0000    63.3819   119.6326     2.4311     5.2509    95.3034 
 2972.0000    63.7904   114.9529     2.4270     5.2379    95.3651 
 2973.0000    58.1764   109.4363     2.4230     5.2248    95.4269 
 2974.0000    56.4477   100.9353     2.4189     5.2118    95.4887 
 2975.0000    55.0222    96.3526     2.4148     5.1987    95.5504 
 2976.0000    53.4718    93.7408     2.4107     5.1857    95.6122 
 2977.0000    51.9286    91.3709     2.4066     5.1727    95.6740 
 2978.0000    51.2568    91.0454     2.4026     5.1596    95.7358 
 2979.0000    54.9760    95.8483     2.3985     5.1466    95.7975 
