~Version Information
 VERS.                  2.0:   CWLS log ASCII Standard -VERSION 2.0
 WRAP.                   NO:   One line per depth step
~Well Information Block
#MNEM.UNIT     VALUE/NAME     DESCRIPTION
#---------     -----------    ---------------------------
 STRT.F              1831.0000: START DEPTH
 STOP.F              6790.7500: STOP DEPTH
 STEP.F                 0.2500: STEP DEPTH
 NULL.                 -999.25: NULL VALUE
 FL5 .        Long -120.825003:  LOCATIONLINE5
 FL4 .          Lat  35.869473:  LOCATIONLINE4
 FL3 .          X  6,020,938.4:  LOCATIONLINE3
 FL2 .          Y  1,840,736.7:  LOCATIONLINE2
 FL1 .        NAD 83 CA ZONE 4:  LOCATIONLINE1
 RIG .                KENAI 16:  RIG NAME
 CTRY.                      US:  COUNTRY NAME
 CNTY.                MONTEREY:  COUNTY NAME
 LUL .                   BKFLD:  LOGGINGUNITLOC
 FLD .           SOUTH SALINAS:  FIELD NAME
 WELL.     BRADLEY MINERALS 2-6:  WELL NAME
 COMP.             VENOCO INC.:  COMPANY
 MDS .        Operator Entered:  MAG DATA SOURCE
 SVCO.             Halliburton:  SERVICECONAME
 IQVR.                  R2.6.1:  WLIQ VERSION
 PROV.                      CA:  PROVINCE
 STAT.                      CA:  STATE NAME
 SON .                 7136075:  JOB NUMBER
 SECT.                       6:  SECTION
 TOWN.                     24S:  TOWNSHIP
 RANG.                     11E:  RANGE
 UWI .            040532202900:  UNIQUE WELL IDENTIFIER
 API .       04-053-22029-0000:  API NUMBER
 PDAT.                      GL:  PERMANENT DATUM
 DMF .                      KB:  DRILL MEAS FROM
 DATE.                        :  DATE
 SRVC.             Halliburton:  SERVICE COMPANY
 LOC .                        :  LOCATION
 LMF .                      KB:  LOG MEASURED FROM
 APD .ft               23.0000:  DEPTH ABOVE PD
 GRDC.deg               0.0000:  GRID CORRECTION
 MDEC.deg               0.0000:  MAGNETIC DECL
 AZTC.deg               0.0000:  AZM TOTAL CORR
 MFLD.nT            48150.0000:  MAGNETIC FIELD
 EGL .ft              542.0000:  GROUND ELEVATION
 EPD .ft              542.0000:  ELEVATION
 GVFD.g                 1.0000:  GRAVITY FIELD
 TVDS.ft              565.0000:  TVDSS CORRECTN
 EKB .ft              565.0000:  KB ELEVATION
 EDF .ft                0.0000:  DF ELEVATION
 MAGU.                 1444500:  MAGUTM CHECKSUM
 VSC .                       1:  VS TO CLOSURE
~Parameter Information Block
#MNEM.UNIT       Value        Description
#---------     -----------    ---------------------------
 LUL .                   BKFLD:  LoggingUnitLoc 
 LUN .                   61841:  LoggingUnitNum 
 ENGI.             D. SANDOVAL:  Engineer Name 
 DCS .               27-Jan-10:  DateCircEndT 
 TCS .                   05 42:  Time Ciculation Ended 
 TDCE.ucts  05.43.28 27-Jan-10:  Time Circ End 
 IQVR.     WL INSITE R2.6.1 (Build 9):  WLIQ Version 
 RUN .                       1:  Run Number 
 SVCN.               XRMI_WSST:  Service Name 
 SVCS.      
 TLAB.ucts  10.01.36 27-Jan-10:  Log Start Time 
 DATE.               27-Jan-10:  Run Date 
 TLAB.                   10 01:  LogStartTimeT 
 DLAB.               27-Jan-10:  LogStartDateT 
~Curve Information Block
#MNEM.UNIT                 API CODE     Curve Description
#---------               -----------    ---------------------------
 DEPT.F                 00 000 000 000:  Depth
 DLOD.lbs               00 000 000 000:  DLOD
 GRLL.api               00 000 000 000:  Natural Gamma Ray
 LLD .ohmm              00 000 000 000:  LLD
 LLDC.ohmm              00 000 000 000:  LLDC
 LLS .ohmm              00 000 000 000:  LLS
 LLSC.ohmm              00 000 000 000:  LLSC
 MSFL.ohmm              00 000 000 000:  MSFL
 MSFLUF.ohmm            00 000 000 000:  Msfl Unfiltered
 SP  .mV                00 000 000 000:  SP
 TENS.lbs               00 000 000 000:  Cable Tension
~A   DEPT      DLOD      GRLL      LLD     LLDC    LLS     LLSC     MSFL      MSFLUF      SP      TENS    
   1831.0000 1825.7137  68.2785   0.5920 0.0000   0.7537 0.0000 20000.0000 20000.0000  96.3140 2589.2065 
   1831.2500 1825.7137  70.2548   0.5786 0.0000   0.7510 0.0000 20000.0000 20000.0000  96.2191 2582.6306 
   1831.5000 1825.7137  71.8515   0.5754 0.0000   0.7553 0.0000 20000.0000 20000.0000  96.1096 2574.6755 
   1831.7500 1825.7137  72.4928   0.5690 0.0000   0.7631 0.0000 20000.0000 20000.0000  95.9929 2565.3413 
   1832.0000 1825.7137  72.8331   0.5519 0.0000   0.7647 0.0000 20000.0000 20000.0000  95.8615 2554.2039 
   1832.2500 1825.7137  73.1864   0.5393 0.0000   0.7672 0.0000 20000.0000 20000.0000  95.7593 2540.8389 
   1832.5000 1825.7137  72.3488   0.5354 0.0000   0.7690 0.0000 20000.0000 20000.0000  95.6718 2527.5261 
   1832.7500 1825.7137  72.2049   0.5307 0.0000   0.7713 0.0000 20000.0000 20000.0000  95.5696 2516.8660 
   1833.0000 1825.7137  73.2519   0.5335 0.0000   0.7800 0.0000 20000.0000 20000.0000  95.5112 2509.1230 
   1833.2500 1825.7137  73.9193   0.5441 0.0000   0.7756 0.0000 20000.0000 20000.0000  95.4966 2506.3647 
   1833.5000 1825.7137  73.8801   0.5561 0.0000   0.7670 0.0000 20000.0000 20000.0000  95.4820 2509.0166 
   1833.7500 1825.7137  74.4821   0.5879 0.0000   0.7568 0.0000 20000.0000 20000.0000  95.5112 2516.1243 
   1834.0000 1825.7137  73.3042   0.6188 0.0000   0.7479 0.0000 20000.0000 20000.0000  95.5696 2526.3601 
   1834.2500 1825.7137  71.3411   0.6391 0.0000   0.7390 0.0000 20000.0000 20000.0000  95.6426 2537.9219 
   1834.5000 1825.7137  69.6004   0.6636 0.0000   0.7325 0.0000 20000.0000 20000.0000  95.7155 2549.0061 
   1834.7500 1825.7137  68.3440   0.6800 0.0000   0.7228 0.0000 20000.0000 20000.0000  95.7520 2558.9766 
   1835.0000 1825.7137  67.4933   0.6883 0.0000   0.7189 0.0000 20000.0000 20000.0000  95.7374 2565.6589 
   1835.2500 1825.7137  68.1739   0.6879 0.0000   0.7155 0.0000 20000.0000 20000.0000  95.7155 2568.3105 
   1835.5000 1825.7137  69.1292   0.6830 0.0000   0.7235 0.0000 20000.0000 20000.0000  95.6645 2567.8333 
   1835.7500 1825.7137  70.2417   0.6818 0.0000   0.7282 0.0000 20000.0000 20000.0000  95.5696 2566.7195 
   1836.0000 1825.7137  70.5427   0.6898 0.0000   0.7267 0.0000 20000.0000 20000.0000  95.4747 2566.6672 
   1836.2500 1825.7137  70.3071   0.6954 0.0000   0.7282 0.0000 20000.0000 20000.0000  95.4090 2567.7278 
   1836.5000 1825.7137  68.7890   0.7110 0.0000   0.7293 0.0000 20000.0000 20000.0000  95.3579 2568.4705 
   1836.7500 1825.7137  66.9960   0.7267 0.0000   0.7327 0.0000 20000.0000 20000.0000  95.3579 2567.9932 
   1837.0000 1825.7137  65.0721   0.7317 0.0000   0.7285 0.0000 20000.0000 20000.0000  95.3652 2566.5073 
   1837.2500 1825.7137  63.8942   0.7397 0.0000   0.7211 0.0000 20000.0000 20000.0000  95.3725 2564.0156 
   1837.5000 1825.7137  63.9596   0.7413 0.0000   0.7119 0.0000 20000.0000 20000.0000  95.3871 2559.2952 
   1837.7500 1825.7137  65.4909   0.7387 0.0000   0.7094 0.0000 20000.0000 20000.0000  95.4017 2552.6125 
   1838.0000 1825.7137  66.5771   0.7399 0.0000   0.7081 0.0000 20000.0000 20000.0000  95.4163 2543.3306 
   1838.2500 1825.7137  66.1845   0.7283 0.0000   0.7005 0.0000 20000.0000 20000.0000  95.4528 2532.5120 
   1838.5000 1825.7137  64.9804   0.7171 0.0000   0.6953 0.0000 20000.0000 20000.0000  95.4601 2520.8970 
   1838.7500 1825.7137  62.3236   0.7170 0.0000   0.6924 0.0000 20000.0000 20000.0000  95.4747 2507.3198 
   1839.0000 1825.7137  58.7638   0.7157 0.0000   0.6858 0.0000 20000.0000 20000.0000  95.4747 2493.1064 
   1839.2500 1825.7137  57.3896   0.7189 0.0000   0.6894 0.0000 20000.0000 20000.0000  95.4674 2480.9607 
   1839.5000 1825.7137  57.6775   0.7264 0.0000   0.6857 0.0000 20000.0000 20000.0000  95.4455 2471.8918 
   1839.7500 1825.7137  58.6067   0.7319 0.0000   0.6802 0.0000 20000.0000 20000.0000  95.4017 2468.4973 
   1840.0000 1825.7137  60.3081   0.7493 0.0000   0.6790 0.0000 20000.0000 20000.0000  95.3287 2472.2104 
   1840.2500 1828.3695  62.4283   0.7650 0.0000   0.6811 0.0000 20000.0000 20000.0000  95.2558 2482.0222 
   1840.5000 1831.8228  62.8733   0.7722 0.0000   0.6824 0.0000 20000.0000 20000.0000  95.1390 2498.4099 
   1840.7500 1834.2126  62.5200   0.7800 0.0000   0.6906 0.0000 20000.0000 20000.0000  95.0441 2518.7759 
   1841.0000 1836.0721  62.3106   0.7781 0.0000   0.6879 0.0000 20000.0000 20000.0000  94.9413 2539.7773 
   1841.2500 1837.6648  61.1327   0.7756 0.0000   0.6868 0.0000 20000.0000 20000.0000  94.8167 2559.1353 
   1841.5000 1839.2584  60.8709   0.7766 0.0000   0.6864 0.0000 20000.0000 20000.0000  94.6993 2575.3652 
   1841.7500 1842.4458  61.5253   0.7645 0.0000   0.6847 0.0000 20000.0000 20000.0000  94.5959 2586.7668 
   1842.0000 1843.7737  61.8918   0.7549 0.0000   0.6849 0.0000 20000.0000 20000.0000  94.5071 2593.3972 
   1842.2500 1844.3053  62.8472   0.7553 0.0000   0.6845 0.0000 20000.0000 20000.0000  94.4469 2595.5715 
   1842.5000 1845.8989  64.7972   0.7549 0.0000   0.6796 0.0000 20000.0000 20000.0000  94.3642 2595.5181 
   1842.7500 1848.0231  65.4909   0.7743 0.0000   0.6805 0.0000 20000.0000 20000.0000  94.3192 2595.6770 
   1843.0000 1848.8195  66.0536   0.7801 0.0000   0.6872 0.0000 20000.0000 20000.0000  94.2730 2596.3665 
   1843.2500 1850.6788  67.2708   0.7882 0.0000   0.6880 0.0000 20000.0000 20000.0000  94.2115 2596.3665 
   1843.5000 1851.4762  68.1608   0.8086 0.0000   0.6901 0.0000 20000.0000 20000.0000  94.1440 2594.6165 
   1843.7500 1852.2726  67.8597   0.8222 0.0000   0.6864 0.0000 20000.0000 20000.0000  94.0321 2592.1235 
   1844.0000 1853.0688  67.6765   0.8269 0.0000   0.6873 0.0000 20000.0000 20000.0000  93.9129 2590.0559 
   1844.2500 1853.8662  67.2708   0.8323 0.0000   0.6951 0.0000 20000.0000 20000.0000  93.8089 2588.0405 
   1844.5000 1853.8662  66.2107   0.8204 0.0000   0.6955 0.0000 20000.0000 20000.0000  93.6745 2584.3274 
   1844.7500 1854.6625  65.8704   0.8196 0.0000   0.6953 0.0000 20000.0000 20000.0000  93.5705 2579.9255 
   1845.0000 1852.8042  66.5379   0.8087 0.0000   0.7049 0.0000 20000.0000 20000.0000  93.4586 2576.1602 
   1845.2500 1851.4762  67.4017   0.8028 0.0000   0.7169 0.0000 20000.0000 20000.0000  93.3224 2575.2585 
   1845.5000 1850.4131  68.3702   0.8070 0.0000   0.7281 0.0000 20000.0000 20000.0000  93.1856 2577.2739 
   1845.7500 1850.4131  69.5350   0.8182 0.0000   0.7333 0.0000 20000.0000 20000.0000  93.0639 2579.9790 
   1846.0000 1850.4131  69.9930   0.8245 0.0000   0.7381 0.0000 20000.0000 20000.0000  92.9338 2583.1082 
   1846.2500 1850.4131  70.4511   0.8437 0.0000   0.7529 0.0000 20000.0000 20000.0000  92.7957 2587.1921 
   1846.5000 1849.6168  71.2756   0.8600 0.0000   0.7616 0.0000 20000.0000 20000.0000  92.6425 2591.4873 
   1846.7500 1850.4131  72.3750   0.8630 0.0000   0.7678 0.0000 20000.0000 20000.0000  92.5421 2595.3594 
   1847.0000 1850.1473  74.4559   0.8705 0.0000   0.7716 0.0000 20000.0000 20000.0000  92.4661 2597.7456 
   1847.2500 1850.4131  75.3852   0.8679 0.0000   0.7802 0.0000 20000.0000 20000.0000  92.4497 2598.0110 
   1847.5000 1850.1473  75.5946   0.8641 0.0000   0.7925 0.0000 20000.0000 20000.0000  92.4035 2597.4280 
   1847.7500 1850.1473  75.5291   0.8558 0.0000   0.7971 0.0000 20000.0000 20000.0000  92.3438 2596.2078 
   1848.0000 1849.3510  74.3905   0.8554 0.0000   0.7976 0.0000 20000.0000 20000.0000  92.3001 2593.7681 
   1848.2500 1849.6168  72.8331   0.8463 0.0000   0.8115 0.0000 20000.0000 20000.0000  92.2496 2591.1697 
   1848.5000 1849.6168  72.5713   0.8524 0.0000   0.8125 0.0000 20000.0000 20000.0000  92.1249 2589.5786 
   1848.7500 1849.6168  72.1394   0.8566 0.0000   0.8195 0.0000 20000.0000 20000.0000  91.9917 2589.4719 
   1849.0000 1848.0231  71.7730   0.8579 0.0000   0.8241 0.0000 20000.0000 20000.0000  91.7856 2590.8511 
   1849.2500 1845.8989  71.8122   0.8694 0.0000   0.8301 0.0000 20000.0000 20000.0000  91.6019 2593.6094 
   1849.5000 1844.3053  71.5112   0.8852 0.0000   0.8330 0.0000 20000.0000 20000.0000  91.4474 2597.4280 
   1849.7500 1844.0394  71.1448   0.8877 0.0000   0.8392 0.0000 20000.0000 20000.0000  91.2637 2603.1555 
