~VERSION INFORMATION
VERS  .       2.0                       : CWLS LOG ASCII STANDARD - VERSION 2.0
WRAP  .       NO                        : One line per depth step
~WELL INFORMATION
#MNEM .UNIT   DATA                      : DESCRIPTION OF MNEMONIC
#-----.----   ----                      : -----------------------
STRT  .ft     1900.0000                 : Start
STOP  .ft     6773.0000                 : Stop
STEP  .ft        1.0000                 : Step increment
NULL  .       -999.2500                 : Null value
COMP  .       Venoco                    : Company
WELL  .       Bradley Minerals2-6       : Well
FLD   .       Bradley Minerals          : Field
LOC   .                                 : Location
SRVC  .                                 : Service company
DATE  .       1/26/2010                 : Logging date
CNTY  .       Monterey                  : County
STAT  .       California                : State
CTRY  .       USA                       : Country
API   .       040532202900              : API number
UWI   .       040532202900              : Unique Well Identifier
~CURVE INFORMATION
#MNEM .UNIT   API CODE                  : CURVE DESCRIPTION
#-----.----   --------                  : -----------------
DEPT  .ft                               : Measured Depth
GR    .aapi                             : Gamma Ray
ROP   .ft/hr                            : Rate of Penetration
VRMS  .G                                : Average Vibration
VPK   .G                                : Peak Vibration
T-TEMP.degF                             : Tool Temperature
~PARAMETER INFORMATION
#MNEM .UNIT   VALUE                     : DESCRIPTION
#-----.----   -----                     : -----------
~OTHER INFORMATION
~A  DEPT         GR        ROP       VRMS        VPK     T-TEMP   
# ...
 6580.0000    75.2981    52.8579     2.2977     4.0315   141.1339 
 6581.0000    70.7799    49.7612     2.2797     4.0315   141.1339 
 6582.0000    70.7749    43.8775     2.2618     4.0315   141.1339 
 6583.0000    70.3227    46.6566     2.2438     4.0315   141.1339 
 6584.0000    70.7546    46.3934     2.2258     4.0315   141.1339 
 6585.0000    71.2247    44.2770     2.2079     4.0523   141.1339 
 6586.0000    69.1949    54.1961     2.2047     4.1749   141.1339 
 6587.0000    67.1197    60.2188     2.2047     4.2976   141.1339 
 6588.0000    67.1770    60.1070     2.2047     4.4203   141.1339 
 6589.0000    67.2979    58.4031     2.2047     4.5430   141.1339 
 6590.0000    67.9905    53.5101     2.2047     4.6656   141.1339 
 6591.0000    72.7476    48.6910     2.2047     4.7883   141.1339 
 6592.0000    73.1162    48.3589     2.2047     4.9110   141.1339 
 6593.0000    72.3686    52.8336     2.2047     5.0337   141.1339 
 6594.0000    71.4667    45.1711     2.2047     5.1563   141.1339 
 6595.0000    74.0838    32.4137     2.2047     5.2790   141.1339 
 6596.0000    77.9726    29.7838     2.2047     5.4017   141.1339 
 6597.0000    74.6652    34.5044     2.2047     5.5244   141.1339 
 6598.0000    76.0000    44.2085     2.2047     5.4577   141.1339 
 6599.0000    75.7314    52.1629     2.2047     5.3564   141.1339 
 6600.0000    72.4000    51.6196     2.2047     5.2551   141.1339 
 6601.0000    71.6985    49.7569     2.2047     5.1539   141.1339 
 6602.0000    74.7875    49.8725     2.2047     5.0526   141.1339 
 6603.0000    79.1416    55.4446     2.2324     5.1305   141.1339 
 6604.0000    89.1972    58.6439     2.2642     5.2354   141.1339 
 6605.0000    94.2819    58.4943     2.2960     5.3402   141.1339 
 6606.0000    89.4178    56.1625     2.3278     5.4450   141.1339 
 6607.0000    91.2307    54.2744     2.3596     5.5293   141.1339 
 6608.0000    97.0786    56.6551     2.3532     5.3048   141.1339 
 6609.0000   100.7491    58.2797     2.3435     5.0804   141.1339 
 6610.0000   102.1748    65.4357     2.3338     4.8560   141.1339 
 6611.0000    97.1431    73.1620     2.3240     4.6316   141.1339 
 6612.0000    92.3823    73.4723     2.3143     4.4071   141.1339 
 6613.0000    92.5783    71.9446     2.3045     4.1827   141.1339 
 6614.0000    96.2097    69.3374     2.2948     4.0835   141.1339 
 6615.0000    97.4169    67.0000     2.2850     4.2428   141.1339 
 6616.0000    94.6335    66.9886     2.2753     4.4022   141.1339 
 6617.0000    94.0000    60.6376     2.2655     4.5615   141.1339 
 6618.0000    92.2854    60.2370     2.2558     4.7209   141.1339 
 6619.0000    90.7162    76.2583     2.2460     4.8803   141.1339 
 6620.0000    89.8581    84.0684     2.2363     5.0396   141.1339 
 6621.0000    90.6023    81.2299     2.2266     5.1990   141.1339 
 6622.0000    93.2524    77.5909     2.2168     5.3583   141.1339 
 6623.0000    95.4918    73.4022     2.2071     5.5177   141.1339 
 6624.0000    85.9141    68.4841     2.2047     5.3707   141.1339 
 6625.0000    85.6163    60.0273     2.2047     5.1650   141.1339 
 6626.0000    87.8842    49.0560     2.2047     4.9593   141.1339 
 6627.0000    97.0612    49.9313     2.2047     4.7536   141.1339 
 6628.0000    96.8189    56.5807     2.2047     4.5479   141.1339 
 6629.0000    93.3108    58.1707     2.1891     4.4729   141.1339 
 6630.0000    90.8900    61.1553     2.1689     4.4063   141.1339 
 6631.0000    87.7500    57.2193     2.1486     4.3397   141.1339 
 6632.0000    84.9705    50.7179     2.1283     4.2731   141.1339 
 6633.0000    82.6141    51.2747     2.1081     4.2065   141.1339 
 6634.0000    80.2577    57.7490     2.0878     4.1399   141.1339 
 6635.0000    81.3104    58.2459     2.0676     4.0734   141.1339 
 6636.0000    83.2949    48.5602     2.0473     4.0068   141.1339 
 6637.0000    87.5837    48.0512     2.0270     3.9402   141.1339 
 6638.0000   107.8526    63.6347     2.0068     3.8736   141.1339 
 6639.0000   104.6554    55.3758     1.9865     3.8070   141.1339 
 6640.0000    96.9447    43.9191     1.9662     3.7404   141.1339 
 6641.0000    92.2570    51.6144     1.9460     3.6738   141.1339 
 6642.0000    89.3685    57.4406     1.9257     3.6072   141.1339 
 6643.0000    90.0023    57.8061     1.9054     3.5406   141.1339 
 6644.0000    85.3589    62.7223     1.8898     3.5276   141.1339 
 6645.0000    75.5158    64.4059     1.8898     3.5276   141.1339 
 6646.0000    77.1783    57.3795     1.8898     3.5276   141.1339 
 6647.0000    80.1962    58.2768     1.8898     3.5276   141.1339 
 6648.0000    80.5000    65.6173     1.8898     3.5276   141.1339 
 6649.0000    81.9298    60.3227     1.8898     3.5276   141.1339 
 6650.0000    87.3611    52.5867     1.8898     3.5276   141.1339 
 6651.0000    92.9689    55.2256     1.8898     3.5276   141.1339 
 6652.0000    94.7706    74.3402     1.8898     3.5276   141.1339 
 6653.0000    91.1686    90.5855     1.8898     3.5276   141.1339 
 6654.0000    89.3061    90.7621     1.8898     3.5276   141.1339 
 6655.0000    89.4902    82.0420     1.8898     3.5276   141.1339 
 6656.0000    87.4082    74.6769     1.8898     3.5276   141.1339 
 6657.0000    77.8875    81.3342     1.8898     3.5276   141.1339 
 6658.0000    86.3604    65.8471     1.8898     3.5276   141.1339 
 6659.0000    90.7813    39.3420     1.8898     3.5276   141.1339 
 6660.0000    91.0692    24.0245     1.8898     3.5276   141.1339 
 6661.0000    89.5193    18.5606     1.9112     3.5276   141.1339 
 6662.0000    93.0514    19.8476     1.9354     3.5276   141.1339 
 6663.0000    93.4508    31.5163     1.9596     3.5276   141.1339 
 6664.0000    89.9208    37.9115     1.9837     3.5276   141.1339 
 6665.0000    92.0000    33.4486     2.0079     3.5276   141.1339 
 6666.0000    95.7200    26.3802     2.0320     3.5276   141.1339 
 6667.0000    96.4133    20.8632     2.0472     3.5276   141.1339 
 6668.0000    93.2753    29.5160     2.0472     3.5276   141.1339 
 6669.0000    88.8221    71.6383     2.0472     3.5276   141.1339 
 6670.0000    88.7574    89.2838     2.0472     3.5276   141.1339 
 6671.0000    90.6746    84.6539     2.0472     3.5276   141.1339 
 6672.0000    90.1938    63.8581     2.0472     3.5276   141.1339 
 6673.0000    92.2853    63.3072     2.0472     3.5276   141.1339 
 6674.0000    98.3018    63.7583     2.0472     3.5276   141.1339 
 6675.0000    95.8890    58.8402     2.0472     3.5276   141.1339 
 6676.0000    92.6639    64.3190     2.0472     3.5276   141.1339 
 6677.0000    89.8861    59.1867     2.0472     3.5276   141.1339 
 6678.0000    91.5974    55.7961     2.0472     3.5276   141.1339 
 6679.0000    95.5211    53.9000     2.0472     3.5711   141.1339 
 6680.0000   100.3133    41.2407     2.0722     3.8155   141.1339 
 6681.0000    95.2340    24.0358     2.1118     4.0600   141.1339 
 6682.0000    93.3463    13.6260     2.1513     4.3044   141.1339 
 6683.0000    96.8155    17.4857     2.1909     4.5488   141.1339 
 6684.0000    94.8102    51.7771     2.2305     4.7932   141.1339 
 6685.0000    92.1318    45.8312     2.2700     5.0376   141.1339 
 6686.0000    96.4402    26.8549     2.3096     5.2820   141.1339 
 6687.0000    98.5855    34.3906     2.3491     5.5264   141.1339 
 6688.0000    94.4151    58.7825     2.3887     5.7708   141.1339 
 6689.0000    93.5216    80.5794     2.4282     6.0153   141.1339 
 6690.0000    93.9797    86.1444     2.4678     6.2597   141.1339 
 6691.0000    93.3625    85.4921     2.5073     6.5041   141.1339 
 6692.0000    89.8668    76.6864     2.5005     6.3370   141.1339 
 6693.0000    90.4712    70.1659     2.4727     6.0717   141.1339 
 6694.0000    90.9091    72.4954     2.4449     5.8064   141.1339 
 6695.0000    88.3310    81.5070     2.4171     5.5410   141.1339 
 6696.0000    86.2500    85.3769     2.3892     5.2757   141.1339 
 6697.0000    87.5492    84.2567     2.3638     5.0772   141.1339 
 6698.0000    88.0254    86.5167     2.4181     5.4235   141.1339 
 6699.0000    86.1262    83.4146     2.4724     5.7699   141.1339 
