~Version Information
 VERS.                  2.0:   CWLS log ASCII Standard -VERSION 2.0
 WRAP.                   NO:   One line per depth step
~Well Information Block
#MNEM.UNIT     VALUE/NAME     DESCRIPTION
#---------     -----------    ---------------------------
 STRT.F              1831.0000: START DEPTH
 STOP.F              6790.7500: STOP DEPTH
 STEP.F                 0.2500: STEP DEPTH
 NULL.                 -999.25: NULL VALUE
 FL5 .        Long -120.825003:  LOCATIONLINE5
 FL4 .          Lat  35.869473:  LOCATIONLINE4
 FL3 .          X  6,020,938.4:  LOCATIONLINE3
 FL2 .          Y  1,840,736.7:  LOCATIONLINE2
 FL1 .        NAD 83 CA ZONE 4:  LOCATIONLINE1
 RIG .                KENAI 16:  RIG NAME
 CTRY.                      US:  COUNTRY NAME
 CNTY.                MONTEREY:  COUNTY NAME
 LUL .                   BKFLD:  LOGGINGUNITLOC
 FLD .           SOUTH SALINAS:  FIELD NAME
 WELL.     BRADLEY MINERALS 2-6:  WELL NAME
 COMP.             VENOCO INC.:  COMPANY
 MDS .        Operator Entered:  MAG DATA SOURCE
 SVCO.             Halliburton:  SERVICECONAME
 IQVR.                  R2.6.1:  WLIQ VERSION
 PROV.                      CA:  PROVINCE
 STAT.                      CA:  STATE NAME
 SON .                 7136075:  JOB NUMBER
 SECT.                       6:  SECTION
 TOWN.                     24S:  TOWNSHIP
 RANG.                     11E:  RANGE
 UWI .            040532202900:  UNIQUE WELL IDENTIFIER
 API .       04-053-22029-0000:  API NUMBER
 PDAT.                      GL:  PERMANENT DATUM
 DMF .                      KB:  DRILL MEAS FROM
 DATE.                        :  DATE
 SRVC.             Halliburton:  SERVICE COMPANY
 LOC .                        :  LOCATION
 LMF .                      KB:  LOG MEASURED FROM
 APD .ft               23.0000:  DEPTH ABOVE PD
 GRDC.deg               0.0000:  GRID CORRECTION
 MDEC.deg               0.0000:  MAGNETIC DECL
 AZTC.deg               0.0000:  AZM TOTAL CORR
 MFLD.nT            48150.0000:  MAGNETIC FIELD
 EGL .ft              542.0000:  GROUND ELEVATION
 EPD .ft              542.0000:  ELEVATION
 GVFD.g                 1.0000:  GRAVITY FIELD
 TVDS.ft              565.0000:  TVDSS CORRECTN
 EKB .ft              565.0000:  KB ELEVATION
 EDF .ft                0.0000:  DF ELEVATION
 MAGU.                 1444500:  MAGUTM CHECKSUM
 VSC .                       1:  VS TO CLOSURE
~Parameter Information Block
#MNEM.UNIT       Value        Description
#---------     -----------    ---------------------------
 LUL .                   BKFLD:  LoggingUnitLoc 
 LUN .                   61841:  LoggingUnitNum 
 ENGI.             D. SANDOVAL:  Engineer Name 
 DCS .               27-Jan-10:  DateCircEndT 
 TCS .                   05 42:  Time Ciculation Ended 
 TDCE.ucts  05.43.28 27-Jan-10:  Time Circ End 
 IQVR.     WL INSITE R2.6.1 (Build 9):  WLIQ Version 
 RUN .                       1:  Run Number 
 SVCN.               XRMI_WSST:  Service Name 
 SVCS.      
 TLAB.ucts  10.01.36 27-Jan-10:  Log Start Time 
 DATE.               27-Jan-10:  Run Date 
 TLAB.                   10 01:  LogStartTimeT 
 DLAB.               27-Jan-10:  LogStartDateT 
~Curve Information Block
#MNEM.UNIT                 API CODE     Curve Description
#---------               -----------    ---------------------------
 DEPT.F                 00 000 000 000:  Depth
 DLOD.lbs               00 000 000 000:  DLOD
 GRLL.api               00 000 000 000:  Natural Gamma Ray
 LLD .ohmm              00 000 000 000:  LLD
 LLDC.ohmm              00 000 000 000:  LLDC
 LLS .ohmm              00 000 000 000:  LLS
 LLSC.ohmm              00 000 000 000:  LLSC
 MSFL.ohmm              00 000 000 000:  MSFL
 MSFLUF.ohmm            00 000 000 000:  Msfl Unfiltered
 SP  .mV                00 000 000 000:  SP
 TENS.lbs               00 000 000 000:  Cable Tension
~A   DEPT      DLOD      GRLL      LLD     LLDC    LLS     LLSC     MSFL      MSFLUF      SP      TENS    
# ...
   5118.0000 1835.8064 104.7409   3.5307 0.0000   3.0323 0.0000     2.5874     2.4338  29.0121 3573.5493 
   5118.2500 1834.4785 105.0943   3.5122 0.0000   3.0199 0.0000     2.8145     2.7893  28.9379 3569.8906 
   5118.5000 1833.9469 105.8141   3.4931 0.0000   3.0101 0.0000     2.8418     3.3084  28.8570 3571.7993 
   5118.7500 1834.4785 106.0366   3.4850 0.0000   3.0015 0.0000     2.8809     3.9246  28.7676 3577.8989 
   5119.0000 1834.4785 105.2644   3.4948 0.0000   3.0132 0.0000     2.7689     3.3342  28.6861 3586.1726 
   5119.2500 1836.6027 104.5184   3.5214 0.0000   3.0427 0.0000     2.7829     2.9075  28.6351 3596.8328 
   5119.5000 1836.8684 104.9896   3.5616 0.0000   3.0829 0.0000     2.5365     2.5459  28.5767 3609.0305 
   5119.7500 1835.0089 106.8611   3.5970 0.0000   3.1270 0.0000     2.4290     2.7247  28.5183 3621.5474 
   5120.0000 1836.6027 109.6488   3.6412 0.0000   3.1700 0.0000     2.4777     3.5655  28.4088 3630.3506 
   5120.2500 1836.8684 112.6328   3.6908 0.0000   3.2168 0.0000     2.5777     3.4720  28.2835 3635.1777 
   5120.5000 1838.1963 114.3996   3.7556 0.0000   3.2667 0.0000     2.6657     4.0807  28.1516 3637.4050 
   5120.7500 1840.5863 113.9416   3.8356 0.0000   3.3294 0.0000     2.9580     4.8368  28.0196 3638.4656 
   5121.0000 1839.7900 110.6434   3.9208 0.0000   3.3962 0.0000     3.2290     4.7794  27.8803 3639.8447 
   5121.2500 1840.0558 107.3323   4.0148 0.0000   3.4647 0.0000     3.2403     5.0297  27.7264 3641.2761 
   5121.5000 1840.0558 105.1990   4.0935 0.0000   3.5353 0.0000     3.2346     4.6223  27.5507 3643.4514 
   5121.7500 1838.4622 104.1868   4.1973 0.0000   3.6271 0.0000     3.1155     4.2632  27.4041 3647.7466 
   5122.0000 1837.6648 104.5402   4.3164 0.0000   3.7287 0.0000     3.1346     3.8202  27.2363 3653.5806 
   5122.2500 1836.3369 106.6342   4.4324 0.0000   3.8507 0.0000     3.4566     4.0551  27.0684 3658.3010 
   5122.5000 1834.7443 107.6551   4.5331 0.0000   3.9468 0.0000     3.8730     4.5034  26.8847 3660.3696 
   5122.7500 1834.7443 108.2964   4.6018 0.0000   4.0122 0.0000     4.4243     4.5802  26.6780 3658.9905 
   5123.0000 1835.5405 109.0467   4.6296 0.0000   4.0483 0.0000     4.8424     4.5584  26.4852 3656.9751 
   5123.2500 1837.1343 111.2847   4.6376 0.0000   4.0577 0.0000     5.0337     4.6677  26.3210 3654.2168 
   5123.5000 1839.7900 113.1170   4.6061 0.0000   4.0336 0.0000     4.8119     4.1913  26.1476 3649.8152 
   5123.7500 1842.9774 116.5853   4.5558 0.0000   3.9844 0.0000     4.7727     4.4852  25.9956 3643.3982 
   5124.0000 1844.0394 119.6347   4.4924 0.0000   3.9170 0.0000     4.4685     3.9434  25.8423 3636.5034 
   5124.2500 1844.3053 122.2784   4.4197 0.0000   3.8528 0.0000     4.3518     4.9354  25.7122 3630.4573 
   5124.5000 1843.7737 124.0191   4.3582 0.0000   3.8039 0.0000     4.2527     5.2778  25.5972 3624.8352 
   5124.7500 1841.3837 125.7597   4.3181 0.0000   3.7654 0.0000     4.1163     3.5948  25.4896 3618.0994 
   5125.0000 1839.2584 127.1209   4.2903 0.0000   3.7383 0.0000     4.1357     3.6584  25.3893 3610.9404 
   5125.2500 1836.6027 128.1417   4.3029 0.0000   3.7313 0.0000     4.2790     4.4824  25.3053 3606.8032 
   5125.5000 1833.4153 128.7176   4.3293 0.0000   3.7572 0.0000     4.2673     7.0814  25.2445 3606.4321 
   5125.7500 1832.6190 127.9846   4.3883 0.0000   3.7919 0.0000     4.2899     4.2620  25.2220 3608.2356 
   5126.0000 1833.4153 125.6681   4.4575 0.0000   3.8408 0.0000     4.4032     3.4882  25.2147 3610.7285 
   5126.2500 1836.0721 122.2653   4.5410 0.0000   3.8991 0.0000     4.5213     6.6039  25.2524 3614.5461 
   5126.5000 1840.8521 117.9202   4.6354 0.0000   3.9754 0.0000     4.5550     4.0885  25.2980 3621.1763 
   5126.7500 1846.4294 113.0254   4.7371 0.0000   4.0596 0.0000     4.5124     3.3991  25.3522 3629.6089 
   5127.0000 1852.5383 108.3924   4.8209 0.0000   4.1332 0.0000     4.4194     4.0839  25.4288 3634.7534 
   5127.2500 1858.3815 104.3090   4.8556 0.0000   4.1807 0.0000     5.3463     5.1202  25.4896 3636.9277 
   5127.5000 1862.3651 101.9009   4.8312 0.0000   4.1865 0.0000     5.4214     4.2808  25.5273 3637.8293 
   5127.7500 1865.2867 102.0317   4.7725 0.0000   4.1425 0.0000     5.3055     6.5441  25.5796 3640.1624 
   5128.0000 1866.0830 103.3536   4.6875 0.0000   4.0800 0.0000     5.5591     3.4565  25.6173 3641.7537 
   5128.2500 1865.5514 104.5838   4.5902 0.0000   3.9985 0.0000     5.8322     3.5619  25.6781 3640.7463 
   5128.5000 1863.9587 106.1675   4.4937 0.0000   3.9102 0.0000     4.7065     4.5676  25.7237 3638.7310 
   5128.7500 1860.2399 106.7302   4.4209 0.0000   3.8372 0.0000     4.2609     5.2480  25.7773 3640.4810 
   5129.0000 1857.3182 105.6439   4.3934 0.0000   3.7949 0.0000     4.3353     3.3200  25.8387 3645.6255 
   5129.2500 1856.5220 103.7462   4.4164 0.0000   3.8054 0.0000     4.2517     3.0558  25.9311 3652.0427 
   5129.5000 1857.3182 102.6207   4.4753 0.0000   3.8714 0.0000     4.0288     3.1051  25.9938 3655.5427 
   5129.7500 1858.6461  99.9246   4.5396 0.0000   3.9480 0.0000     4.2402     3.3593  26.0710 3657.4526 
   5130.0000 1859.7094  97.0584   4.6224 0.0000   4.0311 0.0000     4.2297     3.2879  26.1324 3658.5132 
   5130.2500 1859.7094  95.1214   4.7034 0.0000   4.1111 0.0000     4.0623     3.8855  26.2006 3657.9824 
   5130.5000 1860.5056  93.8781   4.7736 0.0000   4.1804 0.0000     4.3316     4.6087  26.2383 3653.9514 
   5130.7500 1859.1777  92.9096   4.7980 0.0000   4.2226 0.0000     4.3610     2.9002  26.2833 3647.6943 
   5131.0000 1856.2562  93.3546   4.7127 0.0000   4.2022 0.0000     4.1680     1.7494  26.3052 3643.0793 
   5131.2500 1852.2726  94.3754   4.5145 0.0000   4.0655 0.0000     4.0285     3.1161  26.3191 3642.4963 
   5131.5000 1848.8195  96.0899   4.2568 0.0000   3.8652 0.0000     3.8784     2.6850  26.2802 3644.9893 
   5131.7500 1846.9611  98.3541   4.0028 0.0000   3.6479 0.0000     3.3670     2.8169  26.2267 3648.4360 
   5132.0000 1845.8989  99.6760   3.7455 0.0000   3.4267 0.0000     3.2068     2.4978  26.1969 3651.9373 
   5132.2500 1845.1016 101.7700   3.4933 0.0000   3.1967 0.0000     3.3071     2.4006  26.1890 3655.7026 
   5132.5000 1846.6952 103.0002   3.2510 0.0000   2.9549 0.0000     3.5919     2.0199  26.1890 3658.5664 
   5132.7500 1848.2889 103.0526   3.0678 0.0000   2.7317 0.0000     3.3785     4.0291  26.2109 3657.1873 
   5133.0000 1848.8195 103.3143   2.9832 0.0000   2.6219 0.0000     3.0673     3.3312  26.2705 3651.8838 
   5133.2500 1848.8195 103.2227   2.9920 0.0000   2.6296 0.0000     2.9344     3.2916  26.4055 3644.0876 
   5133.5000 1846.9611 101.3512   3.0516 0.0000   2.6843 0.0000     2.6417     3.4089  26.5624 3636.9810 
   5133.7500 1844.3053  99.5320   3.1407 0.0000   2.7663 0.0000     2.3541     3.6511  26.7035 3631.1467 
   5134.0000 1842.1799  98.0007   3.2491 0.0000   2.8609 0.0000     2.4033     3.6741  26.8373 3626.4265 
   5134.2500 1839.7900  96.6527   3.3862 0.0000   2.9799 0.0000     2.4702     3.1529  26.9559 3623.7747 
   5134.5000 1837.9305  98.3541   3.5462 0.0000   3.1142 0.0000     2.3838     3.0012  27.0599 3625.7903 
   5134.7500 1837.1343 101.5998   3.7010 0.0000   3.2472 0.0000     3.0226     2.9807  27.1560 3631.9951 
   5135.0000 1837.9305 106.8349   3.8014 0.0000   3.3182 0.0000     3.0797     3.4643  27.1998 3640.0034 
   5135.2500 1841.9142 112.6546   3.8454 0.0000   3.3473 0.0000     3.3567     4.2211  27.2436 3646.3684 
   5135.5000 1845.8989 116.5940   3.8718 0.0000   3.3563 0.0000     3.7192     3.3998  27.2873 3650.5581 
   5135.7500 1849.8826 118.6749   3.8844 0.0000   3.3608 0.0000     4.0412     3.0654  27.3311 3653.6873 
   5136.0000 1853.8662 119.7743   3.8890 0.0000   3.3551 0.0000     3.5578     3.4734  27.3968 3655.6494 
   5136.2500 1856.2562 119.2508   3.8886 0.0000   3.3563 0.0000     3.5791     3.2779  27.4625 3653.6873 
   5136.5000 1857.5841 118.7927   3.8835 0.0000   3.3399 0.0000     3.5168     3.4317  27.5136 3648.2239 
   5136.7500 1857.0536 118.4394   3.8804 0.0000   3.3306 0.0000     3.3385     3.5795  27.5793 3642.7085 
