~VERSION INFORMATION
VERS  .       2.0                       : CWLS LOG ASCII STANDARD - VERSION 2.0
WRAP  .       NO                        : One line per depth step
~WELL INFORMATION
#MNEM .UNIT   DATA                      : DESCRIPTION OF MNEMONIC
#-----.----   ----                      : -----------------------
STRT  .ft     1900.0000                 : Start
STOP  .ft     6773.0000                 : Stop
STEP  .ft        1.0000                 : Step increment
NULL  .       -999.2500                 : Null value
COMP  .       Venoco                    : Company
WELL  .       Bradley Minerals2-6       : Well
FLD   .       Bradley Minerals          : Field
LOC   .                                 : Location
SRVC  .                                 : Service company
DATE  .       1/26/2010                 : Logging date
CNTY  .       Monterey                  : County
STAT  .       California                : State
CTRY  .       USA                       : Country
API   .       040532202900              : API number
UWI   .       040532202900              : Unique Well Identifier
~CURVE INFORMATION
#MNEM .UNIT   API CODE                  : CURVE DESCRIPTION
#-----.----   --------                  : -----------------
DEPT  .ft                               : Measured Depth
GR    .aapi                             : Gamma Ray
ROP   .ft/hr                            : Rate of Penetration
VRMS  .G                                : Average Vibration
VPK   .G                                : Peak Vibration
T-TEMP.degF                             : Tool Temperature
~PARAMETER INFORMATION
#MNEM .UNIT   VALUE                     : DESCRIPTION
#-----.----   -----                     : -----------
~OTHER INFORMATION
~A  DEPT         GR        ROP       VRMS        VPK     T-TEMP   
# ...
 4660.0000    76.0381    64.5768     2.1115     4.4804   116.3307 
 4661.0000    85.2890    50.8162     2.0874     4.2717   116.3307 
 4662.0000    87.4564    49.7558     2.0633     4.0629   116.3307 
 4663.0000    85.5314    41.6620     2.0472     4.0658   116.3307 
 4664.0000    83.9526    37.0112     2.0472     4.1063   116.5009 
 4665.0000    83.7290    44.6761     2.0472     4.1467   116.7136 
 4666.0000    80.2612    51.6171     2.0472     4.1872   116.9263 
 4667.0000    78.2720    56.0369     2.0472     4.2276   117.1390 
 4668.0000    83.8507    58.9348     2.0472     4.2680   117.3517 
 4669.0000    88.0000    62.2010     2.0472     4.3085   117.5645 
 4670.0000    87.5755    63.0777     2.0472     4.3489   117.7772 
 4671.0000    83.3563    64.1138     2.0472     4.3893   117.9899 
 4672.0000    83.0977    64.1069     2.0472     4.4298   118.2026 
 4673.0000    87.0327    64.9190     2.0472     4.4702   118.4153 
 4674.0000    90.0387    70.1736     2.0472     4.5107   118.6280 
 4675.0000    93.6076    73.2013     2.0472     4.5354   118.8110 
 4676.0000   102.1945    67.4448     2.0472     4.5354   118.8110 
 4677.0000    98.2917    62.8371     2.0472     4.5354   118.8110 
 4678.0000   100.6145    64.2424     2.0472     4.5354   118.8110 
 4679.0000   100.5924    65.8044     2.0472     4.5354   118.8110 
 4680.0000   104.0042    65.9874     2.0472     4.5354   118.8110 
 4681.0000   103.1472    66.2938     2.0472     4.5354   118.8110 
 4682.0000    94.8132    65.8229     2.0472     4.5354   118.8110 
 4683.0000    90.1608    63.9161     2.0472     4.5354   118.8110 
 4684.0000    91.9978    64.6849     2.0472     4.5354   118.8110 
 4685.0000    87.5697    71.8225     2.0472     4.5354   118.8110 
 4686.0000    81.9884    84.6853     2.0472     4.5354   118.8110 
 4687.0000    84.4524    92.8244     2.0472     4.5354   118.8110 
 4688.0000    86.9182    88.9761     2.0497     4.5583   118.8110 
 4689.0000    87.7539    81.9515     2.0586     4.5868   118.8110 
 4690.0000    89.9558    76.2868     2.0676     4.6152   118.8110 
 4691.0000    92.0000    69.3759     2.0765     4.6437   118.8110 
 4692.0000    91.4691    62.4588     2.0854     4.6721   118.8110 
 4693.0000    91.6305    56.8701     2.0944     4.7006   118.8110 
 4694.0000    92.2857    35.4001     2.1033     4.7290   118.8110 
 4695.0000    90.0952    29.6468     2.1122     4.7575   118.8110 
 4696.0000    86.8939    22.9912     2.1212     4.7859   118.8110 
 4697.0000    84.8129    22.3183     2.1301     4.8143   118.8110 
 4698.0000    85.0857    22.4651     2.1390     4.8428   118.8110 
 4699.0000    88.3051    25.3313     2.1480     4.8712   118.8110 
 4700.0000    89.3298    34.3700     2.1569     4.8997   118.8110 
 4701.0000    98.0000    28.0108     2.1659     4.9281   118.8110 
 4702.0000   102.2857    19.9898     2.1748     4.9566   118.8110 
 4703.0000   100.1233    20.1328     2.1837     4.9850   118.8110 
 4704.0000    95.0322    18.8962     2.1927     5.0135   118.8110 
 4705.0000    88.3612    21.3546     2.2016     5.0394   118.8110 
 4706.0000    83.9499    25.3525     2.2047     5.0394   118.8110 
 4707.0000    84.2222    50.0389     2.2047     5.0394   118.8110 
 4708.0000    85.3025    70.2857     2.2047     5.0394   118.8110 
 4709.0000    84.2203    72.3653     2.2047     5.0394   118.8110 
 4710.0000    82.6184    74.2693     2.2047     5.0394   118.8110 
 4711.0000    83.1137    76.0067     2.2047     5.0394   118.8110 
 4712.0000    83.1111    77.4393     2.2047     5.0394   118.8110 
 4713.0000    82.4094    81.6737     2.2047     5.0394   118.8110 
 4714.0000    77.2082    78.6802     2.2047     5.0394   118.8110 
 4715.0000    76.9928    55.0256     2.2047     5.0394   118.8110 
 4716.0000    84.7153    46.7427     2.2047     5.0394   118.8110 
 4717.0000    88.9107    76.1601     2.2047     5.0068   118.8110 
 4718.0000    92.5516    85.3630     2.2047     4.9609   118.8110 
 4719.0000    97.7672    84.1112     2.2047     4.9150   118.8110 
 4720.0000   103.3862    90.0500     2.2047     4.8691   118.8110 
 4721.0000   107.0850    91.2924     2.2047     4.8232   118.8110 
 4722.0000   108.7688    89.4711     2.2047     4.7773   118.8110 
 4723.0000   112.1933    82.8852     2.2047     4.7314   118.8110 
 4724.0000   116.6804    64.6529     2.2047     4.6855   118.8110 
 4725.0000   117.6755    56.9175     2.2047     4.6396   118.8110 
 4726.0000   116.1367    66.7199     2.2047     4.5937   118.8110 
 4727.0000   111.1610    78.9281     2.2047     4.5477   118.8110 
 4728.0000   106.7276    85.9730     2.1978     4.4927   118.8110 
 4729.0000   106.5909    80.5108     2.1797     4.4343   118.8110 
 4730.0000    99.4505    79.8550     2.1616     4.3759   118.8110 
 4731.0000    87.0463    85.0361     2.1434     4.3176   118.8110 
 4732.0000    80.1985    91.6136     2.1253     4.2592   118.8110 
 4733.0000    77.2863    84.9919     2.1071     4.2008   118.8110 
 4734.0000    78.0977    59.8104     2.0890     4.1424   118.8110 
 4735.0000    76.0425    56.8035     2.0708     4.0840   118.8110 
 4736.0000    74.3791    77.2276     2.0527     4.0315   118.8110 
 4737.0000    75.5672    73.0383     2.0472     4.0315   118.8110 
 4738.0000    78.1675    81.2325     2.0472     4.0315   118.8110 
 4739.0000    81.1688    99.0881     2.0472     4.0315   118.8110 
 4740.0000    84.0736    95.6506     2.0472     4.0315   118.8110 
 4741.0000    85.8606    89.2278     2.0472     4.0315   118.8110 
 4742.0000    84.0654    86.8431     2.0472     4.0315   118.8110 
 4743.0000    84.2374    77.9948     2.0472     4.0315   118.8110 
 4744.0000    84.9378    74.1553     2.0472     4.0315   118.8110 
 4745.0000    81.5310    79.8996     2.0472     4.0315   118.8110 
 4746.0000    80.2219    83.7435     2.0472     4.0315   118.8110 
 4747.0000    81.6035    84.4623     2.0472     4.0315   118.8110 
 4748.0000    82.2000    78.5876     2.0472     4.0315   118.8110 
 4749.0000    82.3437    72.7410     2.0605     4.0315   118.8110 
 4750.0000    82.8142    68.7136     2.0762     4.0315   118.8110 
 4751.0000    84.0894    67.1654     2.0920     4.0315   118.8110 
 4752.0000    81.9913    71.5824     2.1077     4.0315   118.8110 
 4753.0000    84.1027    76.0033     2.1235     4.0315   118.8110 
 4754.0000    87.7674    74.8720     2.1392     4.0315   118.8110 
 4755.0000    86.4414    72.0559     2.1549     4.0315   118.8110 
 4756.0000    85.2751    62.8699     2.1707     4.0315   118.8110 
 4757.0000    84.0111    64.4146     2.1864     4.0315   118.8110 
 4758.0000    84.1721    72.1075     2.2022     4.0315   118.8110 
 4759.0000    79.5323    73.2156     2.2047     4.0315   118.8110 
 4760.0000    78.9630    68.1676     2.2047     4.0315   118.8110 
 4761.0000    82.1123    62.9252     2.2047     4.0315   118.8110 
 4762.0000    83.0493    68.7059     2.2047     4.0315   118.8110 
 4763.0000    81.6451    76.3650     2.2047     4.0315   118.8110 
 4764.0000    79.2810    77.8649     2.2047     4.0315   118.8110 
 4765.0000    78.9326    75.6262     2.2047     4.0315   118.8110 
 4766.0000    80.6000    71.5283     2.2047     4.0315   118.8110 
 4767.0000    77.4887    69.1298     2.2047     4.0315   118.8110 
 4768.0000    77.1111    71.7077     2.2047     4.0315   118.8110 
 4769.0000    81.2979    73.3839     2.2047     4.0315   118.8110 
 4770.0000    85.0500    72.3822     2.2047     4.0315   118.8110 
 4771.0000    90.1176    67.8885     2.2034     4.0315   118.8110 
 4772.0000   110.3981    63.3639     2.1845     4.0315   119.0426 
 4773.0000   115.4180    59.8676     2.1656     4.0315   119.3400 
 4774.0000   115.1150    62.9953     2.1467     4.0315   119.6375 
 4775.0000   106.4190    66.9763     2.1278     4.0315   119.9349 
 4776.0000    93.4703    67.9316     2.1089     4.0315   120.2323 
 4777.0000    84.4973    71.5700     2.0900     4.0315   120.5297 
 4778.0000    81.5530    68.9073     2.0711     4.0315   120.8272 
 4779.0000    81.7941    65.2790     2.0522     4.0364   121.1246 
