~Version Information
 VERS.                  2.0:   CWLS log ASCII Standard -VERSION 2.0
 WRAP.                   NO:   One line per depth step
~Well Information Block
#MNEM.UNIT     VALUE/NAME     DESCRIPTION
#---------     -----------    ---------------------------
 STRT.F              1831.0000: START DEPTH
 STOP.F              6790.7500: STOP DEPTH
 STEP.F                 0.2500: STEP DEPTH
 NULL.                 -999.25: NULL VALUE
 FL5 .        Long -120.825003:  LOCATIONLINE5
 FL4 .          Lat  35.869473:  LOCATIONLINE4
 FL3 .          X  6,020,938.4:  LOCATIONLINE3
 FL2 .          Y  1,840,736.7:  LOCATIONLINE2
 FL1 .        NAD 83 CA ZONE 4:  LOCATIONLINE1
 RIG .                KENAI 16:  RIG NAME
 CTRY.                      US:  COUNTRY NAME
 CNTY.                MONTEREY:  COUNTY NAME
 LUL .                   BKFLD:  LOGGINGUNITLOC
 FLD .           SOUTH SALINAS:  FIELD NAME
 WELL.     BRADLEY MINERALS 2-6:  WELL NAME
 COMP.             VENOCO INC.:  COMPANY
 MDS .        Operator Entered:  MAG DATA SOURCE
 SVCO.             Halliburton:  SERVICECONAME
 IQVR.                  R2.6.1:  WLIQ VERSION
 PROV.                      CA:  PROVINCE
 STAT.                      CA:  STATE NAME
 SON .                 7136075:  JOB NUMBER
 SECT.                       6:  SECTION
 TOWN.                     24S:  TOWNSHIP
 RANG.                     11E:  RANGE
 UWI .            040532202900:  UNIQUE WELL IDENTIFIER
 API .       04-053-22029-0000:  API NUMBER
 PDAT.                      GL:  PERMANENT DATUM
 DMF .                      KB:  DRILL MEAS FROM
 DATE.                        :  DATE
 SRVC.             Halliburton:  SERVICE COMPANY
 LOC .                        :  LOCATION
 LMF .                      KB:  LOG MEASURED FROM
 APD .ft               23.0000:  DEPTH ABOVE PD
 GRDC.deg               0.0000:  GRID CORRECTION
 MDEC.deg               0.0000:  MAGNETIC DECL
 AZTC.deg               0.0000:  AZM TOTAL CORR
 MFLD.nT            48150.0000:  MAGNETIC FIELD
 EGL .ft              542.0000:  GROUND ELEVATION
 EPD .ft              542.0000:  ELEVATION
 GVFD.g                 1.0000:  GRAVITY FIELD
 TVDS.ft              565.0000:  TVDSS CORRECTN
 EKB .ft              565.0000:  KB ELEVATION
 EDF .ft                0.0000:  DF ELEVATION
 MAGU.                 1444500:  MAGUTM CHECKSUM
 VSC .                       1:  VS TO CLOSURE
~Parameter Information Block
#MNEM.UNIT       Value        Description
#---------     -----------    ---------------------------
 LUL .                   BKFLD:  LoggingUnitLoc 
 LUN .                   61841:  LoggingUnitNum 
 ENGI.             D. SANDOVAL:  Engineer Name 
 DCS .               27-Jan-10:  DateCircEndT 
 TCS .                   05 42:  Time Ciculation Ended 
 TDCE.ucts  05.43.28 27-Jan-10:  Time Circ End 
 IQVR.     WL INSITE R2.6.1 (Build 9):  WLIQ Version 
 RUN .                       1:  Run Number 
 SVCN.               XRMI_WSST:  Service Name 
 SVCS.      
 TLAB.ucts  10.01.36 27-Jan-10:  Log Start Time 
 DATE.               27-Jan-10:  Run Date 
 TLAB.                   10 01:  LogStartTimeT 
 DLAB.               27-Jan-10:  LogStartDateT 
~Curve Information Block
#MNEM.UNIT                 API CODE     Curve Description
#---------               -----------    ---------------------------
 DEPT.F                 00 000 000 000:  Depth
 DLOD.lbs               00 000 000 000:  DLOD
 GRLL.api               00 000 000 000:  Natural Gamma Ray
 LLD .ohmm              00 000 000 000:  LLD
 LLDC.ohmm              00 000 000 000:  LLDC
 LLS .ohmm              00 000 000 000:  LLS
 LLSC.ohmm              00 000 000 000:  LLSC
 MSFL.ohmm              00 000 000 000:  MSFL
 MSFLUF.ohmm            00 000 000 000:  Msfl Unfiltered
 SP  .mV                00 000 000 000:  SP
 TENS.lbs               00 000 000 000:  Cable Tension
~A   DEPT      DLOD      GRLL      LLD     LLDC    LLS     LLSC     MSFL      MSFLUF      SP      TENS    
# ...
   4795.0000 1874.8477 109.1122   3.8514 0.0000   3.3217 0.0000     3.3206     2.2680  27.6668 3619.7439 
   4795.2500 1874.8477 112.5281   3.8958 0.0000   3.3628 0.0000     2.4174     2.0447  27.6523 3615.6077 
   4795.5000 1874.0503 115.6429   3.9413 0.0000   3.4069 0.0000     2.1739     1.9215  27.6012 3610.0911 
   4795.7500 1871.6603 115.9440   3.9736 0.0000   3.4394 0.0000     2.2222     2.6997  27.5647 3606.8032 
   4796.0000 1868.7388 115.2372   3.9929 0.0000   3.4548 0.0000     2.0045     2.9893  27.4990 3605.8481 
   4796.2500 1865.5514 113.3657   3.9969 0.0000   3.4597 0.0000     1.8040     1.8213  27.4552 3607.9167 
   4796.5000 1862.3651 111.1670   3.9963 0.0000   3.4487 0.0000     1.6858     1.6244  27.4260 3613.0615 
   4796.7500 1863.1614 110.5126   3.9773 0.0000   3.4272 0.0000     1.7751     1.6600  27.3822 3622.1301 
   4797.0000 1864.4893 110.5911   3.9594 0.0000   3.4117 0.0000     1.8171     1.5048  27.3530 3634.8589 
   4797.2500 1866.6146 110.0414   3.9467 0.0000   3.3896 0.0000     1.9716     1.9071  27.3603 3648.0120 
   4797.5000 1869.8008 110.1985   3.9459 0.0000   3.3853 0.0000     2.1013     1.5777  27.3749 3657.7703 
   4797.7500 1872.4565 111.3633   3.9661 0.0000   3.4003 0.0000     2.3179     2.4624  27.3968 3664.6648 
   4798.0000 1874.5819 112.1224   3.9778 0.0000   3.4267 0.0000     2.2120     1.8938  27.3968 3668.0593 
   4798.2500 1876.1755 113.8630   4.0130 0.0000   3.4564 0.0000     2.1707     2.7805  27.3968 3667.6353 
   4798.5000 1873.7855 117.2396   4.0360 0.0000   3.4892 0.0000     2.1664     2.3339  27.4187 3662.4907 
   4798.7500 1871.3945 119.7001   4.0716 0.0000   3.5158 0.0000     2.0865     3.6117  27.4187 3653.4751 
   4799.0000 1869.0045 121.7549   4.0825 0.0000   3.5420 0.0000     1.8922     3.2039  27.4114 3644.6174 
   4799.2500 1866.6146 123.0375   4.0963 0.0000   3.5573 0.0000     1.7764     2.2401  27.3676 3637.7227 
   4799.5000 1864.7551 123.6526   4.0936 0.0000   3.5628 0.0000     1.8091     2.0357  27.3238 3632.5781 
   4799.7500 1863.1614 122.8935   4.1019 0.0000   3.5635 0.0000     1.9494     2.9605  27.2801 3628.1230 
   4800.0000 1861.5677 120.6555   4.0850 0.0000   3.5765 0.0000     2.1510     2.2509  27.2217 3625.1006 
   4800.2500 1862.3651 118.7709   4.0942 0.0000   3.5800 0.0000     2.3306     1.9664  27.1414 3624.8884 
   4800.5000 1863.1614 117.2527   4.0831 0.0000   3.5813 0.0000     2.6059     1.1744  27.1049 3627.0627 
   4800.7500 1864.2235 115.3288   4.0877 0.0000   3.5902 0.0000     2.8922     1.1469  27.0684 3628.0176 
   4801.0000 1865.8171 114.0724   4.0773 0.0000   3.5941 0.0000     3.0295     1.0801  27.0538 3627.4868 
   4801.2500 1867.4109 112.9861   4.0657 0.0000   3.5865 0.0000     2.9355     1.3436  27.0611 3624.8884 
   4801.5000 1869.0045 110.4995   4.0301 0.0000   3.5668 0.0000     2.8416     2.4246  27.0757 3621.6528 
   4801.7500 1870.5983 108.3008   3.9934 0.0000   3.5238 0.0000     2.8871     2.7079  27.1122 3616.9333 
   4802.0000 1871.3945 106.6168   3.9267 0.0000   3.4791 0.0000     2.6556     2.4178  27.1852 3609.9324 
   4802.2500 1871.1287 105.4127   3.8690 0.0000   3.4236 0.0000     2.3314     2.6158  27.2436 3602.0828 
   4802.5000 1869.5361 105.0332   3.7986 0.0000   3.3572 0.0000     2.0840     3.0785  27.3238 3597.0447 
   4802.7500 1866.3488 106.3943   3.7299 0.0000   3.2898 0.0000     1.7865     2.1476  27.4187 3596.0898 
   4803.0000 1863.1614 106.5121   3.6733 0.0000   3.2356 0.0000     1.3176     2.5969  27.4917 3598.3174 
   4803.2500 1861.8335 106.0235   3.6187 0.0000   3.1907 0.0000     1.2152     3.0018  27.5793 3601.9238 
   4803.5000 1861.8335 105.0943   3.5792 0.0000   3.1623 0.0000     1.3726     8.6782  27.6450 3607.2273 
   4803.7500 1862.6309 103.3798   3.5682 0.0000   3.1439 0.0000     1.6459    11.8123  27.6741 3615.6077 
   4804.0000 1865.0209 102.0710   3.5903 0.0000   3.1435 0.0000     1.9405     9.1793  27.6960 3625.5781 
   4804.2500 1868.4729 101.6915   3.6791 0.0000   3.1998 0.0000     2.2901     7.4573  27.6814 3634.2227 
   4804.5000 1872.4565 102.9479   3.8581 0.0000   3.3403 0.0000     2.4792     6.2613  27.6450 3638.2002 
   4804.7500 1875.6439 104.3439   4.0861 0.0000   3.5492 0.0000     2.4594     3.6825  27.6304 3639.3140 
   4805.0000 1875.6439 106.0060   4.3940 0.0000   3.8263 0.0000     2.5389     4.6884  27.5866 3638.3069 
   4805.2500 1873.5198 106.4510   4.7500 0.0000   4.1522 0.0000     3.1141     3.9082  27.5574 3636.2380 
   4805.5000 1869.5361 105.5218   5.1768 0.0000   4.5377 0.0000     5.6021     5.2119  27.5355 3631.4121 
   4805.7500 1864.4893 102.4462   5.6166 0.0000   4.9668 0.0000     8.8784     4.9393  27.5063 3625.1006 
   4806.0000 1859.9740 100.2911   5.9887 0.0000   5.2883 0.0000    11.4494    32.8405  27.4771 3620.3269 
   4806.2500 1857.5841  98.7336   6.1644 0.0000   5.4348 0.0000    13.9949     2.8767  27.4406 3620.2214 
   4806.5000 1856.7878  98.6813   6.1540 0.0000   5.4512 0.0000    13.8304     0.5600  27.3749 3623.4038 
   4806.7500 1859.1777 100.1297   5.8774 0.0000   5.3234 0.0000     9.7707     0.4961  27.3086 3628.8127 
   4807.0000 1863.1614 101.0065   5.4384 0.0000   5.0293 0.0000     7.0879     2.5785  27.2205 3634.1172 
   4807.2500 1867.1450 101.2683   4.9137 0.0000   4.6103 0.0000     6.0800     2.3570  27.1615 3639.6326 
   4807.5000 1870.8640 101.5170   4.4071 0.0000   4.1200 0.0000     5.0848     2.5304  27.1098 3643.0271 
   4807.7500 1873.2540 102.0928   3.9442 0.0000   3.6780 0.0000     5.6608     3.0598  27.0873 3642.1777 
   4808.0000 1872.4565 103.2882   3.5690 0.0000   3.3260 0.0000    10.3764     2.5059  27.0940 3638.0947 
   4808.2500 1870.0667 105.2775   3.2734 0.0000   3.0229 0.0000     8.5212     1.7587  27.1371 3634.4880 
   4808.5000 1866.0830 106.9920   3.0822 0.0000   2.7842 0.0000     6.5733 20000.0000  27.2326 3633.5332 
   4808.7500 1862.8956 107.7642   2.9632 0.0000   2.6669 0.0000     5.2825     1.1904  27.3573 3634.5935 
   4809.0000 1862.8956 107.6464   2.9242 0.0000   2.6439 0.0000     4.0105     1.5832  27.4820 3635.5486 
   4809.2500 1864.4893 106.8349   2.9149 0.0000   2.6624 0.0000     1.1877     1.6560  27.6510 3637.2986 
   4809.5000 1867.1450 106.1936   2.9038 0.0000   2.6751 0.0000     1.4497     1.4686  27.8347 3641.2761 
   4809.7500 1871.1287 105.5523   2.8908 0.0000   2.6791 0.0000     1.7991     1.7630  28.0482 3646.3684 
   4810.0000 1873.5198 104.4399   2.8572 0.0000   2.6662 0.0000     1.9822     1.7988  28.2543 3648.8604 
   4810.2500 1875.3782 102.8955   2.8159 0.0000   2.6453 0.0000     1.8051     1.9455  28.4453 3647.7998 
   4810.5000 1875.3782 101.7045   2.7775 0.0000   2.6073 0.0000     1.6394     2.5174  28.6509 3645.9431 
   4810.7500 1872.1919 100.6314   2.7102 0.0000   2.5395 0.0000     1.5382     2.8036  28.8272 3645.5723 
   4811.0000 1870.5983 101.0502   2.6292 0.0000   2.4603 0.0000     1.5068     2.3780  28.9513 3647.2690 
   4811.2500 1869.0045 102.6338   2.5896 0.0000   2.4179 0.0000     1.4804     2.7467  29.0243 3647.7998 
   4811.5000 1867.4109 104.8587   2.5728 0.0000   2.4045 0.0000     1.5046     2.9383  29.0231 3646.2620 
   4811.7500 1869.8008 106.1413   2.6139 0.0000   2.4352 0.0000     1.5871     2.5244  29.0073 3643.8223 
   4812.0000 1872.1919 107.3977   2.7004 0.0000   2.5162 0.0000     1.6778     2.5208  28.9331 3640.8518 
   4812.2500 1874.5819 107.9081   2.8328 0.0000   2.6346 0.0000     1.7202     3.2425  28.8005 3635.3896 
   4812.5000 1876.9718 108.4709   2.9801 0.0000   2.7682 0.0000     1.9318     2.6073  28.6679 3628.0710 
   4812.7500 1874.5819 110.8790   3.1575 0.0000   2.9127 0.0000     2.1791     3.6186  28.5067 3619.2664 
   4813.0000 1871.6603 115.0671   3.3153 0.0000   3.0527 0.0000     2.3717     3.3479  28.3602 3612.7961 
   4813.2500 1867.6766 119.5823   3.4810 0.0000   3.1780 0.0000     2.6661     2.0707  28.2142 3608.0757 
   4813.5000 1860.5056 122.6056   3.6182 0.0000   3.2933 0.0000     2.9591     2.0069  28.0317 3604.4702 
   4813.7500 1853.8662 124.9876   3.7498 0.0000   3.3928 0.0000     2.9575     2.5016  27.8858 3601.9773 
