~Version Information
 VERS.                  2.0:   CWLS log ASCII Standard -VERSION 2.0
 WRAP.                   NO:   One line per depth step
~Well Information Block
#MNEM.UNIT     VALUE/NAME     DESCRIPTION
#---------     -----------    ---------------------------
 STRT.F              1831.0000: START DEPTH
 STOP.F              6790.7500: STOP DEPTH
 STEP.F                 0.2500: STEP DEPTH
 NULL.                 -999.25: NULL VALUE
 FL5 .        Long -120.825003:  LOCATIONLINE5
 FL4 .          Lat  35.869473:  LOCATIONLINE4
 FL3 .          X  6,020,938.4:  LOCATIONLINE3
 FL2 .          Y  1,840,736.7:  LOCATIONLINE2
 FL1 .        NAD 83 CA ZONE 4:  LOCATIONLINE1
 RIG .                KENAI 16:  RIG NAME
 CTRY.                      US:  COUNTRY NAME
 CNTY.                MONTEREY:  COUNTY NAME
 LUL .                   BKFLD:  LOGGINGUNITLOC
 FLD .           SOUTH SALINAS:  FIELD NAME
 WELL.     BRADLEY MINERALS 2-6:  WELL NAME
 COMP.             VENOCO INC.:  COMPANY
 MDS .        Operator Entered:  MAG DATA SOURCE
 SVCO.             Halliburton:  SERVICECONAME
 IQVR.                  R2.6.1:  WLIQ VERSION
 PROV.                      CA:  PROVINCE
 STAT.                      CA:  STATE NAME
 SON .                 7136075:  JOB NUMBER
 SECT.                       6:  SECTION
 TOWN.                     24S:  TOWNSHIP
 RANG.                     11E:  RANGE
 UWI .            040532202900:  UNIQUE WELL IDENTIFIER
 API .       04-053-22029-0000:  API NUMBER
 PDAT.                      GL:  PERMANENT DATUM
 DMF .                      KB:  DRILL MEAS FROM
 DATE.                        :  DATE
 SRVC.             Halliburton:  SERVICE COMPANY
 LOC .                        :  LOCATION
 LMF .                      KB:  LOG MEASURED FROM
 APD .ft               23.0000:  DEPTH ABOVE PD
 GRDC.deg               0.0000:  GRID CORRECTION
 MDEC.deg               0.0000:  MAGNETIC DECL
 AZTC.deg               0.0000:  AZM TOTAL CORR
 MFLD.nT            48150.0000:  MAGNETIC FIELD
 EGL .ft              542.0000:  GROUND ELEVATION
 EPD .ft              542.0000:  ELEVATION
 GVFD.g                 1.0000:  GRAVITY FIELD
 TVDS.ft              565.0000:  TVDSS CORRECTN
 EKB .ft              565.0000:  KB ELEVATION
 EDF .ft                0.0000:  DF ELEVATION
 MAGU.                 1444500:  MAGUTM CHECKSUM
 VSC .                       1:  VS TO CLOSURE
~Parameter Information Block
#MNEM.UNIT       Value        Description
#---------     -----------    ---------------------------
 LUL .                   BKFLD:  LoggingUnitLoc 
 LUN .                   61841:  LoggingUnitNum 
 ENGI.             D. SANDOVAL:  Engineer Name 
 DCS .               27-Jan-10:  DateCircEndT 
 TCS .                   05 42:  Time Ciculation Ended 
 TDCE.ucts  05.43.28 27-Jan-10:  Time Circ End 
 IQVR.     WL INSITE R2.6.1 (Build 9):  WLIQ Version 
 RUN .                       1:  Run Number 
 SVCN.               XRMI_WSST:  Service Name 
 SVCS.      
 TLAB.ucts  10.01.36 27-Jan-10:  Log Start Time 
 DATE.               27-Jan-10:  Run Date 
 TLAB.                   10 01:  LogStartTimeT 
 DLAB.               27-Jan-10:  LogStartDateT 
~Curve Information Block
#MNEM.UNIT                 API CODE     Curve Description
#---------               -----------    ---------------------------
 DEPT.F                 00 000 000 000:  Depth
 DLOD.lbs               00 000 000 000:  DLOD
 GRLL.api               00 000 000 000:  Natural Gamma Ray
 LLD .ohmm              00 000 000 000:  LLD
 LLDC.ohmm              00 000 000 000:  LLDC
 LLS .ohmm              00 000 000 000:  LLS
 LLSC.ohmm              00 000 000 000:  LLSC
 MSFL.ohmm              00 000 000 000:  MSFL
 MSFLUF.ohmm            00 000 000 000:  Msfl Unfiltered
 SP  .mV                00 000 000 000:  SP
 TENS.lbs               00 000 000 000:  Cable Tension
~A   DEPT      DLOD      GRLL      LLD     LLDC    LLS     LLSC     MSFL      MSFLUF      SP      TENS    
# ...
   6106.0000 1916.5448 145.4655   5.4874 0.0000   5.1547 0.0000     1.7664     2.0134  23.2570 4036.6572 
   6106.2500 1917.3411 144.9856   5.3963 0.0000   5.0874 0.0000     1.8700     0.4247  23.2789 4032.3623 
   6106.5000 1919.2006 145.4371   5.2647 0.0000   5.0092 0.0000     1.5360     1.2054  23.2789 4030.2935 
   6106.7500 1918.1384 146.4165   5.1044 0.0000   4.8864 0.0000     1.2278     2.7214  23.2351 4033.0518 
   6107.0000 1916.2789 147.2781   4.8758 0.0000   4.7020 0.0000     1.0729     4.0243  23.2351 4034.9072 
   6107.2500 1914.1548 147.4177   4.6408 0.0000   4.4821 0.0000     0.9431     2.7116  23.2643 4030.6121 
   6107.5000 1911.4979 146.8549   4.4000 0.0000   4.2415 0.0000     1.0668     2.7945  23.3154 4021.9143 
   6107.7500 1909.1079 145.0467   4.1916 0.0000   4.0177 0.0000     1.5479     2.5469  23.3446 4013.5872 
   6108.0000 1907.2495 143.4587   4.0140 0.0000   3.8256 0.0000     1.6743     2.6927  23.3738 4006.5339 
   6108.2500 1904.0623 141.8489   3.8792 0.0000   3.6744 0.0000     1.6613     3.6987  23.4176 3996.9866 
   6108.5000 1903.5306 140.8368   3.7987 0.0000   3.5682 0.0000     1.7374     2.8067  23.4687 3984.6296 
   6108.7500 1901.6722 140.9284   3.7829 0.0000   3.5364 0.0000     2.0293     9.8163  23.4978 3977.1521 
   6109.0000 1900.6090 141.5304   3.8257 0.0000   3.5799 0.0000     1.8651    14.3381  23.5197 3978.7957 
   6109.2500 1898.7506 141.6111   3.9313 0.0000   3.6771 0.0000     2.3720    16.7339  23.5562 3985.3193 
   6109.5000 1898.2191 142.4727   4.1133 0.0000   3.8204 0.0000     3.0181    11.3756  23.6073 3991.5776 
   6109.7500 1897.4227 142.3288   4.4040 0.0000   4.0603 0.0000     3.0971    12.7559  23.6730 3995.5552 
   6110.0000 1896.8912 139.2226   4.8150 0.0000   4.4092 0.0000     3.2263     6.2822  23.7606 4002.1843 
   6110.2500 1896.8912 132.6591   5.3510 0.0000   4.8923 0.0000     3.1492     4.9131  23.8773 4013.3752 
   6110.5000 1898.4849 121.3339   6.0835 0.0000   5.5834 0.0000     3.7834     7.8295  23.9941 4021.7021 
   6110.7500 1900.6090 106.0540   7.0593 0.0000   6.5828 0.0000     7.1408     9.8697  24.1340 4022.3384 
   6111.0000 1904.3280  88.4140   8.4229 0.0000   8.0365 0.0000    13.2353    14.7625  24.2520 4017.7236 
   6111.2500 1905.6559  70.6518  10.4364 0.0000  11.4003 0.0000    23.0734    36.3787  24.3773 4012.8445 
   6111.5000 1906.7180  55.6816  13.1594 0.0000  15.8607 0.0000    42.9958    21.5309  24.4733 4011.8906 
   6111.7500 1907.2495  45.0479  16.2267 0.0000  19.3845 0.0000    87.5834    17.4113  24.5402 4012.3669 
   6112.0000 1906.1864  38.4299  19.0327 0.0000  21.8189 0.0000    57.6856    22.9411  24.5938 4013.5872 
   6112.2500 1904.0623  36.1351  20.7734 0.0000  22.9703 0.0000    29.9718    13.3750  24.6400 4018.8374 
   6112.5000 1903.2648  37.5486  20.5827 0.0000  23.0137 0.0000    18.7369     2.7844  24.6254 4029.7104 
   6112.7500 1902.7344  42.1664  18.4014 0.0000  21.9919 0.0000    15.5121     1.7840  24.6181 4044.0293 
   6113.0000 1904.3280  50.4269  14.9749 0.0000  18.4023 0.0000    11.9788     2.2537  24.6035 4055.0613 
   6113.2500 1905.9205  61.1109  11.7229 0.0000  13.8066 0.0000    10.3822     6.3171  24.6108 4057.2356 
   6113.5000 1906.9838  73.7449   9.3134 0.0000  10.3870 0.0000     9.8699     2.7974  24.6260 4053.6821 
   6113.7500 1906.4521  88.2089   7.6271 0.0000   7.9533 0.0000     8.1733     1.5292  24.6023 4047.9014 
   6114.0000 1904.8585 102.2128   6.4090 0.0000   6.3901 0.0000     5.5694     2.8591  24.5865 4038.8848 
   6114.2500 1901.1406 113.3286   5.5629 0.0000   5.3423 0.0000     3.2541     1.3401  24.6157 4025.5198 
   6114.5000 1900.0785 122.9590   4.9858 0.0000   4.6536 0.0000     2.5327     1.4620  24.6303 4011.7839 
   6114.7500 1900.3433 128.8855   4.6026 0.0000   4.2497 0.0000     2.1264     2.0708  24.6230 4004.1997 
   6115.0000 1901.1406 131.9153   4.3581 0.0000   4.0261 0.0000     2.1099     2.0400  24.6303 4004.6772 
   6115.2500 1902.7344 133.4313   4.2388 0.0000   3.9125 0.0000     2.3543     2.5221  24.6290 4006.7981 
   6115.5000 1905.6559 134.6158   4.2033 0.0000   3.8921 0.0000     2.3398     1.5198  24.6582 4003.1926 
   6115.7500 1909.3738 134.5089   4.2409 0.0000   3.9397 0.0000     2.1789     1.8882  24.6868 3997.7827 
   6116.0000 1912.2953 133.7651   4.3028 0.0000   4.0255 0.0000     2.2989     1.9284  24.7008 3997.3052 
   6116.2500 1911.2332 131.5052   4.3871 0.0000   4.1195 0.0000     2.0580     1.4282  24.7519 3999.5859 
   6116.5000 1910.1700 127.5833   4.4604 0.0000   4.1980 0.0000     1.7800     0.8022  24.8401 3999.3738 
   6116.7500 1910.1700 123.7202   4.5172 0.0000   4.2624 0.0000     1.7729     0.9240  24.9070 3997.0930 
   6117.0000 1912.0295 121.1616   4.5468 0.0000   4.3113 0.0000     1.8164     0.7347  24.9830 3996.3503 
   6117.2500 1914.1548 121.2641   4.5365 0.0000   4.3215 0.0000     1.8243     1.1913  25.0517 3999.5859 
   6117.5000 1914.6853 124.2503   4.4780 0.0000   4.2728 0.0000     1.8828     1.1398  25.1058 4000.6465 
   6117.7500 1913.3574 128.8223   4.4018 0.0000   4.1919 0.0000     1.8497     2.0806  25.1679 3994.9189 
   6118.0000 1910.1700 133.4466   4.3079 0.0000   4.1016 0.0000     1.8095     1.6333  25.2007 3988.1299 
   6118.2500 1906.7180 136.4808   4.2195 0.0000   4.0179 0.0000     1.6157     1.1920  25.2111 3987.2815 
   6118.5000 1903.2648 138.6250   4.1571 0.0000   3.9514 0.0000     1.3020     1.6850  25.2360 3990.6760 
   6118.7500 1900.6090 139.0350   4.1043 0.0000   3.8977 0.0000     1.1491     1.3723  25.2518 3992.2671 
   6119.0000 1899.5470 139.5367   4.0788 0.0000   3.8679 0.0000     0.9610     1.5337  25.2755 3992.4792 
   6119.2500 1899.2811 139.6763   4.0771 0.0000   3.8712 0.0000     0.9774     0.9245  25.3217 3998.8430 
   6119.5000 1899.2811 140.7037   4.1035 0.0000   3.8978 0.0000     1.0245     1.0378  25.3905 4014.0115 
   6119.7500 1902.2028 142.1739   4.1339 0.0000   3.9269 0.0000     1.2124     0.8799  25.4586 4031.1418 
   6120.0000 1903.2648 144.0476   4.1762 0.0000   3.9546 0.0000     1.3843     0.3629  25.5419 4040.9536 
   6120.2500 1904.0623 144.4883   4.2190 0.0000   3.9828 0.0000     1.5280     0.3637  25.6179 4042.3328 
   6120.5000 1904.0623 145.1841   4.2670 0.0000   4.0217 0.0000     1.5398     0.7334  25.7098 4042.8635 
   6120.7500 1902.7344 144.1218   4.3135 0.0000   4.0536 0.0000     1.5757     1.4860  25.8016 4044.6135 
   6121.0000 1902.7344 141.1073   4.3636 0.0000   4.0886 0.0000     1.4711     1.2615  25.8703 4042.1738 
   6121.2500 1903.5306 138.7602   4.4214 0.0000   4.1322 0.0000     1.3471     1.6700  25.8861 4031.7258 
   6121.5000 1903.0001 137.3991   4.5028 0.0000   4.2011 0.0000     1.3457     1.1518  25.9019 4017.0874 
   6121.7500 1903.0001 137.1831   4.5921 0.0000   4.2812 0.0000     1.1011     0.8461  25.8873 4007.2234 
   6122.0000 1900.8749 139.1855   4.6877 0.0000   4.3704 0.0000     0.8494     3.2577  25.8569 4004.4119 
   6122.2500 1899.0154 143.0246   4.7995 0.0000   4.4507 0.0000     0.6915     1.1815  25.7961 4004.9958 
   6122.5000 1896.8912 146.3707   4.9156 0.0000   4.5419 0.0000     0.6551     0.8382  25.7122 4006.8516 
   6122.7500 1894.5012 149.6971   5.0486 0.0000   4.6538 0.0000     0.6958     0.7942  25.6362 4010.8823 
   6123.0000 1893.4380 151.0866   5.1651 0.0000   4.7642 0.0000     0.8270     0.8409  25.5668 4018.9438 
   6123.2500 1893.4380 151.8523   5.2540 0.0000   4.8355 0.0000     1.1029     1.4083  25.4896 4028.8088 
   6123.5000 1893.1733 152.1031   5.3011 0.0000   4.8662 0.0000     1.2108     1.2839  25.4197 4035.1194 
   6123.7500 1894.2355 152.0726   5.3284 0.0000   4.8822 0.0000     1.3032     1.6796  25.3576 4037.7710 
   6124.0000 1895.0317 153.7303   5.3343 0.0000   4.8898 0.0000     1.5702     0.8947  25.3187 4038.7261 
   6124.2500 1896.6254 156.5115   5.3288 0.0000   4.8769 0.0000     1.5923     0.5478  25.2944 4039.5745 
   6124.5000 1897.6875 158.0820   5.2734 0.0000   4.8251 0.0000     1.4121     0.6983  25.2621 4038.0364 
   6124.7500 1897.1570 159.2446   5.1926 0.0000   4.7365 0.0000     1.4199     0.8844  25.2384 4030.1870 
