~VERSION INFORMATION
VERS  .       2.0                       : CWLS LOG ASCII STANDARD - VERSION 2.0
WRAP  .       NO                        : One line per depth step
~WELL INFORMATION
#MNEM .UNIT   DATA                      : DESCRIPTION OF MNEMONIC
#-----.----   ----                      : -----------------------
STRT  .ft     1900.0000                 : Start
STOP  .ft     6773.0000                 : Stop
STEP  .ft        1.0000                 : Step increment
NULL  .       -999.2500                 : Null value
COMP  .       Venoco                    : Company
WELL  .       Bradley Minerals2-6       : Well
FLD   .       Bradley Minerals          : Field
LOC   .                                 : Location
SRVC  .                                 : Service company
DATE  .       1/26/2010                 : Logging date
CNTY  .       Monterey                  : County
STAT  .       California                : State
CTRY  .       USA                       : Country
API   .       040532202900              : API number
UWI   .       040532202900              : Unique Well Identifier
~CURVE INFORMATION
#MNEM .UNIT   API CODE                  : CURVE DESCRIPTION
#-----.----   --------                  : -----------------
DEPT  .ft                               : Measured Depth
GR    .aapi                             : Gamma Ray
ROP   .ft/hr                            : Rate of Penetration
VRMS  .G                                : Average Vibration
VPK   .G                                : Peak Vibration
T-TEMP.degF                             : Tool Temperature
~PARAMETER INFORMATION
#MNEM .UNIT   VALUE                     : DESCRIPTION
#-----.----   -----                     : -----------
~OTHER INFORMATION
~A  DEPT         GR        ROP       VRMS        VPK     T-TEMP   
# ...
 3820.0000    93.6202    93.6110     2.2592     5.5888   108.8898 
 3821.0000    94.8500    92.6177     2.2239     5.6711   108.7118 
 3822.0000    99.2973    90.3280     2.2030     5.7535   108.5104 
 3823.0000   100.0402    87.3885     2.1993     5.8359   108.3090 
 3824.0000   101.9248    85.8464     2.1956     5.9182   108.1075 
 3825.0000   104.3779    84.0041     2.1919     6.0006   107.9061 
 3826.0000   103.7071    83.9954     2.1882     6.0830   107.7047 
 3827.0000   105.1286    85.8000     2.1845     6.1653   107.5033 
 3828.0000   107.5998    87.2171     2.1808     6.2477   107.3019 
 3829.0000   104.9973    89.7076     2.1771     6.3301   107.1005 
 3830.0000    96.6775    90.3337     2.1734     6.4124   106.8990 
 3831.0000    92.6919    87.5045     2.1697     6.4948   106.6976 
 3832.0000    95.9630    83.9423     2.1660     6.5211   106.4962 
 3833.0000   100.6667    85.4752     2.1622     6.4259   106.5126 
 3834.0000    97.8803    88.1529     2.1585     6.3307   106.6940 
 3835.0000    96.0000    85.3405     2.1548     6.2355   106.8753 
 3836.0000    98.7103    84.6082     2.1511     6.1404   107.0566 
 3837.0000    98.5000    87.0631     2.1474     6.0452   107.2379 
 3838.0000    93.8569    86.8623     2.1437     5.9500   107.4192 
 3839.0000    94.4753    88.7115     2.1400     5.8548   107.6005 
 3840.0000   100.0007    73.1657     2.1363     5.7596   107.7818 
 3841.0000   100.2977    50.9792     2.1326     5.6644   107.9631 
 3842.0000    94.7995    63.0117     2.1289     5.5692   108.1444 
 3843.0000    89.6134    70.1424     2.1252     5.4740   108.3257 
 3844.0000    89.4278    65.8818     2.1215     5.3788   108.5070 
 3845.0000    95.0965    81.0189     2.1177     5.2836   108.6884 
 3846.0000   107.7798    78.2990     2.1140     5.1884   108.8697 
 3847.0000   104.6799    78.8159     2.1103     5.0932   108.8898 
 3848.0000    97.2992    86.6421     2.1066     4.9980   108.8898 
 3849.0000    95.6905    87.4856     2.1029     4.9028   108.8898 
 3850.0000   103.3109    91.6628     2.0992     4.8076   108.8898 
 3851.0000   104.3075    96.0434     2.0955     4.7124   108.8898 
 3852.0000    94.6019    94.5145     2.0918     4.6172   108.8898 
 3853.0000    89.9749    89.1250     2.0881     4.5220   108.8898 
 3854.0000    92.2857    90.2653     2.0844     4.4269   108.8898 
 3855.0000    90.9475   100.1479     2.0807     4.3317   108.8898 
 3856.0000    88.1077   104.3018     2.0770     4.2365   108.8898 
 3857.0000    88.7045    96.3852     2.0733     4.1413   108.8898 
 3858.0000    89.5926    92.6651     2.0695     4.0461   108.8898 
 3859.0000    87.0026    95.2907     2.0658     3.9509   108.8898 
 3860.0000    86.7411    94.2751     2.0621     3.8557   108.8898 
 3861.0000    93.6667    89.0011     2.0584     3.7605   108.8898 
 3862.0000    92.6143    88.0142     2.0547     3.6653   108.8898 
 3863.0000    84.3113    84.8345     2.0510     3.5701   108.8898 
 3864.0000    90.6306    74.8337     2.0473     3.5607   108.8898 
 3865.0000    95.8588    68.5106     2.0596     3.6205   108.8898 
 3866.0000    91.8259    69.8472     2.0721     3.6804   108.8898 
 3867.0000    81.5278    70.4125     2.0846     3.7403   108.8898 
 3868.0000    78.4195    70.7376     2.0971     3.8001   108.8898 
 3869.0000    83.6810    73.8800     2.1096     3.8600   108.8898 
 3870.0000    86.6192    82.9685     2.1221     3.9199   108.8898 
 3871.0000    84.8550    90.9703     2.1346     3.9797   108.8898 
 3872.0000    82.3999    85.0919     2.1471     4.0396   108.8898 
 3873.0000    90.2262    62.4646     2.1596     4.0995   108.8898 
 3874.0000    92.4714    56.5080     2.1720     4.1593   108.8898 
 3875.0000    95.0186    65.0310     2.1845     4.2192   108.8898 
 3876.0000    96.1796    76.3643     2.1970     4.2791   108.8898 
 3877.0000    99.8596    77.6768     2.2095     4.3389   108.8898 
 3878.0000   101.1155    77.9163     2.2220     4.3988   108.8898 
 3879.0000    96.2922    78.2642     2.2345     4.4587   108.8898 
 3880.0000    93.7425    79.0128     2.2470     4.5186   108.8898 
 3881.0000    92.0544    82.9892     2.2595     4.5784   108.8898 
 3882.0000    90.7401    86.0148     2.2720     4.6383   108.8898 
 3883.0000    85.9808    84.7954     2.2845     4.6982   108.8898 
 3884.0000    81.9262    84.7380     2.2970     4.7580   108.8898 
 3885.0000    79.0402    84.7221     2.3095     4.8179   108.8898 
 3886.0000    72.8008    78.1192     2.3220     4.8778   108.8898 
 3887.0000    74.4231    64.3291     2.3345     4.9376   108.8898 
 3888.0000    79.2850    74.2524     2.3470     4.9975   108.8898 
 3889.0000    80.6477    98.1665     2.3595     5.0753   108.8898 
 3890.0000    84.6577    97.7531     2.3927     5.1949   108.8898 
 3891.0000    86.9280    92.8716     2.4317     5.3145   108.8898 
 3892.0000    87.8733    89.3071     2.4707     5.4341   108.8898 
 3893.0000    85.1867    90.8983     2.5096     5.5537   108.8898 
 3894.0000    77.5670    93.3702     2.5486     5.6733   108.8898 
 3895.0000    73.9065    99.7915     2.5876     5.7929   108.8898 
 3896.0000    76.2613   101.8881     2.6265     5.9125   108.8898 
 3897.0000    79.3586    98.5775     2.6655     6.0321   108.8898 
 3898.0000    80.8048   100.0033     2.7045     6.1517   108.8898 
 3899.0000    93.2552   101.9203     2.7434     6.2713   108.8898 
 3900.0000   104.0602   105.4286     2.7824     6.3909   108.8898 
 3901.0000    99.3644   108.6508     2.8214     6.5105   108.8898 
 3902.0000    94.5712   107.8898     2.8169     6.4928   108.8898 
 3903.0000    90.2301   106.5278     2.7901     6.4043   108.8898 
 3904.0000    92.1901    69.7899     2.7633     6.3158   108.8898 
 3905.0000    95.0980     9.4425     2.7365     6.2273   108.8898 
 3906.0000    96.0000     0.0000     2.7096     6.1388   108.8898 
 3907.0000    98.5897    32.9326     2.6828     6.0503   108.8898 
 3908.0000   101.3249    97.7975     2.6560     5.9618   108.8898 
 3909.0000   113.5714   116.2062     2.6291     5.8733   108.8898 
 3910.0000   129.6921   114.6849     2.6023     5.7848   108.8898 
 3911.0000   132.6604   113.2037     2.5755     5.6963   108.8898 
 3912.0000   117.7028   113.3327     2.5486     5.6078   108.8898 
 3913.0000   106.5615   115.7692     2.5218     5.5193   108.8898 
 3914.0000   113.6956   114.9979     2.4950     5.4309   108.8898 
 3915.0000   119.0000   114.4370     2.4681     5.3424   108.8898 
 3916.0000   117.5463   110.5459     2.4413     5.2539   108.8898 
 3917.0000   114.3097   107.1455     2.4145     5.1654   108.8898 
 3918.0000   112.4591   112.7119     2.3876     5.0769   108.8898 
 3919.0000   110.7377   116.3250     2.3617     5.0007   108.8898 
 3920.0000   109.3229   116.0661     2.3511     4.9337   108.8898 
 3921.0000   104.4615   111.7281     2.3406     4.8667   108.8898 
 3922.0000    99.0347   102.4237     2.3301     4.7996   108.8898 
 3923.0000    96.8302    97.8401     2.3196     4.7326   108.8898 
 3924.0000    90.8007    98.4948     2.3090     4.6655   108.8898 
 3925.0000    81.9056    95.1604     2.2985     4.5985   108.8898 
 3926.0000    79.5556    91.6002     2.2880     4.5315   108.8898 
 3927.0000    80.8445    97.1641     2.2775     4.4644   108.8898 
 3928.0000    83.8182   103.1157     2.2669     4.3974   108.8898 
 3929.0000    84.8033   104.0020     2.2564     4.3303   108.8898 
 3930.0000    87.9302   106.1154     2.2459     4.2633   108.8898 
 3931.0000    92.9522   105.1799     2.2354     4.1963   108.8898 
 3932.0000   103.6740   102.1244     2.2248     4.1292   108.8898 
 3933.0000   111.8514   106.3395     2.2143     4.0622   108.8898 
 3934.0000   105.8708   107.5686     2.2102     4.1832   108.8898 
 3935.0000    94.6866   104.5754     2.2710     4.4628   108.8898 
 3936.0000    87.7103   104.9242     2.3318     4.7424   108.8898 
 3937.0000    87.0835    79.6690     2.3926     5.0221   108.8898 
 3938.0000    86.2470    22.7741     2.4534     5.3017   108.8898 
 3939.0000    78.6375    38.0532     2.5142     5.5813   108.8898 
