~Version Information
 VERS.                  2.0:   CWLS log ASCII Standard -VERSION 2.0
 WRAP.                   NO:   One line per depth step
~Well Information Block
#MNEM.UNIT     VALUE/NAME     DESCRIPTION
#---------     -----------    ---------------------------
 STRT.F              1831.0000: START DEPTH
 STOP.F              6790.7500: STOP DEPTH
 STEP.F                 0.2500: STEP DEPTH
 NULL.                 -999.25: NULL VALUE
 FL5 .        Long -120.825003:  LOCATIONLINE5
 FL4 .          Lat  35.869473:  LOCATIONLINE4
 FL3 .          X  6,020,938.4:  LOCATIONLINE3
 FL2 .          Y  1,840,736.7:  LOCATIONLINE2
 FL1 .        NAD 83 CA ZONE 4:  LOCATIONLINE1
 RIG .                KENAI 16:  RIG NAME
 CTRY.                      US:  COUNTRY NAME
 CNTY.                MONTEREY:  COUNTY NAME
 LUL .                   BKFLD:  LOGGINGUNITLOC
 FLD .           SOUTH SALINAS:  FIELD NAME
 WELL.     BRADLEY MINERALS 2-6:  WELL NAME
 COMP.             VENOCO INC.:  COMPANY
 MDS .        Operator Entered:  MAG DATA SOURCE
 SVCO.             Halliburton:  SERVICECONAME
 IQVR.                  R2.6.1:  WLIQ VERSION
 PROV.                      CA:  PROVINCE
 STAT.                      CA:  STATE NAME
 SON .                 7136075:  JOB NUMBER
 SECT.                       6:  SECTION
 TOWN.                     24S:  TOWNSHIP
 RANG.                     11E:  RANGE
 UWI .            040532202900:  UNIQUE WELL IDENTIFIER
 API .       04-053-22029-0000:  API NUMBER
 PDAT.                      GL:  PERMANENT DATUM
 DMF .                      KB:  DRILL MEAS FROM
 DATE.                        :  DATE
 SRVC.             Halliburton:  SERVICE COMPANY
 LOC .                        :  LOCATION
 LMF .                      KB:  LOG MEASURED FROM
 APD .ft               23.0000:  DEPTH ABOVE PD
 GRDC.deg               0.0000:  GRID CORRECTION
 MDEC.deg               0.0000:  MAGNETIC DECL
 AZTC.deg               0.0000:  AZM TOTAL CORR
 MFLD.nT            48150.0000:  MAGNETIC FIELD
 EGL .ft              542.0000:  GROUND ELEVATION
 EPD .ft              542.0000:  ELEVATION
 GVFD.g                 1.0000:  GRAVITY FIELD
 TVDS.ft              565.0000:  TVDSS CORRECTN
 EKB .ft              565.0000:  KB ELEVATION
 EDF .ft                0.0000:  DF ELEVATION
 MAGU.                 1444500:  MAGUTM CHECKSUM
 VSC .                       1:  VS TO CLOSURE
~Parameter Information Block
#MNEM.UNIT       Value        Description
#---------     -----------    ---------------------------
 LUL .                   BKFLD:  LoggingUnitLoc 
 LUN .                   61841:  LoggingUnitNum 
 ENGI.             D. SANDOVAL:  Engineer Name 
 DCS .               27-Jan-10:  DateCircEndT 
 TCS .                   05 42:  Time Ciculation Ended 
 TDCE.ucts  05.43.28 27-Jan-10:  Time Circ End 
 IQVR.     WL INSITE R2.6.1 (Build 9):  WLIQ Version 
 RUN .                       1:  Run Number 
 SVCN.               XRMI_WSST:  Service Name 
 SVCS.      
 TLAB.ucts  10.01.36 27-Jan-10:  Log Start Time 
 DATE.               27-Jan-10:  Run Date 
 TLAB.                   10 01:  LogStartTimeT 
 DLAB.               27-Jan-10:  LogStartDateT 
~Curve Information Block
#MNEM.UNIT                 API CODE     Curve Description
#---------               -----------    ---------------------------
 DEPT.F                 00 000 000 000:  Depth
 DLOD.lbs               00 000 000 000:  DLOD
 GRLL.api               00 000 000 000:  Natural Gamma Ray
 LLD .ohmm              00 000 000 000:  LLD
 LLDC.ohmm              00 000 000 000:  LLDC
 LLS .ohmm              00 000 000 000:  LLS
 LLSC.ohmm              00 000 000 000:  LLSC
 MSFL.ohmm              00 000 000 000:  MSFL
 MSFLUF.ohmm            00 000 000 000:  Msfl Unfiltered
 SP  .mV                00 000 000 000:  SP
 TENS.lbs               00 000 000 000:  Cable Tension
~A   DEPT      DLOD      GRLL      LLD     LLDC    LLS     LLSC     MSFL      MSFLUF      SP      TENS    
# ...
   6771.0000  742.3839  62.0776   0.2500 0.0000   0.5876 0.0000     0.2614     0.2607  35.9392 3058.5205 
   6771.2500  687.1422  62.0776   0.2500 0.0000   0.5876 0.0000     0.2615     0.2618  35.9392 2998.9609 
   6771.5000  630.0410  62.0776   0.2500 0.0000   0.5876 0.0000     0.2616     0.2624  35.9392 2937.6514 
   6771.7500  580.1097  62.0776   0.2500 0.0000   0.5876 0.0000     0.2620     0.2607  35.9392 2880.1084 
   6772.0000  525.9301  62.0776   0.2500 0.0000   0.5876 0.0000     0.2620     0.2605  35.9392 2827.0725 
   6772.2500  466.7047  62.0776   0.2500 0.0000   0.5876 0.0000     0.2622     0.2602  35.9392 2776.2644 
   6772.5000  404.2909  62.0776   0.2500 0.0000   0.5876 0.0000     0.2621     0.2610  35.9392 2724.7131 
   6772.7500  339.7540  62.0776   0.2500 0.0000   0.5876 0.0000     0.2619     0.2585  35.9392 2671.4653 
   6773.0000  282.6529  62.0776   0.2500 0.0000   0.5876 0.0000     0.2616     0.2570  35.9392 2621.2410 
   6773.2500  232.4569  62.0776   0.2500 0.0000   0.5876 0.0000     0.2613     0.2558  35.9392 2576.1069 
   6773.5000  178.5420  62.0776   0.2500 0.0000   0.5876 0.0000     0.2612     0.2548  35.9392 2533.4668 
   6773.7500  132.3297  62.0776   0.2500 0.0000   0.5876 0.0000     0.2609     0.2555  35.9392 2496.2356 
   6774.0000   97.5378  62.0776   0.2500 0.0000   0.5876 0.0000     0.2607     0.2528  35.9392 2466.3765 
   6774.2500   73.1043  62.0776   0.2500 0.0000   0.5876 0.0000     0.2606     0.2531  35.9392 2443.8359 
   6774.5000   55.5760  62.0776   0.2500 0.0000   0.5876 0.0000     0.2605     0.2520  35.9392 2427.9260 
   6774.7500   40.9682  62.0776   0.2500 0.0000   0.5876 0.0000     0.2598     0.2487  35.9392 2415.5149 
   6775.0000   30.6098  62.0776   0.2500 0.0000   0.5876 0.0000     0.2592     0.2442  35.9392 2404.9082 
   6775.2500   25.5641  62.0776   0.2500 0.0000   0.5876 0.0000     0.2583     0.2378  35.9392 2395.6272 
   6775.5000   23.1741  62.0776   0.2500 0.0000   0.5876 0.0000     0.2573     0.2264  35.9392 2385.9744 
   6775.7500   23.1741  62.0776   0.2500 0.0000   0.5876 0.0000     0.2562     0.2177  35.9392 2375.6318 
   6776.0000   23.4399  62.0776   0.2500 0.0000   0.5876 0.0000     0.2553     0.2042  35.9392 2365.0784 
   6776.2500   24.2362  62.0776   0.2500 0.0000   0.5876 0.0000     0.2545     0.1908  35.9392 2356.4329 
   6776.5000   24.2362  62.0776   0.2500 0.0000   0.5876 0.0000     0.2536     0.1747  35.9392 2351.5537 
   6776.7500   24.2362  62.0776   0.2500 0.0000   0.5876 0.0000     0.2520     0.1565  35.9392 2349.5381 
   6777.0000   24.2362  62.0776   0.2500 0.0000   0.5876 0.0000     0.2493     0.1518  35.9392 2347.3108 
   6777.2500   24.2362  62.0776   0.2500 0.0000   0.5876 0.0000     0.2451     0.1168  35.9392 2342.9089 
   6777.5000   24.2362  62.0776   0.2500 0.0000   0.5876 0.0000     0.2389     0.1108  35.9392 2338.1885 
   6777.7500   24.2362  62.0776   0.2500 0.0000   0.5876 0.0000     0.2310     0.1046  35.9392 2333.2573 
   6778.0000   24.2362  62.0776   0.2500 0.0000   0.5876 0.0000     0.2209     0.1005  35.9392 2323.6042 
   6778.2500   23.7046  62.0776   0.2500 0.0000   0.5876 0.0000     0.2092     0.1000  35.9392 2307.1636 
   6778.5000   23.1741  62.0776   0.2500 0.0000   0.5876 0.0000     0.1954     0.1000  35.9392 2290.0852 
   6778.7500   26.3604  62.0776   0.2500 0.0000   0.5876 0.0000     0.1813     0.1000  35.9392 2271.5757 
   6779.0000   27.9541  62.0776   0.2500 0.0000   0.5876 0.0000     0.1658     0.1000  35.9392 2254.6052 
   6779.2500   29.5477  62.0776   0.2500 0.0000   0.5876 0.0000     0.1484     0.1000  35.9392 2237.6868 
   6779.5000   30.0793  62.0776   0.2500 0.0000   0.5876 0.0000     0.1328     0.1000  35.9392 2222.4119 
   6779.7500   29.8135  62.0776   0.2500 0.0000   0.5876 0.0000     0.1203     0.1000  35.9392 2210.7446 
   6780.0000   29.5477  62.0776   0.2500 0.0000   0.5876 0.0000     0.1094     0.1000  35.9392 2203.5315 
   6780.2500   29.5477  62.0776   0.2500 0.0000   0.5876 0.0000     0.1019     0.1000  35.9392 2197.0610 
   6780.5000   24.5020  62.0776   0.2500 0.0000   0.5876 0.0000     0.1000     0.1000  35.9392 2194.6748 
   6780.7500   18.9247  62.0776   0.2500 0.0000   0.5876 0.0000     0.1000     0.1000  35.9392 2194.8335 
   6781.0000   15.7373  62.0776   0.2500 0.0000   0.5876 0.0000     0.1000     0.1000  35.9392 2193.2957 
   6781.2500   14.1436  62.0776   0.2500 0.0000   0.5876 0.0000     0.1000     0.1000  35.9392 2190.3252 
   6781.5000   13.6131  62.0776   0.2500 0.0000   0.5876 0.0000     0.1000     0.1000  35.9392 2188.0444 
   6781.7500   13.8778  62.0776   0.2500 0.0000   0.5876 0.0000     0.1000     0.1000  35.9392 2185.7114 
   6782.0000   14.4094  62.0776   0.2500 0.0000   0.5876 0.0000     0.1000     0.1000  35.9392 2185.2874 
   6782.2500   16.7994  62.0776   0.2500 0.0000   0.5876 0.0000     0.1000     0.1000  35.9392 2178.9224 
   6782.5000   21.8462  62.0776   0.2500 0.0000   0.5876 0.0000     0.1000     0.1000  35.9392 2174.2554 
   6782.7500   24.5020  62.0776   0.2500 0.0000   0.5876 0.0000     0.1000     0.1000  35.9392 2173.4602 
   6783.0000   27.1578  62.0776   0.2500 0.0000   0.5876 0.0000     0.1000     0.1000  35.9392 2174.6794 
   6783.2500   29.5477  62.0776   0.2500 0.0000   0.5876 0.0000     0.1000     0.1000  35.9392 2173.9910 
   6783.5000   31.4072  62.0776   0.2500 0.0000   0.5876 0.0000     0.1000     0.1000  35.9392 2171.8689 
   6783.7500   31.4072  62.0776   0.2500 0.0000   0.5876 0.0000     0.1000     0.1000  35.9392 2166.0881 
   6784.0000   30.3451  62.0776   0.2500 0.0000   0.5876 0.0000     0.1000     0.1000  35.9392 2166.7244 
   6784.2500   29.0172  62.0776   0.2500 0.0000   0.5876 0.0000     0.1000     0.1000  35.9392 2162.8000 
   6784.5000   26.3604  62.0776   0.2500 0.0000   0.5876 0.0000     0.1000     0.1000  35.9392 2154.7385 
   6784.7500   22.9083  62.0776   0.2500 0.0000   0.5876 0.0000     0.1000     0.1000  35.9392 2146.0940 
   6785.0000   18.6589  62.0776   0.2500 0.0000   0.5876 0.0000     0.1000     0.1000  35.9392 2141.2668 
   6785.2500   14.6752  62.0776   0.2500 0.0000   0.5876 0.0000     0.1000     0.1000  35.9392 2139.0396 
   6785.5000   12.0194  62.0776   0.2500 0.0000   0.5876 0.0000     0.1000     0.1000  35.9392 2133.2585 
   6785.7500   10.9574  62.0776   0.2500 0.0000   0.5876 0.0000     0.1000     0.1000  35.9392 2120.7432 
   6786.0000   10.1600  62.0776   0.2500 0.0000   0.5876 0.0000     0.1000     0.1000  35.9392 2116.3403 
   6786.2500   10.9574  62.0776   0.2500 0.0000   0.5876 0.0000     0.1000     0.1000  35.9392 2115.5452 
   6786.5000   12.2852  62.0776   0.2500 0.0000   0.5876 0.0000     0.1000     0.1000  35.9392 2113.8484 
   6786.7500   14.9410  62.0776   0.2500 0.0000   0.5876 0.0000     0.1000     0.1000  35.9392 2109.7109 
   6787.0000   18.1273  62.0776   0.2500 0.0000   0.5876 0.0000     0.1000     0.1000  35.9392 2103.6648 
   6787.2500   21.8462  62.0776   0.2500 0.0000   0.5876 0.0000     0.1000     0.1000  35.9392 2103.8247 
   6787.5000   24.2362  62.0776   0.2500 0.0000   0.5876 0.0000     0.1000     0.1000  35.9392 2110.1885 
   6787.7500   25.0325  62.0776   0.2500 0.0000   0.5876 0.0000     0.1000     0.1000  35.9392 2107.5369 
   6788.0000   24.5020  62.0776   0.2500 0.0000   0.5876 0.0000     0.1000     0.1000  35.9392 2102.7109 
   6788.2500   23.4399  62.0776   0.2500 0.0000   0.5876 0.0000     0.1000     0.1000  35.9392 2098.0427 
   6788.5000   21.5804  62.0776   0.2500 0.0000   0.5876 0.0000     0.1000     0.1000  35.9392 2094.5427 
   6788.7500   19.1905  62.0776   0.2500 0.0000   0.5876 0.0000     0.1000     0.1000  35.9392 2092.1565 
   6789.0000   16.7994  62.0776   0.2500 0.0000   0.5876 0.0000     0.1000     0.1000  35.9392 2085.9514 
   6789.2500   14.6752  62.0776   0.2500 0.0000   0.5876 0.0000     0.1000     0.1000  35.9392 2076.9348 
   6789.5000   13.3473  62.0776   0.2500 0.0000   0.5876 0.0000     0.1000     0.1000  35.9392 2071.6313 
   6789.7500   14.1436  62.0776   0.2500 0.0000   0.5876 0.0000     0.1000     0.1000  35.9392 2069.5105 
