~VERSION INFORMATION
VERS  .       2.0                       : CWLS LOG ASCII STANDARD - VERSION 2.0
WRAP  .       NO                        : One line per depth step
~WELL INFORMATION
#MNEM .UNIT   DATA                      : DESCRIPTION OF MNEMONIC
#-----.----   ----                      : -----------------------
STRT  .ft     1900.0000                 : Start
STOP  .ft     6773.0000                 : Stop
STEP  .ft        1.0000                 : Step increment
NULL  .       -999.2500                 : Null value
COMP  .       Venoco                    : Company
WELL  .       Bradley Minerals2-6       : Well
FLD   .       Bradley Minerals          : Field
LOC   .                                 : Location
SRVC  .                                 : Service company
DATE  .       1/26/2010                 : Logging date
CNTY  .       Monterey                  : County
STAT  .       California                : State
CTRY  .       USA                       : Country
API   .       040532202900              : API number
UWI   .       040532202900              : Unique Well Identifier
~CURVE INFORMATION
#MNEM .UNIT   API CODE                  : CURVE DESCRIPTION
#-----.----   --------                  : -----------------
DEPT  .ft                               : Measured Depth
GR    .aapi                             : Gamma Ray
ROP   .ft/hr                            : Rate of Penetration
VRMS  .G                                : Average Vibration
VPK   .G                                : Peak Vibration
T-TEMP.degF                             : Tool Temperature
~PARAMETER INFORMATION
#MNEM .UNIT   VALUE                     : DESCRIPTION
#-----.----   -----                     : -----------
~OTHER INFORMATION
~A  DEPT         GR        ROP       VRMS        VPK     T-TEMP   
# ...
 5620.0000   108.6248    36.9387     2.1773     5.0394   123.7717 
 5621.0000   109.8910    63.5818     2.0822     5.1916   123.7717 
 5622.0000   108.8839    68.0099     2.1369     5.4093   123.7717 
 5623.0000   100.6137    71.4988     2.2787     5.6269   123.7717 
 5624.0000    95.3204    73.2154     2.4204     5.8446   123.7717 
 5625.0000    95.0105    69.6440     2.5622     6.0472   123.7717 
 5626.0000   105.0692    64.8766     2.6711     6.0472   123.7717 
 5627.0000   118.5741    67.4326     2.6391     6.0472   123.7717 
 5628.0000   127.3251    72.2746     2.6070     6.0472   123.7717 
 5629.0000   128.0565    75.1273     2.5750     6.0472   123.7717 
 5630.0000   124.4549    85.1132     2.5429     6.0472   123.7717 
 5631.0000   121.4430    92.2484     2.5109     6.0472   123.7717 
 5632.0000   117.2143    86.9810     2.4789     6.0472   123.7717 
 5633.0000   114.9395    87.9805     2.4468     6.0472   123.7717 
 5634.0000   112.7254    86.3468     2.4148     6.0472   123.7717 
 5635.0000   110.2090    74.3331     2.3827     6.0472   123.7717 
 5636.0000   107.8714    71.4269     2.3599     5.9976   123.7717 
 5637.0000   110.1516    74.0171     2.3536     5.9370   124.0310 
 5638.0000   114.7627    64.6333     2.3473     5.8764   124.3079 
 5639.0000   121.0563    47.9001     2.3410     5.8158   124.5849 
 5640.0000   123.5895    60.3853     2.3347     5.7552   124.8618 
 5641.0000   120.2886    77.3561     2.3284     5.6946   125.1387 
 5642.0000   128.3931    74.1697     2.3221     5.6340   125.4156 
 5643.0000   139.1403    68.9750     2.3158     5.5734   125.6925 
 5644.0000   145.6603    69.0506     2.3094     5.5128   125.9695 
 5645.0000   149.8803    68.8173     2.3031     5.4522   126.2464 
 5646.0000   146.6000    67.1264     2.2968     5.3916   126.2520 
 5647.0000   139.7309    67.8949     2.2905     5.3310   126.2520 
 5648.0000   135.1207    70.1750     2.2842     5.2705   126.2520 
 5649.0000   112.4147    70.2953     2.2779     5.2099   126.2520 
 5650.0000    94.3715    65.8363     2.2716     5.1493   126.2520 
 5651.0000    92.9494    57.5374     2.2653     5.0887   126.2520 
 5652.0000   102.5693    56.3868     2.2590     5.0281   126.2520 
 5653.0000   108.9013    63.2032     2.2526     4.9675   126.2520 
 5654.0000   117.0128    63.6838     2.2463     4.9069   126.2520 
 5655.0000   123.3916    63.9334     2.2400     4.8463   126.2520 
 5656.0000   125.6590    66.9383     2.2337     4.7857   126.2520 
 5657.0000   113.7270    64.2941     2.2274     4.7251   126.2520 
 5658.0000   101.7949    62.1216     2.2211     4.6645   126.2520 
 5659.0000    70.7147    46.6936     2.2148     4.6039   126.2520 
 5660.0000    46.5735    31.4546     2.2085     4.5433   126.2520 
 5661.0000    40.2198    26.5485     2.2095     4.5354   126.2520 
 5662.0000    38.7234    28.8151     2.2212     4.5354   126.3372 
 5663.0000    45.3745    34.9133     2.2328     4.5354   126.4260 
 5664.0000    77.6063    40.4561     2.2445     4.5354   126.5149 
 5665.0000   109.9838    52.7609     2.2562     4.5354   126.6037 
 5666.0000   114.4905    61.2218     2.2678     4.5354   126.6926 
 5667.0000   111.3803    62.0195     2.2795     4.5354   126.7814 
 5668.0000   112.4138    62.1698     2.2911     4.5354   126.8702 
 5669.0000   109.8386    62.9606     2.3028     4.5354   126.9591 
 5670.0000   105.7778    62.3152     2.3145     4.5354   127.0479 
 5671.0000   109.1111    66.0000     2.3261     4.5354   127.1367 
 5672.0000   109.0908    52.2290     2.3378     4.5354   127.2256 
 5673.0000   106.3766    42.4148     2.3495     4.5354   127.3144 
 5674.0000   108.7194    40.6110     2.3611     4.5524   127.4032 
 5675.0000   109.3362    36.3125     2.3987     4.8980   127.4921 
 5676.0000   108.6689    35.3879     2.4389     5.2435   127.4921 
 5677.0000   113.2710    34.4019     2.4791     5.5136   127.4921 
 5678.0000   115.1239    30.7334     2.5193     5.2895   127.3700 
 5679.0000   112.7033    34.4710     2.4743     5.0654   127.1844 
 5680.0000   107.4106    40.1298     2.4283     4.8413   126.9988 
 5681.0000    81.1808    38.6671     2.3824     4.6172   126.8131 
 5682.0000    62.1600    39.4922     2.3365     4.3930   126.6275 
 5683.0000    84.6961    29.9705     2.2906     4.1689   126.4419 
 5684.0000   119.8329    19.5286     2.2447     4.0886   126.2563 
 5685.0000   131.1644    31.4948     2.2063     4.2361   126.2520 
 5686.0000   123.0346    52.2991     2.2188     4.3837   126.2520 
 5687.0000   120.9800    68.4227     2.2312     4.5313   126.2520 
 5688.0000   125.3347    70.8435     2.2436     4.6789   126.2520 
 5689.0000   127.5613    71.8037     2.2560     4.8264   126.2520 
 5690.0000   111.0017    66.2274     2.2685     4.9740   126.2520 
 5691.0000    64.9549    53.2488     2.2809     5.1216   126.2520 
 5692.0000    75.3408    45.1844     2.2933     5.2691   126.2520 
 5693.0000   111.7143    57.1783     2.3058     5.4167   126.2520 
 5694.0000   121.3870    72.3341     2.3182     5.5643   126.2520 
 5695.0000   121.2812    71.2570     2.3306     5.7119   126.2520 
 5696.0000   119.7143    65.8894     2.3431     5.8594   126.2520 
 5697.0000   117.7761    61.2017     2.3555     6.0070   126.2520 
 5698.0000   109.9059    60.5162     2.3530     5.9545   126.3115 
 5699.0000    99.7072    59.4620     2.3331     5.8271   126.6259 
 5700.0000   105.5936    63.3996     2.3131     5.6997   126.9404 
 5701.0000   110.6844    68.8616     2.2932     5.5722   127.2548 
 5702.0000   113.6129    52.2600     2.2732     5.4448   127.5692 
 5703.0000   121.7724    62.2429     2.2532     5.3173   127.8836 
 5704.0000   123.9992    84.7880     2.2333     5.1899   128.1980 
 5705.0000   110.1818    87.5612     2.2133     5.0624   128.5124 
 5706.0000   108.6139    80.8971     2.2157     5.0896   128.7323 
 5707.0000   115.5126    78.0208     2.2349     5.1510   128.7323 
 5708.0000   115.5746    82.3139     2.2541     5.2123   128.7323 
 5709.0000   107.0585    82.8302     2.2734     5.2736   128.7323 
 5710.0000   100.5000    82.0649     2.2926     5.3350   128.7323 
 5711.0000    98.8181    80.9550     2.3118     5.3963   128.7323 
 5712.0000   104.4586    76.9864     2.3311     5.4577   128.7323 
 5713.0000   104.2016    74.2985     2.3503     5.5190   128.7323 
 5714.0000   106.4350    74.3371     2.3741     5.5433   128.7323 
 5715.0000   113.6080    75.0813     2.4054     5.5433   128.7323 
 5716.0000   113.9420    76.4299     2.4367     5.5433   128.7323 
 5717.0000   111.8232    75.9500     2.4680     5.5433   128.7323 
 5718.0000   110.8230    76.1837     2.4993     5.5433   128.7323 
 5719.0000   111.7684    78.4939     2.5044     5.5124   128.7323 
 5720.0000   113.5776    76.9861     2.4604     5.4404   128.7323 
 5721.0000   112.8744    74.0060     2.4164     5.3684   128.7323 
 5722.0000   112.2662    75.4003     2.3724     5.2964   128.7323 
 5723.0000   111.5010    77.7572     2.3283     5.2244   128.7323 
 5724.0000   112.0896    77.9274     2.2843     5.1524   128.7323 
 5725.0000   114.6847    79.5265     2.2403     5.0805   128.7323 
 5726.0000   116.4615    82.3369     2.2047     5.0056   128.7323 
 5727.0000   117.9544    81.8697     2.2047     4.9269   128.7323 
 5728.0000   117.2745    82.0222     2.2047     4.8483   128.7323 
 5729.0000   111.2024    86.4163     2.2047     4.7696   128.7323 
 5730.0000   107.3239    85.9769     2.2047     4.6909   128.7323 
 5731.0000   100.5439    86.0345     2.2047     4.6123   128.7323 
 5732.0000    83.1857    91.7425     2.2047     4.5703   128.7323 
 5733.0000    56.1153    94.4691     2.3398     6.0751   128.7323 
 5734.0000    63.4113    98.8224     2.5335     7.5800   128.7323 
 5735.0000   101.1968    63.4125     2.7272     9.0668   128.7323 
 5736.0000   114.0421    51.0324     2.9209     8.6239   128.7323 
 5737.0000   101.7279    39.2215     3.1146     8.1811   128.7323 
 5738.0000   108.8952    30.9776     3.0654     7.7382   128.7323 
 5739.0000   127.9864    32.5730     2.9627     7.2954   128.7323 
