~Version Information
 VERS.                  2.0:   CWLS log ASCII Standard -VERSION 2.0
 WRAP.                   NO:   One line per depth step
~Well Information Block
#MNEM.UNIT     VALUE/NAME     DESCRIPTION
#---------     -----------    ---------------------------
 STRT.F              1831.0000: START DEPTH
 STOP.F              6790.7500: STOP DEPTH
 STEP.F                 0.2500: STEP DEPTH
 NULL.                 -999.25: NULL VALUE
 FL5 .        Long -120.825003:  LOCATIONLINE5
 FL4 .          Lat  35.869473:  LOCATIONLINE4
 FL3 .          X  6,020,938.4:  LOCATIONLINE3
 FL2 .          Y  1,840,736.7:  LOCATIONLINE2
 FL1 .        NAD 83 CA ZONE 4:  LOCATIONLINE1
 RIG .                KENAI 16:  RIG NAME
 CTRY.                      US:  COUNTRY NAME
 CNTY.                MONTEREY:  COUNTY NAME
 LUL .                   BKFLD:  LOGGINGUNITLOC
 FLD .           SOUTH SALINAS:  FIELD NAME
 WELL.     BRADLEY MINERALS 2-6:  WELL NAME
 COMP.             VENOCO INC.:  COMPANY
 MDS .        Operator Entered:  MAG DATA SOURCE
 SVCO.             Halliburton:  SERVICECONAME
 IQVR.                  R2.6.1:  WLIQ VERSION
 PROV.                      CA:  PROVINCE
 STAT.                      CA:  STATE NAME
 SON .                 7136075:  JOB NUMBER
 SECT.                       6:  SECTION
 TOWN.                     24S:  TOWNSHIP
 RANG.                     11E:  RANGE
 UWI .            040532202900:  UNIQUE WELL IDENTIFIER
 API .       04-053-22029-0000:  API NUMBER
 PDAT.                      GL:  PERMANENT DATUM
 DMF .                      KB:  DRILL MEAS FROM
 DATE.                        :  DATE
 SRVC.             Halliburton:  SERVICE COMPANY
 LOC .                        :  LOCATION
 LMF .                      KB:  LOG MEASURED FROM
 APD .ft               23.0000:  DEPTH ABOVE PD
 GRDC.deg               0.0000:  GRID CORRECTION
 MDEC.deg               0.0000:  MAGNETIC DECL
 AZTC.deg               0.0000:  AZM TOTAL CORR
 MFLD.nT            48150.0000:  MAGNETIC FIELD
 EGL .ft              542.0000:  GROUND ELEVATION
 EPD .ft              542.0000:  ELEVATION
 GVFD.g                 1.0000:  GRAVITY FIELD
 TVDS.ft              565.0000:  TVDSS CORRECTN
 EKB .ft              565.0000:  KB ELEVATION
 EDF .ft                0.0000:  DF ELEVATION
 MAGU.                 1444500:  MAGUTM CHECKSUM
 VSC .                       1:  VS TO CLOSURE
~Parameter Information Block
#MNEM.UNIT       Value        Description
#---------     -----------    ---------------------------
 LUL .                   BKFLD:  LoggingUnitLoc 
 LUN .                   61841:  LoggingUnitNum 
 ENGI.             D. SANDOVAL:  Engineer Name 
 DCS .               27-Jan-10:  DateCircEndT 
 TCS .                   05 42:  Time Ciculation Ended 
 TDCE.ucts  05.43.28 27-Jan-10:  Time Circ End 
 IQVR.     WL INSITE R2.6.1 (Build 9):  WLIQ Version 
 RUN .                       1:  Run Number 
 SVCN.               XRMI_WSST:  Service Name 
 SVCS.      
 TLAB.ucts  10.01.36 27-Jan-10:  Log Start Time 
 DATE.               27-Jan-10:  Run Date 
 TLAB.                   10 01:  LogStartTimeT 
 DLAB.               27-Jan-10:  LogStartDateT 
~Curve Information Block
#MNEM.UNIT                 API CODE     Curve Description
#---------               -----------    ---------------------------
 DEPT.F                 00 000 000 000:  Depth
 DLOD.lbs               00 000 000 000:  DLOD
 GRLL.api               00 000 000 000:  Natural Gamma Ray
 LLD .ohmm              00 000 000 000:  LLD
 LLDC.ohmm              00 000 000 000:  LLDC
 LLS .ohmm              00 000 000 000:  LLS
 LLSC.ohmm              00 000 000 000:  LLSC
 MSFL.ohmm              00 000 000 000:  MSFL
 MSFLUF.ohmm            00 000 000 000:  Msfl Unfiltered
 SP  .mV                00 000 000 000:  SP
 TENS.lbs               00 000 000 000:  Cable Tension
~A   DEPT      DLOD      GRLL      LLD     LLDC    LLS     LLSC     MSFL      MSFLUF      SP      TENS    
# ...
   3484.0000 1854.1321  74.8355   3.0250 0.0000   2.8441 0.0000     2.0154     1.0581  44.3222 3064.3013 
   3484.2500 1855.1941  75.2936   3.0877 0.0000   2.9302 0.0000     3.0134     0.6110  44.3441 3071.8855 
   3484.5000 1854.9283  75.2805   3.1191 0.0000   2.9721 0.0000     3.3202     2.5700  44.3745 3076.0752 
   3484.7500 1857.3182  76.0265   3.0673 0.0000   2.9402 0.0000     3.2843     1.6633  44.4128 3076.9236 
   3485.0000 1857.8499  76.9688   2.9500 0.0000   2.8382 0.0000     3.0990     1.0444  44.4365 3074.6960 
   3485.2500 1857.0536  76.2490   2.8478 0.0000   2.7433 0.0000     1.9151     0.7651  44.3714 3071.5669 
   3485.5000 1858.6461  75.4506   2.7668 0.0000   2.6538 0.0000     1.3981     1.2778  44.2918 3070.3999 
   3485.7500 1859.4436  74.3905   2.7059 0.0000   2.4723 0.0000     1.1141     0.7130  44.2778 3070.7185 
   3486.0000 1860.2399  72.6237   2.6419 0.0000   2.3150 0.0000     1.0778     1.7584  44.2784 3071.6201 
   3486.2500 1863.4272  71.3149   2.5869 0.0000   2.1867 0.0000     1.0763     1.2491  44.2328 3070.9839 
   3486.5000 1863.4272  71.4458   2.5028 0.0000   2.0892 0.0000     1.5099     1.1875  44.2382 3068.3323 
   3486.7500 1862.8956  71.6683   2.4544 0.0000   2.0418 0.0000     1.2024     0.5471  44.2145 3064.7256 
   3487.0000 1862.8956  71.3280   2.4665 0.0000   2.0631 0.0000     1.2322     0.8922  44.2425 3059.4744 
   3487.2500 1858.9120  71.3803   2.4688 0.0000   2.0666 0.0000     1.2778     0.9817  44.2851 3051.7314 
   3487.5000 1854.3967  71.5112   2.4293 0.0000   2.0540 0.0000     1.3847     0.9194  44.2839 3042.3440 
   3487.7500 1851.2104  71.4850   2.3647 0.0000   2.0060 0.0000     0.9363     1.2770  44.2316 3032.4268 
   3488.0000 1847.2268  71.9955   2.2844 0.0000   1.9612 0.0000     1.0390     1.5439  44.1586 3025.0015 
   3488.2500 1845.6332  74.1157   2.2577 0.0000   1.9292 0.0000     1.0996     0.9471  44.0564 3019.9634 
   3488.5000 1846.4294  76.4845   2.2217 0.0000   1.9125 0.0000     1.1381     1.3041  44.0199 3015.6672 
   3488.7500 1847.2268  77.9634   2.1743 0.0000   1.8739 0.0000     1.0799     2.4748  43.9615 3010.8936 
   3489.0000 1849.3510  79.5471   2.1535 0.0000   1.8520 0.0000     1.0887     1.5286  43.9177 3006.3865 
   3489.2500 1851.7410  80.6333   2.1742 0.0000   1.8575 0.0000     0.9417     0.9823  43.9177 3002.4077 
   3489.5000 1854.3967  80.0051   2.2749 0.0000   1.9245 0.0000     0.8989     1.2338  43.9840 2999.8628 
   3489.7500 1857.3182  78.8011   2.4388 0.0000   2.0735 0.0000     0.9868     1.2796  44.0503 2998.9077 
   3490.0000 1858.9120  77.4007   2.6287 0.0000   2.2512 0.0000     1.1979     0.8789  44.1020 2999.7039 
   3490.2500 1857.3182  75.5030   2.8309 0.0000   2.4161 0.0000     1.2945     2.6355  44.1610 3003.7346 
   3490.5000 1855.7246  73.6445   2.9937 0.0000   2.5523 0.0000     1.3128     1.2772  44.2273 3009.6211 
   3490.7500 1854.3967  73.0686   3.1366 0.0000   2.6481 0.0000     2.1194     1.3867  44.2425 3014.6067 
   3491.0000 1853.6005  74.1157   3.2859 0.0000   2.7461 0.0000     2.1216     1.4806  44.1847 3018.4778 
   3491.2500 1851.7410  75.6993   3.3826 0.0000   2.8243 0.0000     1.9997     2.3039  44.0674 3020.7585 
   3491.5000 1849.6168  79.1937   3.3572 0.0000   2.7944 0.0000     2.0151     1.9327  44.0011 3021.5547 
   3491.7500 1849.6168  82.4787   3.2626 0.0000   2.6983 0.0000     2.0389     1.5747  43.9567 3021.8723 
   3492.0000 1850.1473  83.8791   3.1838 0.0000   2.6203 0.0000     1.2522     1.5595  43.8539 3020.9707 
   3492.2500 1850.1473  85.4627   3.1276 0.0000   2.5563 0.0000     1.4284     1.4715  43.7511 3022.1909 
   3492.5000 1850.9447  86.1040   3.1151 0.0000   2.5378 0.0000     1.5059     1.7012  43.6179 3027.7065 
   3492.7500 1851.2104  85.4496   3.1058 0.0000   2.5259 0.0000     1.4824     1.5829  43.5504 3036.8286 
   3493.0000 1851.2104  85.0177   3.0706 0.0000   2.4831 0.0000     1.5901     1.7279  43.5127 3046.9055 
   3493.2500 1851.2104  86.7191   3.0729 0.0000   2.4630 0.0000     1.7424     2.0721  43.4531 3054.5952 
   3493.5000 1849.0852  87.9363   3.1438 0.0000   2.5063 0.0000     1.5867     2.4552  43.3643 3058.3606 
   3493.7500 1847.7573  89.1011   3.2169 0.0000   2.5524 0.0000     1.5402     1.3307  43.2682 3059.4221 
   3494.0000 1846.9611  91.1951   3.2834 0.0000   2.5899 0.0000     1.7145     1.2863  43.1794 3056.8760 
   3494.2500 1845.3673  93.3284   3.3007 0.0000   2.6040 0.0000     1.7499     1.3194  43.1806 3051.5193 
   3494.5000 1844.3053  94.0221   3.3002 0.0000   2.6047 0.0000     1.7018     1.2605  43.1527 3044.4126 
   3494.7500 1843.5078  95.1345   3.2958 0.0000   2.6009 0.0000     1.6906     1.9059  43.0955 3037.9956 
   3495.0000 1843.5078  95.6842   3.2983 0.0000   2.5989 0.0000     1.8660     2.0499  43.0456 3033.9114 
   3495.2500 1844.8357  95.3701   3.2599 0.0000   2.5784 0.0000     1.8599     1.4917  43.0395 3031.9492 
   3495.5000 1848.0231  94.1529   3.2402 0.0000   2.5523 0.0000     1.8957     0.9835  43.0024 3028.8735 
   3495.7500 1851.2104  92.1767   3.1892 0.0000   2.5322 0.0000     1.9284     0.8855  42.9872 3023.9944 
   3496.0000 1854.6625  89.7162   3.1495 0.0000   2.5001 0.0000     1.8407     1.4941  42.9708 3017.3118 
   3496.2500 1858.6461  89.1011   3.1104 0.0000   2.4623 0.0000     1.6284     1.6347  42.9021 3009.4089 
   3496.5000 1859.4436  89.3890   3.0835 0.0000   2.4450 0.0000     1.4991     2.3576  42.8699 3000.4456 
   3496.7500 1859.4436  91.2998   3.0735 0.0000   2.4367 0.0000     1.5881     1.3832  42.7634 2991.9597 
   3497.0000 1858.6461  94.3493   3.0648 0.0000   2.4191 0.0000     1.6206     1.4487  42.5609 2985.8081 
   3497.2500 1855.4600  97.7913   3.0057 0.0000   2.3908 0.0000     1.6805     1.5029  42.4423 2984.2168 
   3497.5000 1853.8662 100.1602   2.9555 0.0000   2.3314 0.0000     1.6647     1.8311  42.2580 2987.5049 
   3497.7500 1852.8042 101.2072   2.8864 0.0000   2.2738 0.0000     1.6203     2.3338  42.0154 2992.1196 
   3498.0000 1850.4131 101.5475   2.8568 0.0000   2.2390 0.0000     1.4297     2.4155  41.8554 2996.7869 
   3498.2500 1852.8042 101.3904   2.8330 0.0000   2.2178 0.0000     1.3636     1.4093  41.6809 3001.1353 
   3498.5000 1855.4600 100.5266   2.8157 0.0000   2.2097 0.0000     1.3845     2.4816  41.6037 3004.7952 
   3498.7500 1857.0536  99.8984   2.8089 0.0000   2.2026 0.0000     1.4494     2.2786  41.6529 3008.1365 
   3499.0000 1858.3815  99.5843   2.8173 0.0000   2.2058 0.0000     1.4722     2.9525  41.6633 3011.1057 
   3499.2500 1857.5841 100.9062   2.8799 0.0000   2.2471 0.0000     1.5110     2.4416  41.6949 3014.3413 
   3499.5000 1855.9904 102.4636   2.9820 0.0000   2.3200 0.0000     1.6328     1.2080  41.7411 3020.4409 
   3499.7500 1857.5841 106.0366   3.0944 0.0000   2.4122 0.0000     1.6936     2.6651  41.7569 3028.3428 
   3500.0000 1857.5841 110.6042   3.1941 0.0000   2.4952 0.0000     1.8081     4.0683  41.7721 3036.5098 
   3500.2500 1857.3182 114.4781   3.2571 0.0000   2.5344 0.0000     1.9313     3.0069  41.7417 3043.0869 
   3500.5000 1858.9120 116.0618   3.3265 0.0000   2.5672 0.0000     2.0633     3.2617  41.6067 3046.9055 
   3500.7500 1861.3020 115.8524   3.4210 0.0000   2.6235 0.0000     2.0916     1.8843  41.5094 3048.3901 
   3501.0000 1863.6930 113.8630   3.5228 0.0000   2.6922 0.0000     2.2324     2.0177  41.4644 3047.1709 
   3501.2500 1866.0830 111.4156   3.5975 0.0000   2.7551 0.0000     2.2330     1.7779  41.4480 3042.5562 
   3501.5000 1864.4893 111.1800   3.6162 0.0000   2.7749 0.0000     2.0972     2.2919  41.3932 3035.8203 
   3501.7500 1862.0994 111.7690   3.6130 0.0000   2.7500 0.0000     2.3593     2.0735  41.3087 3029.4565 
   3502.0000 1861.3020 113.3657   3.6344 0.0000   2.7531 0.0000     2.6756     1.6527  41.2394 3025.7966 
   3502.2500 1859.1777 114.7137   3.6836 0.0000   2.8064 0.0000     2.8074     1.3470  41.2302 3023.8877 
   3502.5000 1857.0536 113.9808   3.7154 0.0000   2.8369 0.0000     3.1444     2.4730  41.1457 3022.7207 
   3502.7500 1857.8499 112.4888   3.6515 0.0000   2.7964 0.0000     3.3292     1.7110  40.9791 3021.7668 
