~VERSION INFORMATION
VERS  .       2.0                       : CWLS LOG ASCII STANDARD - VERSION 2.0
WRAP  .       NO                        : One line per depth step
~WELL INFORMATION
#MNEM .UNIT   DATA                      : DESCRIPTION OF MNEMONIC
#-----.----   ----                      : -----------------------
STRT  .ft     1900.0000                 : Start
STOP  .ft     6773.0000                 : Stop
STEP  .ft        1.0000                 : Step increment
NULL  .       -999.2500                 : Null value
COMP  .       Venoco                    : Company
WELL  .       Bradley Minerals2-6       : Well
FLD   .       Bradley Minerals          : Field
LOC   .                                 : Location
SRVC  .                                 : Service company
DATE  .       1/26/2010                 : Logging date
CNTY  .       Monterey                  : County
STAT  .       California                : State
CTRY  .       USA                       : Country
API   .       040532202900              : API number
UWI   .       040532202900              : Unique Well Identifier
~CURVE INFORMATION
#MNEM .UNIT   API CODE                  : CURVE DESCRIPTION
#-----.----   --------                  : -----------------
DEPT  .ft                               : Measured Depth
GR    .aapi                             : Gamma Ray
ROP   .ft/hr                            : Rate of Penetration
VRMS  .G                                : Average Vibration
VPK   .G                                : Peak Vibration
T-TEMP.degF                             : Tool Temperature
~PARAMETER INFORMATION
#MNEM .UNIT   VALUE                     : DESCRIPTION
#-----.----   -----                     : -----------
~OTHER INFORMATION
~A  DEPT         GR        ROP       VRMS        VPK     T-TEMP   
# ...
 2260.0000    81.6000   109.2520     2.1872     5.1295    86.3894 
 2261.0000    71.5823   115.2875     2.1939     5.1573    86.4441 
 2262.0000    61.5837   116.8247     2.2006     5.1852    86.4987 
 2263.0000    60.7849   118.9891     2.2047     5.2130    86.5534 
 2264.0000    62.2027   119.9600     2.2047     5.2409    86.5669 
 2265.0000    62.3534    89.7061     2.2047     5.2687    86.5669 
 2266.0000    61.6000    76.5977     2.2047     5.2966    86.5669 
 2267.0000    62.0754   115.8436     2.2047     5.3245    86.5669 
 2268.0000    60.6978   139.0652     2.2047     5.3523    86.5669 
 2269.0000    59.7256   139.9760     2.2047     5.3802    86.5669 
 2270.0000    64.2917   137.2519     2.2047     5.4080    86.5669 
 2271.0000    65.1090   125.4085     2.2047     5.4359    86.5669 
 2272.0000    62.9043   110.1089     2.2047     5.4637    86.5669 
 2273.0000    64.1579    94.8093     2.2047     5.4916    86.5669 
 2274.0000    62.7659    79.5096     2.2047     5.5195    86.5669 
 2275.0000    62.3850    64.2100     2.2047     5.5473    86.5669 
 2276.0000    63.9565    48.9104     2.2047     5.5752    86.5669 
 2277.0000    60.9933    33.6108     2.2047     5.6030    86.5669 
 2278.0000    59.8336    49.5630     2.2047     5.6309    86.5669 
 2279.0000    56.2110    71.3670     2.2047     5.6587    86.5669 
 2280.0000    57.2549    95.0690     2.2047     5.6866    86.5669 
 2281.0000    60.5523    95.0614     2.2047     5.7144    86.5669 
 2282.0000    58.6667    96.1197     2.2047     5.7423    86.5669 
 2283.0000    59.7421    98.6243     2.2047     5.7702    86.5669 
 2284.0000    60.9211    96.8707     2.2047     5.7980    86.5669 
 2285.0000    61.9057    95.7419     2.2047     5.8259    86.5669 
 2286.0000    62.8903    96.2579     2.2047     5.8537    86.5669 
 2287.0000    63.8749    96.3777     2.2047     5.8816    86.5669 
 2288.0000    64.8594    95.8601     2.2047     5.9094    86.5669 
 2289.0000    66.8335    83.2611     2.2047     5.9373    86.5669 
 2290.0000    73.0797    72.6165     2.2047     5.9652    86.5669 
 2291.0000    76.5437    74.9194     2.2047     5.9930    86.5669 
 2292.0000    73.6000    96.6337     2.2047     6.0209    86.5669 
 2293.0000    76.7121   115.3113     2.2047     6.0428    86.5669 
 2294.0000    74.1228   103.9365     2.2047     5.9587    86.5669 
 2295.0000    67.2000    89.6815     2.2047     5.8746    86.5669 
 2296.0000    61.7628    88.3661     2.2047     5.7904    86.5669 
 2297.0000    54.3575    97.5931     2.2047     5.7063    86.5669 
 2298.0000    52.8908   101.3140     2.2047     5.6222    86.5669 
 2299.0000    55.1078   100.5490     2.2047     5.5381    86.5669 
 2300.0000    56.7645    75.7185     2.2047     5.4540    86.5669 
 2301.0000    53.7602    70.6993     2.2047     5.3699    86.5669 
 2302.0000    57.3594    86.3304     2.2047     5.2858    86.5669 
 2303.0000    61.3436   104.7577     2.2047     5.2017    86.5669 
 2304.0000    60.8228   120.9091     2.2047     5.1176    86.5669 
 2305.0000    60.0000   120.1750     2.2047     5.0335    86.5669 
 2306.0000    60.8000   118.4402     2.2047     4.9494    86.5669 
 2307.0000    60.2115   118.4402     2.2047     4.8653    86.5669 
 2308.0000    64.4232   120.1830     2.2047     4.7812    86.5669 
 2309.0000    72.2262   119.6652     2.2047     4.6971    86.5669 
 2310.0000    74.1384   116.1030     2.2047     4.6130    86.5669 
 2311.0000    69.6976   111.1427     2.2047     4.5289    86.5669 
 2312.0000    66.4908   109.1901     2.2047     4.4448    86.5669 
 2313.0000    66.6120   112.1100     2.2047     4.3607    86.5669 
 2314.0000    74.4509   113.0523     2.2047     4.2766    86.5669 
 2315.0000    84.1218   112.3101     2.2047     4.1924    86.5669 
 2316.0000    92.8340   112.4125     2.2047     4.1083    86.5669 
 2317.0000    94.3917   108.5142     2.2047     4.0303    86.5669 
 2318.0000    97.1120   103.8580     2.2088     4.0169    86.5669 
 2319.0000    93.7250    94.1461     2.2179     4.0034    86.5669 
 2320.0000    80.7252    88.7036     2.2269     3.9900    86.5669 
 2321.0000    69.6343    90.8607     2.2360     3.9765    86.5669 
 2322.0000    66.1888    98.9155     2.2450     3.9630    86.5669 
 2323.0000    64.8364   105.1196     2.2541     3.9496    86.5669 
 2324.0000    61.3851   104.3574     2.2631     3.9361    86.5669 
 2325.0000    55.7157   107.2668     2.2722     3.9227    86.5669 
 2326.0000    56.9498   111.7642     2.2812     3.9092    86.5669 
 2327.0000    58.0530   113.3000     2.2902     3.8957    86.5669 
 2328.0000    64.0000   112.6052     2.2993     3.8823    86.5669 
 2329.0000    69.1821   103.6241     2.3083     3.8688    86.5669 
 2330.0000    69.4324    35.6094     2.3174     3.8554    86.5669 
 2331.0000    67.7488     0.0000     2.3264     3.8419    86.5669 
 2332.0000    67.3237     0.0000     2.3355     3.8284    86.5669 
 2333.0000    68.5738     0.0000     2.3445     3.8150    86.5669 
 2334.0000    68.5337    38.7791     2.3536     3.8015    86.5669 
 2335.0000    68.2857    74.8839     2.3615     3.7881    86.5669 
 2336.0000    69.2930    95.4591     2.3459     3.7746    86.5669 
 2337.0000    73.9574   105.5398     2.3303     3.7612    86.5669 
 2338.0000    74.1808   102.9168     2.3146     3.7477    86.5669 
 2339.0000    65.9963   105.6851     2.2990     3.7342    86.5669 
 2340.0000    60.7462   110.2607     2.2834     3.7208    86.5669 
 2341.0000    60.6487   112.5432     2.2677     3.7073    86.5669 
 2342.0000    59.4880   108.2764     2.2521     3.6939    86.5669 
 2343.0000    58.5124   104.5406     2.2365     3.6804    86.5669 
 2344.0000    56.0169   107.1905     2.2208     3.6669    86.5669 
 2345.0000    58.2414   106.7100     2.2052     3.6535    86.5669 
 2346.0000    61.3097    97.0174     2.1896     3.6400    86.5669 
 2347.0000    64.1166    91.2509     2.1739     3.6266    86.5669 
 2348.0000    71.2739    92.7011     2.1583     3.6131    86.5669 
 2349.0000    78.9150    95.5330     2.1427     3.5996    86.5669 
 2350.0000    66.5706   101.7251     2.1271     3.5862    86.5669 
 2351.0000    69.5967   105.0611     2.1114     3.5727    86.5669 
 2352.0000    70.4569   106.1999     2.0958     3.5593    86.5669 
 2353.0000    73.9524   106.6621     2.0802     3.5458    86.5669 
 2354.0000    77.0687   107.0349     2.0645     3.5323    86.5669 
 2355.0000    69.3416   107.0960     2.0489     3.5587    86.5669 
 2356.0000    68.6030   106.0528     2.0518     3.6070    86.5669 
 2357.0000    68.7463   104.6807     2.0568     3.6552    86.5669 
 2358.0000    67.2000   105.3294     2.0619     3.7035    86.5669 
 2359.0000    68.2331   102.8235     2.0669     3.7518    86.5669 
 2360.0000    70.6840    99.4638     2.0720     3.8001    86.5669 
 2361.0000    73.1587   102.9182     2.0770     3.8484    86.5669 
 2362.0000    67.9168   107.2893     2.0821     3.8966    86.5669 
 2363.0000    65.4648   104.4966     2.0871     3.9449    86.5669 
 2364.0000    68.8231    79.5364     2.0922     3.9932    86.5669 
 2365.0000    68.9801    41.8038     2.0972     4.0415    86.5669 
 2366.0000    68.4223    54.4409     2.1023     4.0898    86.6180 
 2367.0000    66.4612    99.4123     2.1073     4.1380    86.7339 
 2368.0000    62.5461   109.1150     2.1124     4.1863    86.8498 
 2369.0000    66.1142   105.1846     2.1174     4.2346    86.9657 
 2370.0000    63.0069   103.9706     2.1225     4.2829    87.0815 
 2371.0000    61.2174   108.5569     2.1275     4.3312    87.1974 
 2372.0000    62.3986   109.1232     2.1326     4.3794    87.3133 
 2373.0000    64.4349   109.2559     2.1376     4.4277    87.4292 
 2374.0000    74.0343   111.0579     2.1427     4.4760    87.5451 
 2375.0000    73.5000   111.8239     2.1477     4.5243    87.6609 
 2376.0000    66.2676   111.1627     2.1528     4.5726    87.7768 
 2377.0000    66.1534   108.7596     2.1579     4.6208    87.8927 
 2378.0000    65.6293   106.3217     2.1629     4.6691    88.0086 
 2379.0000    71.8928   103.2796     2.1680     4.7174    88.1244 
