~Version Information
 VERS.                  2.0:   CWLS log ASCII Standard -VERSION 2.0
 WRAP.                   NO:   One line per depth step
~Well Information Block
#MNEM.UNIT     VALUE/NAME     DESCRIPTION
#---------     -----------    ---------------------------
 STRT.F              1831.0000: START DEPTH
 STOP.F              6790.7500: STOP DEPTH
 STEP.F                 0.2500: STEP DEPTH
 NULL.                 -999.25: NULL VALUE
 FL5 .        Long -120.825003:  LOCATIONLINE5
 FL4 .          Lat  35.869473:  LOCATIONLINE4
 FL3 .          X  6,020,938.4:  LOCATIONLINE3
 FL2 .          Y  1,840,736.7:  LOCATIONLINE2
 FL1 .        NAD 83 CA ZONE 4:  LOCATIONLINE1
 RIG .                KENAI 16:  RIG NAME
 CTRY.                      US:  COUNTRY NAME
 CNTY.                MONTEREY:  COUNTY NAME
 LUL .                   BKFLD:  LOGGINGUNITLOC
 FLD .           SOUTH SALINAS:  FIELD NAME
 WELL.     BRADLEY MINERALS 2-6:  WELL NAME
 COMP.             VENOCO INC.:  COMPANY
 MDS .        Operator Entered:  MAG DATA SOURCE
 SVCO.             Halliburton:  SERVICECONAME
 IQVR.                  R2.6.1:  WLIQ VERSION
 PROV.                      CA:  PROVINCE
 STAT.                      CA:  STATE NAME
 SON .                 7136075:  JOB NUMBER
 SECT.                       6:  SECTION
 TOWN.                     24S:  TOWNSHIP
 RANG.                     11E:  RANGE
 UWI .            040532202900:  UNIQUE WELL IDENTIFIER
 API .       04-053-22029-0000:  API NUMBER
 PDAT.                      GL:  PERMANENT DATUM
 DMF .                      KB:  DRILL MEAS FROM
 DATE.                        :  DATE
 SRVC.             Halliburton:  SERVICE COMPANY
 LOC .                        :  LOCATION
 LMF .                      KB:  LOG MEASURED FROM
 APD .ft               23.0000:  DEPTH ABOVE PD
 GRDC.deg               0.0000:  GRID CORRECTION
 MDEC.deg               0.0000:  MAGNETIC DECL
 AZTC.deg               0.0000:  AZM TOTAL CORR
 MFLD.nT            48150.0000:  MAGNETIC FIELD
 EGL .ft              542.0000:  GROUND ELEVATION
 EPD .ft              542.0000:  ELEVATION
 GVFD.g                 1.0000:  GRAVITY FIELD
 TVDS.ft              565.0000:  TVDSS CORRECTN
 EKB .ft              565.0000:  KB ELEVATION
 EDF .ft                0.0000:  DF ELEVATION
 MAGU.                 1444500:  MAGUTM CHECKSUM
 VSC .                       1:  VS TO CLOSURE
~Parameter Information Block
#MNEM.UNIT       Value        Description
#---------     -----------    ---------------------------
 LUL .                   BKFLD:  LoggingUnitLoc 
 LUN .                   61841:  LoggingUnitNum 
 ENGI.             D. SANDOVAL:  Engineer Name 
 DCS .               27-Jan-10:  DateCircEndT 
 TCS .                   05 42:  Time Ciculation Ended 
 TDCE.ucts  05.43.28 27-Jan-10:  Time Circ End 
 IQVR.     WL INSITE R2.6.1 (Build 9):  WLIQ Version 
 RUN .                       1:  Run Number 
 SVCN.               XRMI_WSST:  Service Name 
 SVCS.      
 TLAB.ucts  10.01.36 27-Jan-10:  Log Start Time 
 DATE.               27-Jan-10:  Run Date 
 TLAB.                   10 01:  LogStartTimeT 
 DLAB.               27-Jan-10:  LogStartDateT 
~Curve Information Block
#MNEM.UNIT                 API CODE     Curve Description
#---------               -----------    ---------------------------
 DEPT.F                 00 000 000 000:  Depth
 DLOD.lbs               00 000 000 000:  DLOD
 GRLL.api               00 000 000 000:  Natural Gamma Ray
 LLD .ohmm              00 000 000 000:  LLD
 LLDC.ohmm              00 000 000 000:  LLDC
 LLS .ohmm              00 000 000 000:  LLS
 LLSC.ohmm              00 000 000 000:  LLSC
 MSFL.ohmm              00 000 000 000:  MSFL
 MSFLUF.ohmm            00 000 000 000:  Msfl Unfiltered
 SP  .mV                00 000 000 000:  SP
 TENS.lbs               00 000 000 000:  Cable Tension
~A   DEPT      DLOD      GRLL      LLD     LLDC    LLS     LLSC     MSFL      MSFLUF      SP      TENS    
# ...
   4472.0000 1909.9053  97.8044   3.8722 0.0000   3.2570 0.0000     3.5778     2.4349  31.0093 3580.7095 
   4472.2500 1913.0916  97.3071   3.8437 0.0000   3.2305 0.0000     3.4387     2.4499  31.2234 3580.6040 
   4472.5000 1916.8105  95.0822   3.8121 0.0000   3.1961 0.0000     3.5819     2.7658  31.4144 3572.3835 
   4472.7500 1920.7942  93.0143   3.7643 0.0000   3.1510 0.0000     3.3967     2.8369  31.5458 3561.6702 
   4473.0000 1920.7942  92.4254   3.7189 0.0000   3.1228 0.0000     3.3220     2.4752  31.6035 3551.4866 
   4473.2500 1919.7321  91.5092   3.6971 0.0000   3.0963 0.0000     3.1067     2.2801  31.7130 3542.6299 
   4473.5000 1917.6068  90.4099   3.6778 0.0000   3.0836 0.0000     3.0976     3.0615  31.8225 3534.4094 
   4473.7500 1914.4194  89.7947   3.6606 0.0000   3.0706 0.0000     3.0299     2.6953  31.8948 3527.4614 
   4474.0000 1911.2332  90.0957   3.6304 0.0000   3.0502 0.0000     2.9723     3.0117  31.9307 3524.0681 
   4474.2500 1908.0459  90.5276   3.6043 0.0000   3.0227 0.0000     2.7991     3.2506  31.9885 3523.8560 
   4474.5000 1905.1243  91.3260   3.5679 0.0000   2.9961 0.0000     2.6873     3.0459  32.0536 3523.6960 
   4474.7500 1904.3280  92.1505   3.5589 0.0000   2.9699 0.0000     2.6330     2.3396  32.1259 3521.2563 
   4475.0000 1903.5306  92.2683   3.5429 0.0000   2.9631 0.0000     2.4533     1.9631  32.2135 3518.4460 
   4475.2500 1903.2648  92.2552   3.5460 0.0000   2.9568 0.0000     2.4910     2.0216  32.2865 3516.1653 
   4475.5000 1904.0623  90.9857   3.5088 0.0000   2.9397 0.0000     2.5852     2.0322  32.3595 3515.3701 
   4475.7500 1904.0623  89.3497   3.4869 0.0000   2.9205 0.0000     2.6142     2.0076  32.4617 3515.3169 
   4476.0000 1904.0623  88.1849   3.4439 0.0000   2.8999 0.0000     2.6645     2.1657  32.5200 3516.8547 
   4476.2500 1903.0001  88.0017   3.4132 0.0000   2.8756 0.0000     2.8613     2.3481  32.4829 3520.5146 
   4476.5000 1899.8127  87.5175   3.3577 0.0000   2.8485 0.0000     2.9284     2.3017  32.4988 3526.1357 
   4476.7500 1897.6875  88.0279   3.2961 0.0000   2.7942 0.0000     2.8010     2.2928  32.4702 3529.9011 
   4477.0000 1895.8291  88.1064   3.2049 0.0000   2.7243 0.0000     2.6534     2.7263  32.4416 3531.7043 
   4477.2500 1893.4380  87.6353   3.1477 0.0000   2.6649 0.0000     2.4244     3.0572  32.3838 3530.0610 
   4477.5000 1891.0481  87.1379   3.0876 0.0000   2.6182 0.0000     2.1806     2.5763  32.3114 3526.5076 
   4477.7500 1887.5959  87.0201   3.0828 0.0000   2.5940 0.0000     2.0011     2.3507  32.2537 3520.7791 
   4478.0000 1884.9402  87.7400   3.1022 0.0000   2.6129 0.0000     2.0127     2.2912  32.2178 3513.3547 
   4478.2500 1884.9402  88.5121   3.1657 0.0000   2.6551 0.0000     2.0815     3.8022  32.1588 3505.1343 
   4478.5000 1883.3466  88.9702   3.2306 0.0000   2.7181 0.0000     2.1157     2.3291  32.0852 3499.1401 
   4478.7500 1882.0187  88.7346   3.3464 0.0000   2.8071 0.0000     2.1778     2.2670  31.9824 3495.9055 
   4479.0000 1882.8149  87.3604   3.4784 0.0000   2.9197 0.0000     2.3591     2.8193  31.8869 3496.2244 
   4479.2500 1884.4087  85.8946   3.6161 0.0000   3.0325 0.0000     2.5258     2.5572  31.7404 3497.9209 
   4479.5000 1886.5328  84.9130   3.7175 0.0000   3.1234 0.0000     2.6158     3.1638  31.5117 3499.2468 
   4479.7500 1888.1265  85.4234   3.7698 0.0000   3.1674 0.0000     2.6851     3.2868  31.3724 3499.4058 
   4480.0000 1888.1265  86.2087   3.7562 0.0000   3.1693 0.0000     2.6647     2.9150  31.1888 3497.7622 
   4480.2500 1889.1886  88.2504   3.7451 0.0000   3.1423 0.0000     2.7632     3.0960  31.0270 3493.3594 
   4480.5000 1889.4543  89.9910   3.6904 0.0000   3.1082 0.0000     2.6536     2.8533  30.8944 3486.7302 
   4480.7500 1887.0645  91.8102   3.6183 0.0000   3.0505 0.0000     2.6117     3.4886  30.7837 3479.3059 
   4481.0000 1886.2681  93.1321   3.5479 0.0000   2.9764 0.0000     2.6623     4.9599  30.7089 3472.3582 
   4481.2500 1884.9402  95.0298   3.4656 0.0000   2.9141 0.0000     2.7509     2.7444  30.7162 3467.3723 
   4481.5000 1884.4087  96.5087   3.4302 0.0000   2.8772 0.0000     2.7416     2.7715  30.6706 3462.9172 
   4481.7500 1886.0023  97.5296   3.4260 0.0000   2.8712 0.0000     2.8511     2.8045  30.6542 3459.2585 
   4482.0000 1886.0023  97.2940   3.4304 0.0000   2.8881 0.0000     2.9167     3.6135  30.6067 3458.0381 
   4482.2500 1887.0645  95.7496   3.4266 0.0000   2.8878 0.0000     2.9765     3.3949  30.5447 3460.6365 
   4482.5000 1890.2518  93.9435   3.4351 0.0000   2.8908 0.0000     3.1313     3.1936  30.4456 3465.4634 
   4482.7500 1890.2518  91.7186   3.4409 0.0000   2.9063 0.0000     3.3149     3.2211  30.2510 3472.4102 
   4483.0000 1892.3760  91.5747   3.4697 0.0000   2.9216 0.0000     3.6214     3.3141  30.0563 3480.1011 
   4483.2500 1893.9696  91.9062   3.4639 0.0000   2.9242 0.0000     3.6344     3.2260  29.8471 3491.1318 
   4483.5000 1892.3760  93.9348   3.4662 0.0000   2.9219 0.0000     3.5831     3.9565  29.6458 3505.1865 
   4483.7500 1894.7659  97.1544   3.4451 0.0000   2.9114 0.0000     3.5021     3.3945  29.4682 3519.3477 
   4484.0000 1895.5634 100.1515   3.4513 0.0000   2.9079 0.0000     3.3969     3.7156  29.2973 3529.9543 
   4484.2500 1894.7659 102.9784   3.4500 0.0000   2.9233 0.0000     3.1307     4.0587  29.0814 3537.4331 
   4484.5000 1896.3596 106.3376   3.4779 0.0000   2.9411 0.0000     3.2398     4.6913  28.9829 3541.6760 
   4484.7500 1896.3596 109.1122   3.5027 0.0000   2.9560 0.0000     3.3367     3.2020  28.8844 3543.9033 
   4485.0000 1896.8912 111.5072   3.5547 0.0000   2.9882 0.0000     3.3442     2.0271  28.7567 3542.6831 
   4485.2500 1900.0785 113.0385   3.5830 0.0000   3.0343 0.0000     3.2380     3.2841  28.5992 3539.6606 
   4485.5000 1901.6722 114.6614   3.5967 0.0000   3.0596 0.0000     3.3201     3.6397  28.4569 3538.1216 
   4485.7500 1905.3901 116.6638   3.5539 0.0000   3.0525 0.0000     3.3526     2.7644  28.2397 3538.9709 
   4486.0000 1910.1700 119.2028   3.5217 0.0000   3.0056 0.0000     3.5166     2.9446  28.1345 3539.5007 
   4486.2500 1913.3574 124.2808   3.4627 0.0000   2.9672 0.0000     3.8272     2.4024  28.0676 3538.1216 
   4486.5000 1916.5448 130.0132   3.3889 0.0000   2.9194 0.0000     4.0695     2.4846  28.0153 3536.7434 
   4486.7500 1919.2006 134.6463   3.2815 0.0000   2.8442 0.0000     3.8759     2.4264  28.0664 3538.5989 
   4487.0000 1920.7942 137.1199   3.1817 0.0000   2.7427 0.0000     3.5146     2.1736  28.1771 3543.9556 
   4487.2500 1920.7942 135.5624   3.0887 0.0000   2.6489 0.0000     3.3736     2.3445  28.3103 3548.7827 
   4487.5000 1918.6689 129.9085   3.0353 0.0000   2.5955 0.0000     3.0593     2.4693  28.5645 3552.3882 
   4487.7500 1916.0132 122.9852   2.9903 0.0000   2.5806 0.0000     2.7469     2.4835  28.8114 3556.6843 
   4488.0000 1915.2169 114.1248   2.9704 0.0000   2.5593 0.0000     2.7111     2.2208  29.0212 3562.6240 
   4488.2500 1914.9510 107.6987   2.9507 0.0000   2.5364 0.0000     2.7757     2.4344  29.2475 3568.1406 
   4488.5000 1915.2169 102.9871   2.9421 0.0000   2.5284 0.0000     2.6135     2.2609  29.4451 3570.7922 
   4488.7500 1916.0132  98.6420   2.9432 0.0000   2.5314 0.0000     2.4250     2.3850  29.6507 3569.2544 
   4489.0000 1917.6068  95.2000   2.9691 0.0000   2.5590 0.0000     2.2631     2.7308  29.7881 3565.4355 
   4489.2500 1919.7321  93.7080   3.0039 0.0000   2.5871 0.0000     2.2151     3.1501  29.9396 3559.2305 
   4489.5000 1921.3247  91.8102   3.0207 0.0000   2.5971 0.0000     2.2772     2.5229  30.0770 3549.4722 
   4489.7500 1921.3247  90.7894   3.0394 0.0000   2.6171 0.0000     2.2687     2.7095  30.2218 3537.3796 
   4490.0000 1919.7321  91.4961   3.0709 0.0000   2.6548 0.0000     2.3341     2.3829  30.3501 3524.8630 
   4490.2500 1916.5448  92.5955   3.1008 0.0000   2.6889 0.0000     2.4364     2.2822  30.4845 3513.4070 
   4490.5000 1911.7637  92.7526   3.1314 0.0000   2.7144 0.0000     2.4205     2.4859  30.5435 3503.5952 
   4490.7500 1905.3901  92.7395   3.1508 0.0000   2.7333 0.0000     2.3850     2.2969  30.6475 3495.9590 
