~Version Information
 VERS.                  2.0:   CWLS log ASCII Standard -VERSION 2.0
 WRAP.                   NO:   One line per depth step
~Well Information Block
#MNEM.UNIT     VALUE/NAME     DESCRIPTION
#---------     -----------    ---------------------------
 STRT.F              1831.0000: START DEPTH
 STOP.F              6790.7500: STOP DEPTH
 STEP.F                 0.2500: STEP DEPTH
 NULL.                 -999.25: NULL VALUE
 FL5 .        Long -120.825003:  LOCATIONLINE5
 FL4 .          Lat  35.869473:  LOCATIONLINE4
 FL3 .          X  6,020,938.4:  LOCATIONLINE3
 FL2 .          Y  1,840,736.7:  LOCATIONLINE2
 FL1 .        NAD 83 CA ZONE 4:  LOCATIONLINE1
 RIG .                KENAI 16:  RIG NAME
 CTRY.                      US:  COUNTRY NAME
 CNTY.                MONTEREY:  COUNTY NAME
 LUL .                   BKFLD:  LOGGINGUNITLOC
 FLD .           SOUTH SALINAS:  FIELD NAME
 WELL.     BRADLEY MINERALS 2-6:  WELL NAME
 COMP.             VENOCO INC.:  COMPANY
 MDS .        Operator Entered:  MAG DATA SOURCE
 SVCO.             Halliburton:  SERVICECONAME
 IQVR.                  R2.6.1:  WLIQ VERSION
 PROV.                      CA:  PROVINCE
 STAT.                      CA:  STATE NAME
 SON .                 7136075:  JOB NUMBER
 SECT.                       6:  SECTION
 TOWN.                     24S:  TOWNSHIP
 RANG.                     11E:  RANGE
 UWI .            040532202900:  UNIQUE WELL IDENTIFIER
 API .       04-053-22029-0000:  API NUMBER
 PDAT.                      GL:  PERMANENT DATUM
 DMF .                      KB:  DRILL MEAS FROM
 DATE.                        :  DATE
 SRVC.             Halliburton:  SERVICE COMPANY
 LOC .                        :  LOCATION
 LMF .                      KB:  LOG MEASURED FROM
 APD .ft               23.0000:  DEPTH ABOVE PD
 GRDC.deg               0.0000:  GRID CORRECTION
 MDEC.deg               0.0000:  MAGNETIC DECL
 AZTC.deg               0.0000:  AZM TOTAL CORR
 MFLD.nT            48150.0000:  MAGNETIC FIELD
 EGL .ft              542.0000:  GROUND ELEVATION
 EPD .ft              542.0000:  ELEVATION
 GVFD.g                 1.0000:  GRAVITY FIELD
 TVDS.ft              565.0000:  TVDSS CORRECTN
 EKB .ft              565.0000:  KB ELEVATION
 EDF .ft                0.0000:  DF ELEVATION
 MAGU.                 1444500:  MAGUTM CHECKSUM
 VSC .                       1:  VS TO CLOSURE
~Parameter Information Block
#MNEM.UNIT       Value        Description
#---------     -----------    ---------------------------
 LUL .                   BKFLD:  LoggingUnitLoc 
 LUN .                   61841:  LoggingUnitNum 
 ENGI.             D. SANDOVAL:  Engineer Name 
 DCS .               27-Jan-10:  DateCircEndT 
 TCS .                   05 42:  Time Ciculation Ended 
 TDCE.ucts  05.43.28 27-Jan-10:  Time Circ End 
 IQVR.     WL INSITE R2.6.1 (Build 9):  WLIQ Version 
 RUN .                       1:  Run Number 
 SVCN.               XRMI_WSST:  Service Name 
 SVCS.      
 TLAB.ucts  10.01.36 27-Jan-10:  Log Start Time 
 DATE.               27-Jan-10:  Run Date 
 TLAB.                   10 01:  LogStartTimeT 
 DLAB.               27-Jan-10:  LogStartDateT 
~Curve Information Block
#MNEM.UNIT                 API CODE     Curve Description
#---------               -----------    ---------------------------
 DEPT.F                 00 000 000 000:  Depth
 DLOD.lbs               00 000 000 000:  DLOD
 GRLL.api               00 000 000 000:  Natural Gamma Ray
 LLD .ohmm              00 000 000 000:  LLD
 LLDC.ohmm              00 000 000 000:  LLDC
 LLS .ohmm              00 000 000 000:  LLS
 LLSC.ohmm              00 000 000 000:  LLSC
 MSFL.ohmm              00 000 000 000:  MSFL
 MSFLUF.ohmm            00 000 000 000:  Msfl Unfiltered
 SP  .mV                00 000 000 000:  SP
 TENS.lbs               00 000 000 000:  Cable Tension
~A   DEPT      DLOD      GRLL      LLD     LLDC    LLS     LLSC     MSFL      MSFLUF      SP      TENS    
# ...
   3142.0000 1853.8662  68.6974   3.2209 0.0000   2.6032 0.0000     2.2043     3.8036  41.5325 3098.8276 
   3142.2500 1857.3182  66.2238   3.2148 0.0000   2.5664 0.0000     2.2654     2.4890  41.4267 3099.2517 
   3142.5000 1859.7094  64.9019   3.2037 0.0000   2.5374 0.0000     2.2094     5.7707  41.3519 3099.3040 
   3142.7500 1859.7094  64.6663   3.2376 0.0000   2.5230 0.0000     2.1228     2.4296  41.3896 3098.0847 
   3143.0000 1858.3815  64.9804   3.2743 0.0000   2.5372 0.0000     2.2190     2.2006  41.5015 3095.4863 
   3143.2500 1856.7878  64.7710   3.3989 0.0000   2.5822 0.0000     2.2208     2.5380  41.6061 3093.4177 
   3143.5000 1856.5220  63.7240   3.5360 0.0000   2.6732 0.0000     2.1140     3.2771  41.7405 3091.6677 
   3143.7500 1857.3182  61.1327   3.7301 0.0000   2.8109 0.0000     2.1217     5.8851  41.9041 3090.4473 
   3144.0000 1858.1157  58.3188   3.9608 0.0000   2.9753 0.0000     2.4056     3.3031  42.0677 3089.5989 
   3144.2500 1858.9120  56.3295   4.2203 0.0000   3.1571 0.0000     2.6345     2.3491  42.2155 3089.4934 
   3144.5000 1859.1777  54.9160   4.5383 0.0000   3.3839 0.0000     3.1533     3.1922  42.3176 3091.7732 
   3144.7500 1858.1157  54.1831   4.9089 0.0000   3.6409 0.0000     3.3368     3.0054  42.3462 3094.8491 
   3145.0000 1858.1157  54.0260   5.2106 0.0000   3.8992 0.0000     3.3846     3.5018  42.4423 3097.6072 
   3145.2500 1857.3182  53.4894   5.5031 0.0000   4.0923 0.0000     3.2144     3.1591  42.5834 3100.5244 
   3145.5000 1855.9904  52.5995   5.6680 0.0000   4.2119 0.0000     3.2645     3.4508  42.7537 3104.2898 
   3145.7500 1857.5841  52.0498   5.7775 0.0000   4.2816 0.0000     3.3961     2.4066  42.9465 3109.8052 
   3146.0000 1858.6461  51.6179   5.8772 0.0000   4.3326 0.0000     3.5572     2.5459  43.0730 3115.2151 
   3146.2500 1859.1777  51.3692   5.8672 0.0000   4.3582 0.0000     3.5897     2.5010  43.1551 3119.4048 
   3146.5000 1859.1777  51.3300   5.7403 0.0000   4.2966 0.0000     3.7099     2.5322  43.2737 3124.6560 
   3146.7500 1857.5841  52.2330   5.5165 0.0000   4.1388 0.0000     3.4973     1.7902  43.2877 3132.7698 
   3147.0000 1856.2562  53.6072   5.2312 0.0000   3.9720 0.0000     3.0288     1.8098  43.2117 3144.0671 
   3147.2500 1856.2562  55.7667   4.9861 0.0000   3.7976 0.0000     3.0292     1.4728  43.0554 3154.9915 
   3147.5000 1853.8662  59.1564   4.7161 0.0000   3.6301 0.0000     3.1826     1.6011  42.8322 3163.4250 
   3147.7500 1852.0067  62.5069   4.4195 0.0000   3.4408 0.0000     3.0492     1.1685  42.6978 3169.0994 
   3148.0000 1852.8042  65.3469   4.0781 0.0000   3.1862 0.0000     2.8536     1.0607  42.6230 3172.0698 
   3148.2500 1855.7246  67.0090   3.7605 0.0000   2.9403 0.0000     2.6201     1.1470  42.4971 3170.6372 
   3148.5000 1858.9120  66.8127   3.4677 0.0000   2.7409 0.0000     2.3790     0.8936  42.4904 3162.5757 
   3148.7500 1862.0994  65.4647   3.1797 0.0000   2.5442 0.0000     2.0463     0.9298  42.5591 3148.6277 
   3149.0000 1863.4272  64.5616   2.8929 0.0000   2.3527 0.0000     1.7818     0.6951  42.6412 3133.7781 
   3149.2500 1864.4893  63.9073   2.6225 0.0000   2.1515 0.0000     1.6781     0.6996  42.7677 3121.1548 
   3149.5000 1866.0830  65.0982   2.3580 0.0000   1.9555 0.0000     1.5152     0.7152  42.8498 3112.4570 
   3149.7500 1866.0830  67.5849   2.1559 0.0000   1.7896 0.0000     1.3304     0.7154  42.9167 3106.7827 
   3150.0000 1866.0830  70.2024   1.9517 0.0000   1.6392 0.0000     1.2042     0.7332  43.0055 3103.4946 
   3150.2500 1866.8793  72.0740   1.7858 0.0000   1.5053 0.0000     1.1180     0.9685  42.9982 3101.8501 
   3150.5000 1867.1450  73.3697   1.6383 0.0000   1.3904 0.0000     0.9945     0.6643  42.9459 3099.7815 
   3150.7500 1867.9425  73.4613   1.5241 0.0000   1.2961 0.0000     0.9308     0.4639  42.9544 3094.6370 
   3151.0000 1868.4729  73.8932   1.4435 0.0000   1.2176 0.0000     0.8543     0.5260  42.9994 3085.9390 
   3151.2500 1866.0830  74.3905   1.3748 0.0000   1.1705 0.0000     0.8163     0.6836  43.1028 3075.2791 
   3151.5000 1863.6930  74.8093   1.3033 0.0000   1.1214 0.0000     0.7487     1.2803  43.1551 3065.0964 
   3151.7500 1860.7715  75.8694   1.2381 0.0000   1.0729 0.0000     0.7085     0.4878  43.1928 3058.4673 
   3152.0000 1856.7878  77.7933   1.1941 0.0000   1.0396 0.0000     0.6776     0.6071  43.2816 3056.8228 
   3152.2500 1855.9904  78.5000   1.1732 0.0000   1.0151 0.0000     0.7681     0.4302  43.3558 3061.9673 
   3152.5000 1857.0536  80.0182   1.1340 0.0000   0.9965 0.0000     0.7405     0.6609  43.3552 3073.1582 
   3152.7500 1861.8335  82.0861   1.0973 0.0000   0.9777 0.0000     0.7112     0.5908  43.2378 3088.3796 
   3153.0000 1870.0667  82.9891   1.0620 0.0000   0.9441 0.0000     0.7157     0.6801  43.0329 3103.0173 
   3153.2500 1878.8313  83.6828   1.0188 0.0000   0.9182 0.0000     0.7154     0.6826  42.8936 3115.1619 
   3153.5000 1885.2050  85.4496   1.0098 0.0000   0.9070 0.0000     0.6557     0.5166  42.7981 3122.9583 
   3153.7500 1890.5176  86.8893   0.9892 0.0000   0.8976 0.0000     0.6297     0.5456  42.6734 3127.1477 
   3154.0000 1892.6417  87.9886   0.9782 0.0000   0.8957 0.0000     0.6511     0.6151  42.5998 3126.8301 
   3154.2500 1891.0481  90.0172   0.9688 0.0000   0.8900 0.0000     0.6243     0.8972  42.6077 3122.2163 
   3154.5000 1884.6744  91.3260   0.9591 0.0000   0.8904 0.0000     0.5993     0.6559  42.7172 3114.9497 
   3154.7500 1875.9098  91.4961   0.9722 0.0000   0.9015 0.0000     0.5984     0.8390  42.8036 3110.4949 
   3155.0000 1865.5514  91.3783   1.0056 0.0000   0.9217 0.0000     0.6582     0.7557  42.8534 3110.4414 
   3155.2500 1859.1777  90.6454   1.0284 0.0000   0.9430 0.0000     0.6942     2.3578  42.8887 3114.3135 
   3155.5000 1855.4600  90.2790   1.0689 0.0000   0.9604 0.0000     0.6832     0.5151  42.9313 3119.1394 
   3155.7500 1853.8662  90.4491   1.0945 0.0000   0.9783 0.0000     0.7246     0.6670  42.9228 3123.6477 
   3156.0000 1855.1941  91.2998   1.1446 0.0000   1.0036 0.0000     0.7308     0.4619  42.8480 3129.0576 
   3156.2500 1857.3182  92.8834   1.1833 0.0000   1.0263 0.0000     0.7448     0.7066  42.7379 3134.4143 
   3156.5000 1858.6461  95.2916   1.2080 0.0000   1.0443 0.0000     0.7961     0.5208  42.7543 3137.0659 
   3156.7500 1862.6309  97.1108   1.2167 0.0000   1.0408 0.0000     0.8318     0.7176  42.8145 3135.7402 
   3157.0000 1864.4893  98.3803   1.2110 0.0000   1.0339 0.0000     0.9063     0.9479  42.8899 3131.9214 
   3157.2500 1863.6930  98.7598   1.1903 0.0000   1.0205 0.0000     1.0103     0.5462  42.9581 3127.5198 
   3157.5000 1861.3020  97.5034   1.1581 0.0000   0.9934 0.0000     0.9404     0.5805  43.0335 3124.0198 
   3157.7500 1858.3815  94.8073   1.1104 0.0000   0.9663 0.0000     0.8640     0.7010  43.1308 3119.2461 
   3158.0000 1856.2562  92.0327   1.0797 0.0000   0.9340 0.0000     0.8407     0.5823  43.2275 3114.4724 
   3158.2500 1856.2562  89.2451   1.0357 0.0000   0.8962 0.0000     0.7378     0.7569  43.2129 3109.5410 
   3158.5000 1854.1321  87.9101   1.0116 0.0000   0.8744 0.0000     0.5666     0.8227  43.0578 3104.5020 
   3158.7500 1852.2726  87.8185   0.9990 0.0000   0.8581 0.0000     0.6263     0.9250  42.8577 3096.9177 
   3159.0000 1851.4762  89.4283   0.9882 0.0000   0.8469 0.0000     0.6280     0.7309  42.6795 3086.7886 
   3159.2500 1851.7410  90.4884   1.0018 0.0000   0.8478 0.0000     0.6225     0.6038  42.5451 3075.3323 
   3159.5000 1852.5383  91.4700   1.0136 0.0000   0.8492 0.0000     0.6472     0.5634  42.4253 3066.4756 
   3159.7500 1853.3346  91.6532   1.0329 0.0000   0.8589 0.0000     0.6591     0.5647  42.3347 3060.4294 
   3160.0000 1854.1321  90.9726   1.0563 0.0000   0.8670 0.0000     0.6768     0.8149  42.3475 3057.8311 
   3160.2500 1855.7246  89.2581   1.0722 0.0000   0.8740 0.0000     0.6732     0.5815  42.5311 3057.5122 
   3160.5000 1858.1157  87.6091   1.0865 0.0000   0.8787 0.0000     0.7122     0.6359  42.6777 3060.4827 
   3160.7500 1859.4436  86.4312   1.0920 0.0000   0.8860 0.0000     0.7039     0.7046  42.7872 3065.8394 
