~VERSION INFORMATION
VERS  .       2.0                       : CWLS LOG ASCII STANDARD - VERSION 2.0
WRAP  .       NO                        : One line per depth step
~WELL INFORMATION
#MNEM .UNIT   DATA                      : DESCRIPTION OF MNEMONIC
#-----.----   ----                      : -----------------------
STRT  .ft     1900.0000                 : Start
STOP  .ft     6773.0000                 : Stop
STEP  .ft        1.0000                 : Step increment
NULL  .       -999.2500                 : Null value
COMP  .       Venoco                    : Company
WELL  .       Bradley Minerals2-6       : Well
FLD   .       Bradley Minerals          : Field
LOC   .                                 : Location
SRVC  .                                 : Service company
DATE  .       1/26/2010                 : Logging date
CNTY  .       Monterey                  : County
STAT  .       California                : State
CTRY  .       USA                       : Country
API   .       040532202900              : API number
UWI   .       040532202900              : Unique Well Identifier
~CURVE INFORMATION
#MNEM .UNIT   API CODE                  : CURVE DESCRIPTION
#-----.----   --------                  : -----------------
DEPT  .ft                               : Measured Depth
GR    .aapi                             : Gamma Ray
ROP   .ft/hr                            : Rate of Penetration
VRMS  .G                                : Average Vibration
VPK   .G                                : Peak Vibration
T-TEMP.degF                             : Tool Temperature
~PARAMETER INFORMATION
#MNEM .UNIT   VALUE                     : DESCRIPTION
#-----.----   -----                     : -----------
~OTHER INFORMATION
~A  DEPT         GR        ROP       VRMS        VPK     T-TEMP   
# ...
 6220.0000    96.1383    98.0117     2.5197     5.1051   151.0507 
 6221.0000    90.9232    91.1926     2.5197     5.0930   150.6492 
 6222.0000    93.7106    66.0815     2.5197     5.0809   150.2477 
 6223.0000    96.0000    37.7386     2.5197     5.0688   149.8463 
 6224.0000    91.4705    19.9654     2.5197     5.0567   149.4448 
 6225.0000    86.6040    25.7560     2.5197     5.0446   149.0433 
 6226.0000    81.7376    39.4672     2.5167     5.0394   148.6419 
 6227.0000    76.8712    45.8347     2.5020     5.0394   147.7384 
 6228.0000    72.0048    65.4936     2.4873     5.0394   146.7342 
 6229.0000    67.6478    80.6279     2.4727     5.0394   145.7301 
 6230.0000    79.6663    64.7700     2.4580     5.0394   144.7259 
 6231.0000    94.1157    39.8533     2.4433     5.0394   143.7218 
 6232.0000   100.4385    46.9421     2.4287     5.0394   142.7177 
 6233.0000    95.4155    68.8570     2.4140     5.0394   141.7135 
 6234.0000    94.4875    52.5479     2.3993     5.0394   140.7094 
 6235.0000   102.0869    41.1929     2.3846     5.0394   139.7053 
 6236.0000   105.2896    68.1157     2.3700     5.0394   138.7011 
 6237.0000   104.5537    85.9932     2.3622     5.0796   137.8268 
 6238.0000   100.8882    75.4196     2.3622     5.1262   137.8268 
 6239.0000    91.7395    66.1652     2.3622     5.1729   137.6277 
 6240.0000    90.2718    69.8409     2.3622     5.2195   137.1637 
 6241.0000    93.6364    68.1199     2.3622     5.2662   136.6997 
 6242.0000    97.0202    55.4407     2.3622     5.3128   136.2357 
 6243.0000    96.9149    44.2276     2.3622     5.3595   135.7718 
 6244.0000   101.6050    44.1773     2.3622     5.4061   135.3078 
 6245.0000   105.5316    62.8062     2.3622     5.4528   134.8438 
 6246.0000   101.1372    78.8294     2.3622     5.4994   134.3799 
 6247.0000    93.2517    70.9367     2.3622     5.5706   133.9159 
 6248.0000    88.7195    53.0487     2.4789     6.0318   133.6929 
 6249.0000    89.7954    30.4349     2.6322     6.4930   133.6929 
 6250.0000    92.9796    29.4000     2.7855     6.9542   133.6929 
 6251.0000    90.5916    29.4000     2.7650     6.7237   133.4516 
 6252.0000    92.1269    29.4000     2.6626     6.2994   133.0621 
 6253.0000   101.2951    29.4000     2.5602     5.8751   132.6725 
 6254.0000   105.5486    29.4000     2.4578     5.4508   132.2830 
 6255.0000   107.6117    29.4000     2.3553     5.0264   131.8934 
 6256.0000   104.4808    29.4000     2.2529     4.6021   131.5039 
 6257.0000    96.8911    29.4000     2.2645     4.8287   131.2126 
 6258.0000    95.9705    29.4000     2.3773     5.1767   131.2126 
 6259.0000    93.8126    29.4000     2.4901     5.5248   131.2126 
 6260.0000    92.7413    29.4000     2.6029     5.8728   131.2126 
 6261.0000    95.5200    29.4000     2.6639     5.9853   131.2126 
 6262.0000    94.4599    29.4000     2.6252     5.8610   131.2126 
 6263.0000    90.7742    29.4000     2.5865     5.7367   131.2126 
 6264.0000    89.8641    29.4000     2.5478     5.6124   131.2126 
 6265.0000    89.7604    29.4000     2.5091     5.4881   131.2126 
 6266.0000    89.9970    29.4000     2.4705     5.3638   131.2126 
 6267.0000    86.3588    29.4000     2.4318     5.2395   131.2126 
 6268.0000    86.7044    29.4000     2.3931     5.1153   131.2126 
 6269.0000    87.0623    29.4000     2.3622     5.0394   131.2126 
 6270.0000    89.4022    29.4000     2.3622     5.0394   131.2126 
 6271.0000    88.9122    29.4000     2.3622     5.0394   131.3224 
 6272.0000    83.7504    29.4000     2.3622     5.0394   131.5316 
 6273.0000    83.1334    29.4000     2.3622     5.0394   131.7408 
 6274.0000    82.2928    29.4000     2.3622     5.0394   131.9500 
 6275.0000    82.4819    29.4000     2.3622     5.0394   132.1592 
 6276.0000    84.6884    29.4000     2.3622     5.0394   132.3684 
 6277.0000    84.7167    29.4000     2.3622     5.0394   132.5776 
 6278.0000    88.6364    29.4000     2.3622     5.0394   132.7869 
 6279.0000    90.1044    33.3789     2.3622     5.0394   132.9961 
 6280.0000    90.2894    51.8918     2.3622     5.0394   133.2053 
 6281.0000    95.7497    64.8495     2.3622     5.0394   133.4145 
 6282.0000   100.5039    63.8033     2.3622     5.0394   133.6237 
 6283.0000    95.1267    64.1512     2.3622     5.2135   133.6929 
 6284.0000    90.7750    64.0721     2.3622     5.3914   133.6929 
 6285.0000    90.9301    64.2966     2.3622     5.5693   133.6929 
 6286.0000    92.5402    64.3864     2.3622     5.7471   133.6929 
 6287.0000    89.2464    64.4619     2.3622     5.9250   133.6929 
 6288.0000    89.7359    64.7689     2.3622     6.1028   133.6929 
 6289.0000    90.9798    65.0920     2.3622     6.2807   133.6929 
 6290.0000    94.0124    65.1486     2.3622     6.4586   133.6929 
 6291.0000    94.1395    65.2512     2.3593     6.4250   133.6929 
 6292.0000    90.2017    65.2458     2.3304     6.1616   133.6929 
 6293.0000    86.0488    64.9552     2.3015     5.8982   133.6929 
 6294.0000    77.8027    64.8755     2.2726     5.6348   133.6929 
 6295.0000    68.8538    59.5583     2.2438     5.3714   133.6929 
 6296.0000    66.3333    51.9066     2.2149     5.1080   133.6929 
 6297.0000    70.0756    39.5758     2.2787     5.3775   133.6929 
 6298.0000    77.5921    40.9275     2.3927     5.8348   133.6929 
 6299.0000    81.5696    48.1876     2.5066     6.2921   133.6929 
 6300.0000    78.7974    38.8185     2.6206     6.7493   133.6929 
 6301.0000    81.7698    51.3038     2.7345     7.2066   133.6929 
 6302.0000    85.1504    62.2117     2.8287     7.5214   133.6929 
 6303.0000    85.3070    59.4407     2.7795     7.3573   133.6929 
 6304.0000    78.0025    66.3407     2.7303     7.1931   133.6929 
 6305.0000    70.6180    55.8849     2.6812     7.0290   133.6929 
 6306.0000    71.9499    42.2086     2.6320     6.8648   133.6929 
 6307.0000    68.2065    28.2852     2.5828     6.7007   133.6929 
 6308.0000    76.9973    21.4140     2.5336     6.5365   133.6929 
 6309.0000    90.8264    21.1093     2.4845     6.3724   133.6929 
 6310.0000   100.2865    17.0674     2.4353     6.2082   133.6929 
 6311.0000   104.3413    30.9471     2.3861     6.0455   133.6929 
 6312.0000   101.9845    54.5160     2.3622     5.9570   133.6929 
 6313.0000   101.4365    57.9908     2.3622     5.8684   133.6929 
 6314.0000    91.3452    53.6395     2.3622     5.7798   133.6929 
 6315.0000    89.9426    50.4345     2.3622     5.6913   133.6929 
 6316.0000    91.1225    48.7375     2.3622     5.6027   133.6929 
 6317.0000    87.9260    43.9829     2.3622     5.5142   133.6929 
 6318.0000    87.2532    32.2347     2.3622     5.4256   133.6929 
 6319.0000    96.0000    19.9216     2.3622     5.3370   133.6929 
 6320.0000    91.5524    29.0795     2.3622     5.2485   133.6929 
 6321.0000    91.4994    54.7414     2.3622     5.1599   133.6929 
 6322.0000    99.4480    63.6924     2.3622     5.0713   133.6929 
 6323.0000   102.2753    60.6323     2.3588     5.0394   133.6929 
 6324.0000    99.7575    55.6653     2.3433     5.0394   133.6929 
 6325.0000   102.7357    47.6055     2.3278     5.0394   133.6929 
 6326.0000   106.5157    42.7678     2.3123     5.0394   133.6929 
 6327.0000   105.3567    38.8706     2.2967     5.0394   133.6929 
 6328.0000    97.5668    33.0343     2.2812     5.0394   133.6929 
 6329.0000    89.8585    30.7119     2.2657     5.0394   133.6929 
 6330.0000    85.6667    24.8283     2.2502     5.0394   133.6929 
 6331.0000    83.3170    23.2035     2.2347     5.0394   133.6929 
 6332.0000    82.0000    34.6836     2.2191     5.0394   133.6929 
 6333.0000    86.3099    62.4784     2.2047     5.0394   133.6929 
 6334.0000    91.0840    87.0250     2.2047     5.0394   134.2882 
 6335.0000    89.4548    94.7616     2.2047     5.0394   135.0146 
 6336.0000    79.4657    90.8765     2.2047     5.0394   135.7410 
 6337.0000    79.5521    78.1632     2.2047     5.0394   136.1732 
 6338.0000    83.4727    73.5751     2.2047     5.0394   136.1732 
 6339.0000    83.9289    73.4616     2.2047     5.0394   136.1732 
