~Version Information
 VERS.                  2.0:   CWLS log ASCII Standard -VERSION 2.0
 WRAP.                   NO:   One line per depth step
~Well Information Block
#MNEM.UNIT     VALUE/NAME     DESCRIPTION
#---------     -----------    ---------------------------
 STRT.F              1831.0000: START DEPTH
 STOP.F              6790.7500: STOP DEPTH
 STEP.F                 0.2500: STEP DEPTH
 NULL.                 -999.25: NULL VALUE
 FL5 .        Long -120.825003:  LOCATIONLINE5
 FL4 .          Lat  35.869473:  LOCATIONLINE4
 FL3 .          X  6,020,938.4:  LOCATIONLINE3
 FL2 .          Y  1,840,736.7:  LOCATIONLINE2
 FL1 .        NAD 83 CA ZONE 4:  LOCATIONLINE1
 RIG .                KENAI 16:  RIG NAME
 CTRY.                      US:  COUNTRY NAME
 CNTY.                MONTEREY:  COUNTY NAME
 LUL .                   BKFLD:  LOGGINGUNITLOC
 FLD .           SOUTH SALINAS:  FIELD NAME
 WELL.     BRADLEY MINERALS 2-6:  WELL NAME
 COMP.             VENOCO INC.:  COMPANY
 MDS .        Operator Entered:  MAG DATA SOURCE
 SVCO.             Halliburton:  SERVICECONAME
 IQVR.                  R2.6.1:  WLIQ VERSION
 PROV.                      CA:  PROVINCE
 STAT.                      CA:  STATE NAME
 SON .                 7136075:  JOB NUMBER
 SECT.                       6:  SECTION
 TOWN.                     24S:  TOWNSHIP
 RANG.                     11E:  RANGE
 UWI .            040532202900:  UNIQUE WELL IDENTIFIER
 API .       04-053-22029-0000:  API NUMBER
 PDAT.                      GL:  PERMANENT DATUM
 DMF .                      KB:  DRILL MEAS FROM
 DATE.                        :  DATE
 SRVC.             Halliburton:  SERVICE COMPANY
 LOC .                        :  LOCATION
 LMF .                      KB:  LOG MEASURED FROM
 APD .ft               23.0000:  DEPTH ABOVE PD
 GRDC.deg               0.0000:  GRID CORRECTION
 MDEC.deg               0.0000:  MAGNETIC DECL
 AZTC.deg               0.0000:  AZM TOTAL CORR
 MFLD.nT            48150.0000:  MAGNETIC FIELD
 EGL .ft              542.0000:  GROUND ELEVATION
 EPD .ft              542.0000:  ELEVATION
 GVFD.g                 1.0000:  GRAVITY FIELD
 TVDS.ft              565.0000:  TVDSS CORRECTN
 EKB .ft              565.0000:  KB ELEVATION
 EDF .ft                0.0000:  DF ELEVATION
 MAGU.                 1444500:  MAGUTM CHECKSUM
 VSC .                       1:  VS TO CLOSURE
~Parameter Information Block
#MNEM.UNIT       Value        Description
#---------     -----------    ---------------------------
 LUL .                   BKFLD:  LoggingUnitLoc 
 LUN .                   61841:  LoggingUnitNum 
 ENGI.             D. SANDOVAL:  Engineer Name 
 DCS .               27-Jan-10:  DateCircEndT 
 TCS .                   05 42:  Time Ciculation Ended 
 TDCE.ucts  05.43.28 27-Jan-10:  Time Circ End 
 IQVR.     WL INSITE R2.6.1 (Build 9):  WLIQ Version 
 RUN .                       1:  Run Number 
 SVCN.               XRMI_WSST:  Service Name 
 SVCS.      
 TLAB.ucts  10.01.36 27-Jan-10:  Log Start Time 
 DATE.               27-Jan-10:  Run Date 
 TLAB.                   10 01:  LogStartTimeT 
 DLAB.               27-Jan-10:  LogStartDateT 
~Curve Information Block
#MNEM.UNIT                 API CODE     Curve Description
#---------               -----------    ---------------------------
 DEPT.F                 00 000 000 000:  Depth
 DLOD.lbs               00 000 000 000:  DLOD
 GRLL.api               00 000 000 000:  Natural Gamma Ray
 LLD .ohmm              00 000 000 000:  LLD
 LLDC.ohmm              00 000 000 000:  LLDC
 LLS .ohmm              00 000 000 000:  LLS
 LLSC.ohmm              00 000 000 000:  LLSC
 MSFL.ohmm              00 000 000 000:  MSFL
 MSFLUF.ohmm            00 000 000 000:  Msfl Unfiltered
 SP  .mV                00 000 000 000:  SP
 TENS.lbs               00 000 000 000:  Cable Tension
~A   DEPT      DLOD      GRLL      LLD     LLDC    LLS     LLSC     MSFL      MSFLUF      SP      TENS    
# ...
   2819.0000 1869.8008  80.6333   2.0785 0.0000   1.5980 0.0000     1.2439     0.9009  43.3266 2990.2632 
   2819.2500 1874.8477  77.6886   2.0246 0.0000   1.5612 0.0000     1.1975     1.2849  43.3850 3003.2573 
   2819.5000 1881.2213  75.0580   1.9907 0.0000   1.5441 0.0000     1.2288     1.3776  43.4361 3013.3333 
   2819.7500 1886.7986  73.0425   1.9678 0.0000   1.5400 0.0000     1.3013     1.3868  43.5164 3017.8416 
   2820.0000 1891.3138  72.1656   1.9451 0.0000   1.5330 0.0000     1.4277     0.9347  43.5966 3018.0535 
   2820.2500 1894.2355  72.4404   1.9214 0.0000   1.5220 0.0000     1.4315     1.1829  43.6550 3013.9705 
   2820.5000 1894.2355  74.0502   1.8689 0.0000   1.4871 0.0000     1.3962     1.1293  43.6769 3006.9692 
   2820.7500 1891.5797  75.5422   1.8106 0.0000   1.4426 0.0000     1.2343     0.8526  43.6769 2997.6353 
   2821.0000 1888.1265  77.0997   1.7458 0.0000   1.4018 0.0000     1.1611     0.9246  43.6477 2989.9443 
   2821.2500 1884.1428  78.7487   1.6912 0.0000   1.3708 0.0000     1.0200     0.9463  43.6039 2987.4526 
   2821.5000 1882.5492  79.8481   1.6362 0.0000   1.3293 0.0000     1.0750     1.3272  43.5455 2989.7856 
   2821.7500 1882.0187  81.1830   1.5781 0.0000   1.2884 0.0000     1.0916     1.0310  43.4872 2993.6577 
   2822.0000 1882.0187  82.0468   1.5253 0.0000   1.2486 0.0000     1.1117     0.8395  43.3777 2996.9990 
   2822.2500 1882.8149  83.0415   1.4780 0.0000   1.2156 0.0000     1.1137     0.8209  43.2755 3000.3936 
   2822.5000 1883.6112  84.0492   1.4436 0.0000   1.1942 0.0000     1.0933     0.7889  43.1806 3004.7952 
   2822.7500 1884.6744  84.5727   1.3962 0.0000   1.1676 0.0000     0.9868     0.9766  43.0931 3007.5522 
   2823.0000 1886.2681  86.2611   1.3672 0.0000   1.1372 0.0000     0.9328     0.9744  42.9982 3006.0144 
   2823.2500 1885.7366  88.8262   1.3260 0.0000   1.1114 0.0000     0.9368     0.6539  42.8656 3000.0747 
   2823.5000 1883.6112  91.9149   1.3040 0.0000   1.0927 0.0000     1.0178     0.8085  42.7476 2992.9680 
   2823.7500 1880.4250  95.9329   1.2730 0.0000   1.0757 0.0000     1.0051     0.5944  42.6880 2986.3389 
   2824.0000 1876.1755 100.0162   1.2450 0.0000   1.0541 0.0000     0.9982     0.8361  42.6211 2979.0723 
   2824.2500 1872.9882 101.8354   1.2213 0.0000   1.0306 0.0000     0.9961     0.8513  42.5615 2970.6931 
   2824.5000 1871.3945 102.7908   1.2008 0.0000   1.0105 0.0000     0.9337     0.6944  42.4800 2962.8435 
   2824.7500 1869.8008 101.6522   1.1859 0.0000   0.9969 0.0000     0.8920     0.5583  42.4204 2956.5852 
   2825.0000 1868.7388  99.5058   1.1853 0.0000   0.9927 0.0000     0.8748     0.5561  42.4435 2951.8647 
   2825.2500 1868.2083  97.4772   1.1633 0.0000   0.9815 0.0000     0.8377     0.6778  42.4667 2947.3577 
   2825.5000 1869.0045  96.2208   1.1375 0.0000   0.9653 0.0000     0.8226     0.8224  42.4898 2942.9548 
   2825.7500 1870.8640  94.9906   1.1127 0.0000   0.9467 0.0000     0.7896     0.7068  42.5494 2940.7805 
   2826.0000 1872.7224  94.8466   1.0934 0.0000   0.9319 0.0000     0.7274     0.6509  42.6309 2941.0994 
   2826.2500 1872.7224  94.7942   1.0763 0.0000   0.9222 0.0000     0.7259     0.7024  42.7342 2942.5840 
   2826.5000 1873.2540  94.2446   1.0482 0.0000   0.9122 0.0000     0.7195     0.9163  42.8522 2944.2285 
   2826.7500 1873.7855  95.0036   1.0295 0.0000   0.8949 0.0000     0.6878     0.6104  42.9471 2946.5615 
   2827.0000 1873.7855  96.9930   1.0129 0.0000   0.8809 0.0000     0.6840     0.5844  43.0201 2948.3647 
   2827.2500 1872.1919  98.4850   1.0051 0.0000   0.8707 0.0000     0.6747     0.6680  43.0712 2948.1526 
   2827.5000 1869.8008 101.0894   1.0123 0.0000   0.8707 0.0000     0.6638     0.6067  43.1150 2945.7131 
   2827.7500 1865.8171 103.3929   1.0063 0.0000   0.8718 0.0000     0.6728     0.5019  43.1077 2942.4250 
   2828.0000 1865.0209 103.1311   1.0195 0.0000   0.8732 0.0000     0.6984     0.6014  43.1223 2940.9927 
   2828.2500 1865.2867 101.5344   1.0232 0.0000   0.8712 0.0000     0.7428     0.6810  43.1296 2943.6443 
   2828.5000 1866.3488  99.2571   1.0187 0.0000   0.8732 0.0000     0.7338     0.6575  43.1223 2946.9333 
   2828.7500 1868.7388  96.1423   1.0242 0.0000   0.8736 0.0000     0.6999     0.9256  43.1369 2950.6990 
   2829.0000 1871.3945  93.3153   1.0155 0.0000   0.8719 0.0000     0.6979     1.0713  43.1806 2955.4182 
   2829.2500 1873.5198  91.4961   1.0157 0.0000   0.8702 0.0000     0.6838     0.6763  43.1806 2960.9868 
   2829.5000 1875.1134  90.9857   1.0183 0.0000   0.8685 0.0000     0.6465     0.5186  43.2025 2965.9194 
   2829.7500 1871.1287  91.2606   1.0263 0.0000   0.8730 0.0000     0.6062     0.5677  43.1660 2969.1018 
   2830.0000 1864.7551  93.0274   1.0342 0.0000   0.8767 0.0000     0.6122     0.9228  43.1150 2969.4727 
   2830.2500 1859.1777  95.0691   1.0493 0.0000   0.8779 0.0000     0.6135     0.6922  43.0493 2972.0190 
   2830.5000 1853.6005  97.9353   1.0602 0.0000   0.8803 0.0000     0.6288     0.7849  42.9617 2978.3828 
   2830.7500 1849.6168 101.4035   1.0850 0.0000   0.8889 0.0000     0.7235     1.6835  42.8376 2987.0806 
   2831.0000 1849.0852 103.0002   1.0873 0.0000   0.8957 0.0000     0.7814     1.1152  42.7647 2994.3994 
   2831.2500 1852.2726 104.2174   1.1113 0.0000   0.9083 0.0000     0.7920     1.0464  42.7063 2996.7334 
   2831.5000 1859.1777 104.7932   1.1156 0.0000   0.9116 0.0000     0.7646     3.2669  42.6917 2993.7109 
   2831.7500 1865.2867 104.0734   1.1397 0.0000   0.9187 0.0000     0.7886     0.9874  42.6625 2984.4290 
   2832.0000 1866.0830 103.1180   1.1686 0.0000   0.9394 0.0000     0.7565     0.7230  42.6181 2968.9954 
   2832.2500 1865.0209 103.7986   1.2187 0.0000   0.9777 0.0000     0.7255     0.7317  42.5658 2948.4714 
   2832.5000 1862.8956 104.3875   1.2718 0.0000   1.0162 0.0000     0.7679     0.7150  42.5062 2926.8328 
   2832.7500 1859.7094 105.6701   1.3275 0.0000   1.0801 0.0000     0.9386     0.9966  42.4028 2906.9438 
   2833.0000 1855.4600 109.0991   1.3672 0.0000   1.2076 0.0000     1.0144     1.1550  42.2848 2891.0327 
   2833.2500 1850.9447 111.7821   1.3992 0.0000   1.3212 0.0000     1.1412     0.9258  42.1741 2877.9331 
   2833.5000 1848.0231 113.7191   1.4411 0.0000   1.4234 0.0000     1.5094     1.1355  42.0999 2870.4556 
   2833.7500 1848.0231 114.9100   1.4538 0.0000   1.4893 0.0000     1.5082     0.9023  42.0999 2869.7126 
   2834.0000 1850.1473 113.6013   1.4355 0.0000   1.5033 0.0000     1.3754     1.1498  42.1449 2876.2363 
   2834.2500 1852.8042 110.6827   1.4118 0.0000   1.4846 0.0000     1.2618     1.1451  42.1741 2885.8359 
   2834.5000 1855.9904 108.9290   1.3845 0.0000   1.4373 0.0000     1.1121     1.0824  42.2398 2894.3740 
   2834.7500 1859.1777 107.5286   1.3702 0.0000   1.3506 0.0000     0.8206     1.0515  42.3274 2901.8528 
   2835.0000 1861.8335 108.5494   1.3683 0.0000   1.2767 0.0000     0.8601     1.0576  42.4077 2909.4368 
   2835.2500 1863.4272 110.3163   1.3674 0.0000   1.2212 0.0000     0.9079     1.0895  42.4733 2916.8088 
   2835.5000 1864.2235 112.1878   1.3899 0.0000   1.1836 0.0000     0.9595     1.1767  42.4800 2921.9534 
   2835.7500 1863.4272 114.1379   1.4177 0.0000   1.1601 0.0000     0.9584     1.1124  42.4934 2924.2332 
   2836.0000 1862.6309 116.0225   1.4450 0.0000   1.1717 0.0000     0.9576     1.2974  42.5895 2927.1501 
   2836.2500 1860.7715 117.3443   1.4815 0.0000   1.1925 0.0000     0.9802     0.8875  42.6637 2933.8328 
   2836.5000 1860.5056 119.1766   1.5191 0.0000   1.1860 0.0000     0.9814     1.0334  42.7379 2943.6443 
   2836.7500 1864.2235 120.8431   1.5549 0.0000   1.2247 0.0000     1.0038     1.4384  42.8121 2954.1990 
   2837.0000 1871.3945 120.0317   1.5847 0.0000   1.2566 0.0000     1.0606     1.1386  42.8936 2963.0024 
   2837.2500 1878.5656 117.1393   1.5993 0.0000   1.2976 0.0000     1.0819     1.5435  42.9745 2969.6326 
   2837.5000 1885.4707 112.4801   1.6398 0.0000   1.3423 0.0000     1.1049     1.5765  42.9745 2973.6633 
   2837.7500 1888.6581 106.5121   1.6789 0.0000   1.3835 0.0000     1.1720     2.3243  42.9587 2974.3518 
