~Version Information
 VERS.                  2.0:   CWLS log ASCII Standard -VERSION 2.0
 WRAP.                   NO:   One line per depth step
~Well Information Block
#MNEM.UNIT     VALUE/NAME     DESCRIPTION
#---------     -----------    ---------------------------
 STRT.F              1831.0000: START DEPTH
 STOP.F              6790.7500: STOP DEPTH
 STEP.F                 0.2500: STEP DEPTH
 NULL.                 -999.25: NULL VALUE
 FL5 .        Long -120.825003:  LOCATIONLINE5
 FL4 .          Lat  35.869473:  LOCATIONLINE4
 FL3 .          X  6,020,938.4:  LOCATIONLINE3
 FL2 .          Y  1,840,736.7:  LOCATIONLINE2
 FL1 .        NAD 83 CA ZONE 4:  LOCATIONLINE1
 RIG .                KENAI 16:  RIG NAME
 CTRY.                      US:  COUNTRY NAME
 CNTY.                MONTEREY:  COUNTY NAME
 LUL .                   BKFLD:  LOGGINGUNITLOC
 FLD .           SOUTH SALINAS:  FIELD NAME
 WELL.     BRADLEY MINERALS 2-6:  WELL NAME
 COMP.             VENOCO INC.:  COMPANY
 MDS .        Operator Entered:  MAG DATA SOURCE
 SVCO.             Halliburton:  SERVICECONAME
 IQVR.                  R2.6.1:  WLIQ VERSION
 PROV.                      CA:  PROVINCE
 STAT.                      CA:  STATE NAME
 SON .                 7136075:  JOB NUMBER
 SECT.                       6:  SECTION
 TOWN.                     24S:  TOWNSHIP
 RANG.                     11E:  RANGE
 UWI .            040532202900:  UNIQUE WELL IDENTIFIER
 API .       04-053-22029-0000:  API NUMBER
 PDAT.                      GL:  PERMANENT DATUM
 DMF .                      KB:  DRILL MEAS FROM
 DATE.                        :  DATE
 SRVC.             Halliburton:  SERVICE COMPANY
 LOC .                        :  LOCATION
 LMF .                      KB:  LOG MEASURED FROM
 APD .ft               23.0000:  DEPTH ABOVE PD
 GRDC.deg               0.0000:  GRID CORRECTION
 MDEC.deg               0.0000:  MAGNETIC DECL
 AZTC.deg               0.0000:  AZM TOTAL CORR
 MFLD.nT            48150.0000:  MAGNETIC FIELD
 EGL .ft              542.0000:  GROUND ELEVATION
 EPD .ft              542.0000:  ELEVATION
 GVFD.g                 1.0000:  GRAVITY FIELD
 TVDS.ft              565.0000:  TVDSS CORRECTN
 EKB .ft              565.0000:  KB ELEVATION
 EDF .ft                0.0000:  DF ELEVATION
 MAGU.                 1444500:  MAGUTM CHECKSUM
 VSC .                       1:  VS TO CLOSURE
~Parameter Information Block
#MNEM.UNIT       Value        Description
#---------     -----------    ---------------------------
 LUL .                   BKFLD:  LoggingUnitLoc 
 LUN .                   61841:  LoggingUnitNum 
 ENGI.             D. SANDOVAL:  Engineer Name 
 DCS .               27-Jan-10:  DateCircEndT 
 TCS .                   05 42:  Time Ciculation Ended 
 TDCE.ucts  05.43.28 27-Jan-10:  Time Circ End 
 IQVR.     WL INSITE R2.6.1 (Build 9):  WLIQ Version 
 RUN .                       1:  Run Number 
 SVCN.               XRMI_WSST:  Service Name 
 SVCS.      
 TLAB.ucts  10.01.36 27-Jan-10:  Log Start Time 
 DATE.               27-Jan-10:  Run Date 
 TLAB.                   10 01:  LogStartTimeT 
 DLAB.               27-Jan-10:  LogStartDateT 
~Curve Information Block
#MNEM.UNIT                 API CODE     Curve Description
#---------               -----------    ---------------------------
 DEPT.F                 00 000 000 000:  Depth
 DLOD.lbs               00 000 000 000:  DLOD
 GRLL.api               00 000 000 000:  Natural Gamma Ray
 LLD .ohmm              00 000 000 000:  LLD
 LLDC.ohmm              00 000 000 000:  LLDC
 LLS .ohmm              00 000 000 000:  LLS
 LLSC.ohmm              00 000 000 000:  LLSC
 MSFL.ohmm              00 000 000 000:  MSFL
 MSFLUF.ohmm            00 000 000 000:  Msfl Unfiltered
 SP  .mV                00 000 000 000:  SP
 TENS.lbs               00 000 000 000:  Cable Tension
~A   DEPT      DLOD      GRLL      LLD     LLDC    LLS     LLSC     MSFL      MSFLUF      SP      TENS    
# ...
   2154.0000 1878.8313  66.4594   2.0686 0.0000   1.6793 0.0000     1.5812     1.8302  47.0875 2822.8298 
   2154.2500 1867.6766  68.2262   2.0660 0.0000   1.6845 0.0000     1.6381     1.3724  46.9002 2822.5645 
   2154.5000 1860.2399  69.5350   2.0858 0.0000   1.6961 0.0000     1.6731     1.4743  46.7196 2825.0571 
   2154.7500 1860.2399  70.2286   2.0953 0.0000   1.7002 0.0000     1.7212     1.6475  46.5979 2831.1035 
   2155.0000 1863.9587  70.4380   2.1029 0.0000   1.7109 0.0000     1.6013     1.3312  46.5219 2839.3240 
   2155.2500 1870.8640  70.0977   2.1306 0.0000   1.7217 0.0000     1.4602     1.4581  46.4769 2846.9602 
   2155.5000 1880.4250  69.0638   2.1491 0.0000   1.7322 0.0000     1.5868     1.5007  46.4477 2851.9460 
   2155.7500 1887.0645  68.0430   2.1582 0.0000   1.7400 0.0000     1.6718     1.3875  46.4489 2854.9685 
   2156.0000 1891.8455  68.5534   2.1758 0.0000   1.7610 0.0000     1.6918     2.0698  46.5475 2854.1201 
   2156.2500 1892.6417  68.9329   2.1684 0.0000   1.7663 0.0000     1.6289     1.4749  46.6989 2849.6653 
   2156.5000 1887.8607  69.4564   2.1573 0.0000   1.7720 0.0000     1.6762     1.3790  46.8430 2841.3916 
   2156.7500 1880.9554  70.4380   2.1572 0.0000   1.7608 0.0000     1.6515     1.2023  46.9112 2831.2622 
   2157.0000 1875.3782  71.0008   2.1192 0.0000   1.7441 0.0000     1.5247     1.3949  46.9258 2822.0334 
   2157.2500 1868.2083  72.5713   2.0664 0.0000   1.7098 0.0000     1.4591     1.4976  46.9616 2815.8818 
   2157.5000 1864.7551  75.8302   2.0229 0.0000   1.6674 0.0000     1.5312     1.0670  46.9148 2812.3286 
   2157.7500 1863.9587  80.5679   1.9598 0.0000   1.6156 0.0000     1.5251     1.1522  46.7780 2811.2148 
   2158.0000 1867.1450  85.1093   1.9084 0.0000   1.5649 0.0000     1.5378     1.1315  46.6107 2812.1697 
   2158.2500 1870.3324  89.1796   1.8804 0.0000   1.5262 0.0000     1.5711     1.0262  46.4131 2813.8132 
   2158.5000 1875.1134  90.4099   1.8334 0.0000   1.4929 0.0000     1.5519     1.1250  46.2908 2814.3440 
   2158.7500 1876.4413  89.3236   1.7912 0.0000   1.4627 0.0000     1.4808     1.1168  46.2142 2812.8582 
   2159.0000 1877.2377  86.1433   1.7641 0.0000   1.4294 0.0000     1.4371     1.2135  46.0634 2808.7751 
   2159.2500 1876.4413  82.7797   1.7193 0.0000   1.3994 0.0000     1.3290     1.3200  45.9807 2803.2063 
   2159.5000 1873.7855  80.0051   1.6840 0.0000   1.3782 0.0000     1.2533     1.2398  45.9204 2798.1672 
   2159.7500 1870.5983  78.4346   1.6595 0.0000   1.3586 0.0000     1.2325     1.2244  45.8840 2793.8723 
   2160.0000 1867.4109  77.9634   1.6097 0.0000   1.3266 0.0000     1.1778     1.7184  45.9162 2792.3342 
   2160.2500 1864.7551  78.8403   1.5743 0.0000   1.3054 0.0000     1.1066     1.2041  45.9630 2794.1365 
   2160.5000 1864.2235  79.4685   1.5604 0.0000   1.2894 0.0000     1.0734     1.4188  46.0609 2799.3345 
   2160.7500 1865.8171  79.2591   1.5507 0.0000   1.2848 0.0000     1.1025     1.2593  46.2039 2806.3877 
   2161.0000 1867.4109  79.1675   1.5561 0.0000   1.2911 0.0000     1.1262     1.2190  46.3237 2813.7598 
   2161.2500 1869.2704  78.3561   1.5893 0.0000   1.3036 0.0000     1.1689     1.2149  46.4885 2819.5940 
   2161.5000 1871.6603  77.5708   1.6076 0.0000   1.3261 0.0000     1.2143     1.2089  46.6819 2823.9434 
   2161.7500 1874.5819  77.2829   1.6458 0.0000   1.3578 0.0000     1.2646     1.2167  46.8065 2826.5952 
   2162.0000 1875.6439  77.7279   1.6989 0.0000   1.3886 0.0000     1.3264     1.3380  46.8643 2827.4968 
   2162.2500 1874.0503  78.3561   1.7304 0.0000   1.4094 0.0000     1.2972     1.2688  46.7664 2826.5417 
   2162.5000 1870.3324  79.9135   1.7599 0.0000   1.4358 0.0000     1.3706     1.1572  46.6533 2824.8972 
   2162.7500 1867.1450  80.7380   1.7866 0.0000   1.4526 0.0000     1.3802     1.4729  46.5779 2822.7231 
   2163.0000 1865.5514  81.1830   1.7800 0.0000   1.4502 0.0000     1.3503     1.3574  46.4429 2819.5940 
   2163.2500 1863.9587  81.9028   1.7659 0.0000   1.4371 0.0000     1.2947     1.4547  46.2264 2814.9802 
   2163.5000 1861.8335  81.9683   1.7529 0.0000   1.4205 0.0000     1.3246     1.2404  46.0555 2808.4565 
   2163.7500 1858.6461  81.2354   1.7260 0.0000   1.4026 0.0000     1.2940     1.2065  45.9594 2802.5168 
   2164.0000 1857.0536  81.4840   1.7105 0.0000   1.3842 0.0000     1.2892     1.3218  46.0196 2798.6980 
   2164.2500 1855.9904  81.1699   1.6927 0.0000   1.3618 0.0000     1.2855     1.4552  46.0950 2797.7964 
   2164.5000 1860.7715  80.2145   1.6753 0.0000   1.3432 0.0000     1.2900     1.3481  46.1254 2798.7515 
   2164.7500 1865.0209  79.5209   1.6714 0.0000   1.3316 0.0000     1.3084     1.3641  46.2002 2801.0322 
   2165.0000 1869.8008  78.8011   1.6878 0.0000   1.3388 0.0000     1.2945     1.3126  46.2671 2803.7893 
   2165.2500 1872.9882  77.2829   1.7000 0.0000   1.3474 0.0000     1.3123     1.6829  46.3480 2806.9185 
   2165.5000 1875.9098  77.1520   1.7201 0.0000   1.3533 0.0000     1.3159     1.6706  46.3018 2807.9790 
   2165.7500 1876.7061  77.6493   1.7424 0.0000   1.3593 0.0000     1.3457     1.5600  46.1145 2806.5476 
   2166.0000 1876.7061  78.4870   1.7586 0.0000   1.3741 0.0000     1.3463     2.1271  45.8979 2803.1531 
   2166.2500 1871.6603  79.0890   1.7898 0.0000   1.3917 0.0000     1.3065     1.9124  45.7337 2800.8191 
   2166.5000 1865.8171  80.2669   1.8298 0.0000   1.4182 0.0000     1.3217     1.6549  45.5926 2799.9707 
   2166.7500 1860.2399  80.8428   1.8645 0.0000   1.4397 0.0000     1.3539     1.5376  45.4820 2801.0322 
   2167.0000 1856.7878  81.9945   1.9138 0.0000   1.4667 0.0000     1.3621     2.2400  45.2752 2803.0999 
   2167.2500 1855.4600  82.1253   1.9725 0.0000   1.5069 0.0000     1.4251     1.3835  45.1724 2806.7065 
   2167.5000 1857.0536  84.3241   2.0415 0.0000   1.5536 0.0000     1.5466     1.5696  45.1584 2811.5322 
   2167.7500 1859.7094  86.0124   2.1135 0.0000   1.6038 0.0000     1.6436     1.5790  45.2180 2816.5181 
   2168.0000 1863.1614  86.9809   2.1898 0.0000   1.6549 0.0000     1.7800     1.6221  45.2557 2818.6389 
   2168.2500 1867.1450  88.6430   2.2482 0.0000   1.6968 0.0000     1.8975     1.4573  45.2928 2817.9504 
   2168.5000 1870.5983  90.5015   2.2946 0.0000   1.7289 0.0000     1.8585     1.4893  45.4485 2814.7681 
   2168.7500 1874.0503  89.3628   2.3281 0.0000   1.7478 0.0000     1.9300     1.8997  45.6638 2810.8960 
   2169.0000 1873.2540  87.0725   2.3269 0.0000   1.7465 0.0000     1.8893     3.0247  45.8797 2805.5928 
   2169.2500 1871.6603  86.9940   2.2955 0.0000   1.7400 0.0000     1.7045     1.6998  46.0591 2799.7585 
   2169.5000 1869.8008  86.1171   2.2795 0.0000   1.7133 0.0000     1.6499     2.4498  46.2014 2793.5535 
   2169.7500 1865.8171  85.9993   2.2432 0.0000   1.6927 0.0000     1.6559     1.8309  46.3054 2789.0986 
   2170.0000 1862.6309  88.2766   2.2043 0.0000   1.6736 0.0000     1.5725     1.1489  46.3340 2787.0833 
   2170.2500 1860.7715  90.6062   2.1996 0.0000   1.6607 0.0000     1.5470     1.6170  46.1765 2787.5073 
   2170.5000 1859.9740  90.4884   2.1973 0.0000   1.6670 0.0000     1.6166     1.5146  46.0263 2789.3640 
   2170.7500 1863.1614  90.6454   2.2004 0.0000   1.6759 0.0000     1.7952     1.6470  45.8164 2792.8108 
   2171.0000 1867.9425  88.7085   2.2365 0.0000   1.6896 0.0000     1.9496     1.5886  45.6212 2795.7810 
   2171.2500 1870.3324  85.6198   2.2631 0.0000   1.7171 0.0000     1.9259     1.6382  45.3597 2797.0015 
   2171.5000 1874.0503  82.0992   2.2815 0.0000   1.7252 0.0000     2.1116     1.7855  45.1146 2795.5156 
   2171.7500 1876.4413  79.0497   2.3032 0.0000   1.7332 0.0000     2.1135     2.1064  44.9005 2792.0156 
   2172.0000 1874.8477  77.0735   2.2903 0.0000   1.7319 0.0000     1.8413     1.9817  44.7765 2788.0381 
   2172.2500 1872.4565  76.8641   2.2523 0.0000   1.7098 0.0000     1.7255     1.4874  44.6749 2783.4766 
   2172.5000 1870.8640  77.4661   2.2268 0.0000   1.6871 0.0000     1.6842     1.5752  44.6409 2777.7490 
   2172.7500 1868.4729  80.3323   2.1768 0.0000   1.6645 0.0000     1.5159     1.7539  44.5922 2770.7478 
