~VERSION INFORMATION
VERS  .       2.0                       : CWLS LOG ASCII STANDARD - VERSION 2.0
WRAP  .       NO                        : One line per depth step
~WELL INFORMATION
#MNEM .UNIT   DATA                      : DESCRIPTION OF MNEMONIC
#-----.----   ----                      : -----------------------
STRT  .ft     1900.0000                 : Start
STOP  .ft     6773.0000                 : Stop
STEP  .ft        1.0000                 : Step increment
NULL  .       -999.2500                 : Null value
COMP  .       Venoco                    : Company
WELL  .       Bradley Minerals2-6       : Well
FLD   .       Bradley Minerals          : Field
LOC   .                                 : Location
SRVC  .                                 : Service company
DATE  .       1/26/2010                 : Logging date
CNTY  .       Monterey                  : County
STAT  .       California                : State
CTRY  .       USA                       : Country
API   .       040532202900              : API number
UWI   .       040532202900              : Unique Well Identifier
~CURVE INFORMATION
#MNEM .UNIT   API CODE                  : CURVE DESCRIPTION
#-----.----   --------                  : -----------------
DEPT  .ft                               : Measured Depth
GR    .aapi                             : Gamma Ray
ROP   .ft/hr                            : Rate of Penetration
VRMS  .G                                : Average Vibration
VPK   .G                                : Peak Vibration
T-TEMP.degF                             : Tool Temperature
~PARAMETER INFORMATION
#MNEM .UNIT   VALUE                     : DESCRIPTION
#-----.----   -----                     : -----------
~OTHER INFORMATION
~A  DEPT         GR        ROP       VRMS        VPK     T-TEMP   
# ...
 2500.0000    94.9196   131.4174     2.2517     5.0748    89.0472 
 2501.0000   106.5476   132.7994     2.2634     5.0951    89.0472 
 2502.0000   106.5560   128.6341     2.2750     5.1155    89.0472 
 2503.0000    97.6469   126.4824     2.2866     5.1358    89.0472 
 2504.0000    82.7741   127.7625     2.2982     5.1561    89.0472 
 2505.0000    71.5217   128.5764     2.3098     5.1764    89.0472 
 2506.0000    68.2294   128.4555     2.3215     5.1967    89.0472 
 2507.0000    67.7140   125.1146     2.3331     5.2171    89.0472 
 2508.0000    69.7927   122.4974     2.3447     5.2374    89.3242 
 2509.0000    78.8631   123.0538     2.3563     5.2577    89.6998 
 2510.0000    73.7470   125.5775     2.3679     5.2780    90.0754 
 2511.0000    63.0069   126.7522     2.3796     5.2983    90.4510 
 2512.0000    62.2047   127.5513     2.3912     5.3187    90.8266 
 2513.0000    64.1404   127.5567     2.4028     5.3390    91.2023 
 2514.0000    64.0240   127.6602     2.4144     5.3593    91.5276 
 2515.0000    60.7247   126.1951     2.4261     5.3796    91.5276 
 2516.0000    59.8637   115.3491     2.4377     5.3999    91.5276 
 2517.0000    61.7572   112.7254     2.4493     5.4203    91.5276 
 2518.0000    75.5754   115.9807     2.4609     5.4406    91.5276 
 2519.0000    73.8089   114.8834     2.4725     5.4609    91.5276 
 2520.0000    70.5903    70.7882     2.4842     5.4812    91.5276 
 2521.0000    75.6357    56.3018     2.4958     5.5015    91.5276 
 2522.0000    80.1423    81.3864     2.5074     5.5219    91.5276 
 2523.0000    86.2528    95.9375     2.5190     5.5422    91.5276 
 2524.0000    82.3396   122.7877     2.5164     5.5277    91.5276 
 2525.0000    72.8297   140.9100     2.5129     5.5112    91.5276 
 2526.0000    65.9943   139.3305     2.5094     5.4946    91.5276 
 2527.0000    62.1287   138.5597     2.5059     5.4781    91.5276 
 2528.0000    59.9613   138.3505     2.5024     5.4615    91.5276 
 2529.0000    60.1340   138.7906     2.4989     5.4450    91.5276 
 2530.0000    56.5000   140.0522     2.4954     5.4285    91.5276 
 2531.0000    60.5550   139.2829     2.4919     5.4119    91.5276 
 2532.0000    62.4180   135.6021     2.4884     5.3954    91.5276 
 2533.0000    59.4283   132.2530     2.4849     5.3789    91.5276 
 2534.0000    59.3472   130.3834     2.4814     5.3623    91.5276 
 2535.0000    61.5939   129.6511     2.4779     5.3458    91.5276 
 2536.0000    63.4820   128.9862     2.4744     5.3293    91.5276 
 2537.0000    64.0000   129.5146     2.4709     5.3127    91.5276 
 2538.0000    67.2676   129.1563     2.4674     5.2962    91.5276 
 2539.0000    70.9227   128.3144     2.4639     5.2797    91.5276 
 2540.0000    77.5772   130.7885     2.4604     5.2631    91.5276 
 2541.0000    80.1233   131.8307     2.4569     5.2466    91.5276 
 2542.0000    73.1034   131.5562     2.4534     5.2300    91.5276 
 2543.0000    60.9256   132.2500     2.4499     5.2135    91.5276 
 2544.0000    55.1071   130.2023     2.4464     5.1970    91.5276 
 2545.0000    52.8478   128.5795     2.4429     5.1804    91.5276 
 2546.0000    53.8736   130.2968     2.4394     5.1639    91.5276 
 2547.0000    54.2987   131.0716     2.4359     5.1474    91.5276 
 2548.0000    54.2587   129.8032     2.4324     5.1308    91.5276 
 2549.0000    54.6678   129.8000     2.4289     5.1143    91.5276 
 2550.0000    55.8125   129.7288     2.4254     5.0978    91.5276 
 2551.0000    58.8889    73.5419     2.4219     5.0812    91.5276 
 2552.0000    62.5329    42.2509     2.4184     5.0647    91.5276 
 2553.0000    63.9959    88.0195     2.4149     5.0481    91.5276 
 2554.0000    70.5614   135.6360     2.4114     5.0316    91.5276 
 2555.0000    68.8361   139.6083     2.4079     5.0151    91.5276 
 2556.0000    70.9911   141.6896     2.4044     4.9985    91.5276 
 2557.0000    73.5415   142.5794     2.4009     4.9820    91.5276 
 2558.0000    75.2000   140.7304     2.3974     4.9655    91.5276 
 2559.0000    74.8803   141.8519     2.3939     4.9489    91.5276 
 2560.0000    65.9235   144.7894     2.3904     4.9324    91.5276 
 2561.0000    63.3040   144.4150     2.3869     4.9159    91.5276 
 2562.0000    64.0000   141.9209     2.3834     4.8993    91.5276 
 2563.0000    63.2000   137.1225     2.3799     4.8828    91.5276 
 2564.0000    61.3551   126.9308     2.3764     4.8663    91.5276 
 2565.0000    69.3790   115.7679     2.3729     4.8497    91.5276 
 2566.0000    82.0735   105.7542     2.3694     4.8332    91.5276 
 2567.0000    88.8994   104.2054     2.3659     4.8166    91.5276 
 2568.0000    88.2602   113.3585     2.3624     4.8001    91.5276 
 2569.0000    90.2981   125.1870     2.3531     4.7836    91.5276 
 2570.0000    91.8255   126.1356     2.3436     4.7670    91.5276 
 2571.0000    83.0000   125.0601     2.3341     4.7505    91.5276 
 2572.0000    76.2594   123.4834     2.3247     4.7340    91.5276 
 2573.0000    71.0241   119.3067     2.3152     4.7174    91.5276 
 2574.0000    76.1143   117.1205     2.3057     4.7009    91.5276 
 2575.0000    79.2050   118.7664     2.2962     4.6844    91.5276 
 2576.0000    73.7528   121.6728     2.2867     4.6678    91.5276 
 2577.0000    75.2227   123.4027     2.2772     4.6513    91.5276 
 2578.0000    75.1400   123.0602     2.2677     4.6347    91.5276 
 2579.0000    71.8205   122.9488     2.2582     4.6182    91.5276 
 2580.0000    69.2928   119.4743     2.2487     4.6017    91.5276 
 2581.0000    79.9754   117.3436     2.2392     4.5851    91.5276 
 2582.0000    90.5505    74.2457     2.2297     4.5686    91.5276 
 2583.0000    95.1500    65.3169     2.2202     4.5521    91.5276 
 2584.0000    95.2544   112.0897     2.2107     4.5355    91.5276 
 2585.0000    87.5282   132.8388     2.2047     4.5354    91.5276 
 2586.0000    78.9778   136.2272     2.2047     4.5354    91.5276 
 2587.0000    78.8569   134.2717     2.2047     4.5354    91.5276 
 2588.0000    72.0425   130.5782     2.2047     4.5354    91.5276 
 2589.0000    60.9213   126.8891     2.2047     4.5354    91.5276 
 2590.0000    60.3330   124.5122     2.2047     4.5354    91.5276 
 2591.0000    61.1429   121.0915     2.2047     4.5354    91.5276 
 2592.0000    58.5248   115.3038     2.2047     4.5354    91.5276 
 2593.0000    59.7059   115.4105     2.2047     4.5354    91.5276 
 2594.0000    62.6929   114.0617     2.2047     4.5354    91.5276 
 2595.0000    65.7143   110.2280     2.2047     4.5354    91.5276 
 2596.0000    66.7199   111.2487     2.2047     4.5354    91.5276 
 2597.0000    65.5519   113.3045     2.2047     4.5354    91.5276 
 2598.0000    68.5970   114.6116     2.2047     4.5354    91.5276 
 2599.0000    71.2054   117.7262     2.2047     4.5354    91.5276 
 2600.0000    72.1296   117.9883     2.2047     4.5354    91.5276 
 2601.0000    68.8055   115.6282     2.2047     4.5354    91.5276 
 2602.0000    67.6279   112.9509     2.2047     4.5354    91.5276 
 2603.0000    73.9091   111.9061     2.2047     4.5354    91.5276 
 2604.0000    86.1047   109.9006     2.2047     4.5354    91.5276 
 2605.0000    95.6657   112.3712     2.2047     4.5354    91.5276 
 2606.0000    90.0819   121.4111     2.2047     4.5354    91.5276 
 2607.0000    79.5235   122.5252     2.2047     4.5354    91.5276 
 2608.0000    67.7753   121.6822     2.2047     4.5354    91.5276 
 2609.0000    75.5259   118.9690     2.2047     4.5354    91.5276 
 2610.0000    83.2573   117.1866     2.2047     4.5354    91.5276 
 2611.0000    77.6767   118.2398     2.2047     4.5354    91.5276 
 2612.0000    70.3245   112.3109     2.2047     4.5354    91.5276 
 2613.0000    68.7074    70.4914     2.2047     4.5354    91.5276 
 2614.0000    60.1299    63.3096     2.2047     4.5354    91.5276 
 2615.0000    61.3680    84.3653     2.2047     4.5354    91.5276 
 2616.0000    62.5000    83.6287     2.2047     4.5354    91.5276 
 2617.0000    64.8966    88.4730     2.2047     4.5354    91.5555 
 2618.0000    66.6741    95.3774     2.2047     4.5354    91.6608 
 2619.0000    70.6853    97.2999     2.2047     4.5354    91.7662 
