~Version Information
 VERS.                  2.0:   CWLS log ASCII Standard -VERSION 2.0
 WRAP.                   NO:   One line per depth step
~Well Information Block
#MNEM.UNIT     VALUE/NAME     DESCRIPTION
#---------     -----------    ---------------------------
 STRT.F              1831.0000: START DEPTH
 STOP.F              6790.7500: STOP DEPTH
 STEP.F                 0.2500: STEP DEPTH
 NULL.                 -999.25: NULL VALUE
 FL5 .        Long -120.825003:  LOCATIONLINE5
 FL4 .          Lat  35.869473:  LOCATIONLINE4
 FL3 .          X  6,020,938.4:  LOCATIONLINE3
 FL2 .          Y  1,840,736.7:  LOCATIONLINE2
 FL1 .        NAD 83 CA ZONE 4:  LOCATIONLINE1
 RIG .                KENAI 16:  RIG NAME
 CTRY.                      US:  COUNTRY NAME
 CNTY.                MONTEREY:  COUNTY NAME
 LUL .                   BKFLD:  LOGGINGUNITLOC
 FLD .           SOUTH SALINAS:  FIELD NAME
 WELL.     BRADLEY MINERALS 2-6:  WELL NAME
 COMP.             VENOCO INC.:  COMPANY
 MDS .        Operator Entered:  MAG DATA SOURCE
 SVCO.             Halliburton:  SERVICECONAME
 IQVR.                  R2.6.1:  WLIQ VERSION
 PROV.                      CA:  PROVINCE
 STAT.                      CA:  STATE NAME
 SON .                 7136075:  JOB NUMBER
 SECT.                       6:  SECTION
 TOWN.                     24S:  TOWNSHIP
 RANG.                     11E:  RANGE
 UWI .            040532202900:  UNIQUE WELL IDENTIFIER
 API .       04-053-22029-0000:  API NUMBER
 PDAT.                      GL:  PERMANENT DATUM
 DMF .                      KB:  DRILL MEAS FROM
 DATE.                        :  DATE
 SRVC.             Halliburton:  SERVICE COMPANY
 LOC .                        :  LOCATION
 LMF .                      KB:  LOG MEASURED FROM
 APD .ft               23.0000:  DEPTH ABOVE PD
 GRDC.deg               0.0000:  GRID CORRECTION
 MDEC.deg               0.0000:  MAGNETIC DECL
 AZTC.deg               0.0000:  AZM TOTAL CORR
 MFLD.nT            48150.0000:  MAGNETIC FIELD
 EGL .ft              542.0000:  GROUND ELEVATION
 EPD .ft              542.0000:  ELEVATION
 GVFD.g                 1.0000:  GRAVITY FIELD
 TVDS.ft              565.0000:  TVDSS CORRECTN
 EKB .ft              565.0000:  KB ELEVATION
 EDF .ft                0.0000:  DF ELEVATION
 MAGU.                 1444500:  MAGUTM CHECKSUM
 VSC .                       1:  VS TO CLOSURE
~Parameter Information Block
#MNEM.UNIT       Value        Description
#---------     -----------    ---------------------------
 LUL .                   BKFLD:  LoggingUnitLoc 
 LUN .                   61841:  LoggingUnitNum 
 ENGI.             D. SANDOVAL:  Engineer Name 
 DCS .               27-Jan-10:  DateCircEndT 
 TCS .                   05 42:  Time Ciculation Ended 
 TDCE.ucts  05.43.28 27-Jan-10:  Time Circ End 
 IQVR.     WL INSITE R2.6.1 (Build 9):  WLIQ Version 
 RUN .                       1:  Run Number 
 SVCN.               XRMI_WSST:  Service Name 
 SVCS.      
 TLAB.ucts  10.01.36 27-Jan-10:  Log Start Time 
 DATE.               27-Jan-10:  Run Date 
 TLAB.                   10 01:  LogStartTimeT 
 DLAB.               27-Jan-10:  LogStartDateT 
~Curve Information Block
#MNEM.UNIT                 API CODE     Curve Description
#---------               -----------    ---------------------------
 DEPT.F                 00 000 000 000:  Depth
 DLOD.lbs               00 000 000 000:  DLOD
 GRLL.api               00 000 000 000:  Natural Gamma Ray
 LLD .ohmm              00 000 000 000:  LLD
 LLDC.ohmm              00 000 000 000:  LLDC
 LLS .ohmm              00 000 000 000:  LLS
 LLSC.ohmm              00 000 000 000:  LLSC
 MSFL.ohmm              00 000 000 000:  MSFL
 MSFLUF.ohmm            00 000 000 000:  Msfl Unfiltered
 SP  .mV                00 000 000 000:  SP
 TENS.lbs               00 000 000 000:  Cable Tension
~A   DEPT      DLOD      GRLL      LLD     LLDC    LLS     LLSC     MSFL      MSFLUF      SP      TENS    
# ...
   5460.0000 1853.3346  95.6449   7.6499 0.0000   7.7180 0.0000     3.6341     5.9474  36.1070 3771.4792 
   5460.2500 1851.7410  90.5015   8.0538 0.0000   8.1493 0.0000     3.3317     3.3256  36.0115 3778.1086 
   5460.5000 1850.1473  82.9499   8.4518 0.0000   8.5121 0.0000     3.2690     3.4083  35.9373 3782.1926 
   5460.7500 1848.8195  74.8137   8.8157 0.0000   8.9111 0.0000     3.9854     3.6120  35.9155 3783.4119 
   5461.0000 1848.0231  66.1889   9.2361 0.0000   9.3936 0.0000     4.4556     3.7156  35.8863 3784.3669 
   5461.2500 1848.8195  59.3309   9.6418 0.0000   9.9790 0.0000     6.6385     3.3964  35.8260 3786.5942 
   5461.5000 1849.0852  55.0425   9.9167 0.0000  10.4126 0.0000     8.4071     3.5071  35.7646 3788.9285 
   5461.7500 1849.0852  55.1734   9.9095 0.0000  10.5538 0.0000     9.7713     5.0387  35.7105 3789.2993 
   5462.0000 1849.8826  60.2689   9.6500 0.0000  10.3764 0.0000     8.9506     2.6972  35.6399 3788.0791 
   5462.2500 1849.6168  68.4225   9.2332 0.0000  10.0764 0.0000     7.5544     4.2442  35.6010 3788.1323 
   5462.5000 1849.0852  78.5917   8.7637 0.0000   9.6393 0.0000     5.1617     3.8598  35.5238 3790.5186 
   5462.7500 1849.0852  88.4467   8.2395 0.0000   9.1003 0.0000     4.2198     4.6868  35.4386 3792.7993 
   5463.0000 1847.4915  94.5805   7.7832 0.0000   8.5307 0.0000     3.6408     6.1432  35.3772 3794.6560 
   5463.2500 1847.2268  97.1675   7.4514 0.0000   8.0928 0.0000     3.3089     3.7048  35.3243 3796.8301 
   5463.5000 1848.8195  96.4607   7.2671 0.0000   7.8396 0.0000     3.0895     4.5500  35.2325 3800.7021 
   5463.7500 1848.0231  91.7753   7.2519 0.0000   7.7960 0.0000     2.8650     4.1556  35.1425 3804.4675 
   5464.0000 1849.8826  86.6580   7.4625 0.0000   8.0054 0.0000     2.5282     4.4792  34.9989 3806.4832 
   5464.2500 1852.0067  81.8025   7.9224 0.0000   8.5009 0.0000     2.9714     6.6397  34.8639 3805.8989 
   5464.5000 1852.0067  76.7027   8.6412 0.0000   9.2967 0.0000     3.0542     9.3699  34.6991 3804.0957 
   5464.7500 1852.8042  73.2213   9.5835 0.0000  10.3397 0.0000     3.6657     6.8250  34.5197 3799.7473 
   5465.0000 1852.2726  71.4152  10.6440 0.0000  11.4577 0.0000     4.2803     8.3044  34.3251 3792.7461 
   5465.2500 1849.0852  69.8185  11.8794 0.0000  12.7342 0.0000     4.7496     7.8496  34.1323 3782.9343 
   5465.5000 1848.2889  69.5830  13.3145 0.0000  14.1182 0.0000     4.4328    15.4704  33.9249 3773.8657 
   5465.7500 1845.3673  70.1196  14.9257 0.0000  15.5397 0.0000     5.1171    13.4634  33.7333 3769.0398 
   5466.0000 1842.1799  70.1414  16.7522 0.0000  17.1813 0.0000     6.8340    13.6709  33.5120 3769.1453 
   5466.2500 1843.7737  69.7095  18.8411 0.0000  19.0209 0.0000     7.1894     6.6514  33.3137 3772.1689 
   5466.5000 1845.3673  69.3168  21.0471 0.0000  21.2701 0.0000     9.3292    13.9796  33.1154 3778.1086 
   5466.7500 1848.2889  68.5927  23.5405 0.0000  23.7106 0.0000    10.4660     8.8930  32.8959 3786.5942 
   5467.0000 1853.8662  67.2708  26.3399 0.0000  26.2924 0.0000    11.5981    34.2860  32.6544 3797.0422 
   5467.2500 1857.0536  64.9543  29.4838 0.0000  29.2206 0.0000    11.6342    15.6250  32.4422 3806.0056 
   5467.5000 1861.3020  62.3760  33.1025 0.0000  32.5941 0.0000    16.7204    18.7259  32.2226 3809.6123 
   5467.7500 1866.0830  59.9940  36.7835 0.0000  35.9492 0.0000    18.0373    12.1140  32.0183 3806.6951 
   5468.0000 1864.4893  57.3372  39.7769 0.0000  38.7404 0.0000    23.5780    56.7178  31.8067 3800.2781 
   5468.2500 1862.3651  56.1462  41.6927 0.0000  40.4219 0.0000    22.7898    16.2416  31.5798 3792.7461 
   5468.5000 1858.6461  56.6043  42.3748 0.0000  41.3857 0.0000    19.4046    40.7514  31.3590 3784.6855 
   5468.7500 1852.2726  57.4027  42.2441 0.0000  41.3737 0.0000    16.1956    12.8725  31.1656 3776.9949 
   5469.0000 1849.0852  58.9208  40.9433 0.0000  40.6379 0.0000    14.7466     8.0106  30.9497 3772.3809 
   5469.2500 1845.3673  60.7793  38.5890 0.0000  38.6562 0.0000    13.6938    15.9251  30.7326 3773.5481 
   5469.5000 1841.3837  63.1874  35.7256 0.0000  35.9284 0.0000    17.8400     9.8458  30.4991 3780.7603 
   5469.7500 1842.9774  66.1060  32.7140 0.0000  33.1042 0.0000    18.7378    19.7043  30.2564 3790.5718 
   5470.0000 1845.6332  68.8937  29.5921 0.0000  30.1239 0.0000    20.5788    40.2104  29.9986 3800.3835 
   5470.2500 1849.6168  72.4143  26.5824 0.0000  27.1712 0.0000    17.8355     6.3063  29.7486 3809.2935 
   5470.5000 1855.1941  76.0396  23.5019 0.0000  24.4435 0.0000    14.4439    10.0506  29.4932 3816.2947 
   5470.7500 1858.3815  78.9581  20.5606 0.0000  21.5925 0.0000    13.0481     5.4405  29.2152 3820.5898 
   5471.0000 1861.3020  82.5180  17.8156 0.0000  19.0245 0.0000    13.1648     6.4924  28.9233 3819.2639 
   5471.2500 1863.6930  87.5829  15.3892 0.0000  16.6481 0.0000    10.9251     9.9352  28.6478 3814.2793 
   5471.5000 1861.3020  93.3546  13.3029 0.0000  14.4303 0.0000    11.1670     4.5104  28.3814 3808.3386 
   5471.7500 1859.4436  99.9639  11.5785 0.0000  12.5755 0.0000    11.2741     5.7850  28.1230 3804.9451 
   5472.0000 1857.5841 107.3846  10.1177 0.0000  10.9841 0.0000     8.7023     6.6429  27.8578 3804.9973 
   5472.2500 1854.3967 114.3996   8.9662 0.0000   9.6489 0.0000     7.4820     3.7233  27.5926 3808.6040 
   5472.5000 1854.1321 121.4670   8.0986 0.0000   8.6259 0.0000     6.6681     4.8406  27.3579 3814.7568 
   5472.7500 1855.7246 128.1417   7.4794 0.0000   7.9128 0.0000     6.0869     7.7252  27.1383 3822.6052 
   5473.0000 1858.9120 136.8189   7.0359 0.0000   7.4391 0.0000     5.6091     9.3765  26.9407 3827.9097 
   5473.2500 1865.2867 144.6846   6.7393 0.0000   7.1372 0.0000     5.2156     6.3065  26.7576 3829.3411 
   5473.5000 1868.4729 151.3593   6.6163 0.0000   7.0072 0.0000     5.0483     8.8862  26.6488 3825.3635 
   5473.7500 1870.3324 155.0762   6.6265 0.0000   7.0439 0.0000     4.8721     6.5665  26.5910 3818.1501 
   5474.0000 1873.5198 156.1101   6.7664 0.0000   7.2418 0.0000     5.0831     5.6483  26.5697 3809.8765 
   5474.2500 1874.0503 155.1547   7.0005 0.0000   7.5188 0.0000     4.6651     3.4652  26.5703 3800.3303 
   5474.5000 1872.9882 154.7883   7.3138 0.0000   7.8258 0.0000     5.3814     3.3782  26.6147 3791.5269 
   5474.7500 1871.3945 156.4897   7.6677 0.0000   8.1767 0.0000     6.2205     1.1255  26.6810 3786.3823 
   5475.0000 1869.0045 158.3481   8.0877 0.0000   8.6172 0.0000     7.2348     4.2379  26.7619 3785.6394 
   5475.2500 1870.3324 158.5575   8.5042 0.0000   9.0735 0.0000     7.6949     6.9210  26.8203 3789.2993 
   5475.5000 1873.2540 154.0161   8.9617 0.0000   9.4699 0.0000     8.9025     5.6839  26.8714 3794.0720 
   5475.7500 1876.4413 145.4044   9.3690 0.0000   9.8282 0.0000     8.8212    12.1243  26.9297 3798.1028 
   5476.0000 1881.2213 134.2013   9.7279 0.0000  10.1258 0.0000     8.0598     8.5597  27.0027 3802.8230 
   5476.2500 1885.7366 123.8751  10.0698 0.0000  10.3910 0.0000     6.8179    13.4653  27.0684 3807.5967 
   5476.5000 1888.1265 116.4806  10.4893 0.0000  10.6820 0.0000     5.1837     4.0437  27.0976 3810.8848 
   5476.7500 1891.3138 113.3657  10.8951 0.0000  10.9494 0.0000     3.6088     2.3458  27.1268 3811.8918 
   5477.0000 1892.3760 113.4704  11.3219 0.0000  11.2263 0.0000     3.3005     2.7303  27.1268 3811.7864 
   5477.2500 1891.5797 114.4651  11.6510 0.0000  11.5912 0.0000     3.5292     3.7850  27.0897 3814.3315 
   5477.5000 1891.5797 117.0172  11.9108 0.0000  11.7972 0.0000     4.0337     6.8839  27.0088 3820.0601 
   5477.7500 1890.5176 119.7263  12.1100 0.0000  11.8322 0.0000     5.5781    12.1298  26.8987 3827.0081 
   5478.0000 1889.9860 122.5533  12.3110 0.0000  11.9440 0.0000     8.5575     6.4364  26.7668 3833.8494 
   5478.2500 1891.5797 126.9115  12.4338 0.0000  12.0274 0.0000     9.6142     6.7242  26.6415 3839.8423 
   5478.5000 1890.7822 134.1228  12.4454 0.0000  11.9832 0.0000     8.6164     7.0760  26.4931 3844.1384 
   5478.7500 1890.5176 142.3288  12.2619 0.0000  11.7352 0.0000     7.3610    10.3496  26.3356 3845.3577 
