~VERSION INFORMATION
VERS  .       2.0                       : CWLS LOG ASCII STANDARD - VERSION 2.0
WRAP  .       NO                        : One line per depth step
~WELL INFORMATION
#MNEM .UNIT   DATA                      : DESCRIPTION OF MNEMONIC
#-----.----   ----                      : -----------------------
STRT  .ft     1900.0000                 : Start
STOP  .ft     6773.0000                 : Stop
STEP  .ft        1.0000                 : Step increment
NULL  .       -999.2500                 : Null value
COMP  .       Venoco                    : Company
WELL  .       Bradley Minerals2-6       : Well
FLD   .       Bradley Minerals          : Field
LOC   .                                 : Location
SRVC  .                                 : Service company
DATE  .       1/26/2010                 : Logging date
CNTY  .       Monterey                  : County
STAT  .       California                : State
CTRY  .       USA                       : Country
API   .       040532202900              : API number
UWI   .       040532202900              : Unique Well Identifier
~CURVE INFORMATION
#MNEM .UNIT   API CODE                  : CURVE DESCRIPTION
#-----.----   --------                  : -----------------
DEPT  .ft                               : Measured Depth
GR    .aapi                             : Gamma Ray
ROP   .ft/hr                            : Rate of Penetration
VRMS  .G                                : Average Vibration
VPK   .G                                : Peak Vibration
T-TEMP.degF                             : Tool Temperature
~PARAMETER INFORMATION
#MNEM .UNIT   VALUE                     : DESCRIPTION
#-----.----   -----                     : -----------
~OTHER INFORMATION
~A  DEPT         GR        ROP       VRMS        VPK     T-TEMP   
 1900.0000  -999.2500  -999.2500     2.1057     5.0474    83.0080 
 1901.0000  -999.2500  -999.2500     2.1066     5.0401    83.0285 
 1902.0000  -999.2500  -999.2500     2.1074     5.0328    83.0490 
 1903.0000  -999.2500  -999.2500     2.1083     5.0256    83.0695 
 1904.0000  -999.2500  -999.2500     2.1091     5.0183    83.0900 
 1905.0000  -999.2500  -999.2500     2.1100     5.0111    83.1105 
 1906.0000  -999.2500  -999.2500     2.1108     5.0038    83.1310 
 1907.0000  -999.2500  -999.2500     2.1117     4.9966    83.1515 
 1908.0000  -999.2500  -999.2500     2.1125     4.9893    83.1720 
 1909.0000  -999.2500  -999.2500     2.1134     4.9820    83.1926 
 1910.0000  -999.2500  -999.2500     2.1143     4.9748    83.2131 
 1911.0000  -999.2500  -999.2500     2.1151     4.9675    83.2336 
 1912.0000  -999.2500  -999.2500     2.1160     4.9603    83.2541 
 1913.0000  -999.2500  -999.2500     2.1168     4.9530    83.2746 
 1914.0000  -999.2500  -999.2500     2.1177     4.9458    83.2951 
 1915.0000  -999.2500  -999.2500     2.1185     4.9385    83.3156 
 1916.0000  -999.2500  -999.2500     2.1194     4.9312    83.3361 
 1917.0000  -999.2500  -999.2500     2.1202     4.9240    83.3566 
 1918.0000  -999.2500  -999.2500     2.1211     4.9167    83.3771 
 1919.0000  -999.2500  -999.2500     2.1220     4.9095    83.3977 
 1920.0000  -999.2500  -999.2500     2.1228     4.9022    83.4182 
 1921.0000  -999.2500  -999.2500     2.1237     4.8950    83.4387 
 1922.0000  -999.2500  -999.2500     2.1245     4.8877    83.4592 
 1923.0000  -999.2500  -999.2500     2.1254     4.8804    83.4797 
 1924.0000  -999.2500  -999.2500     2.1262     4.8732    83.5002 
 1925.0000  -999.2500  -999.2500     2.1271     4.8659    83.5207 
 1926.0000  -999.2500  -999.2500     2.1279     4.8587    83.5412 
 1927.0000  -999.2500  -999.2500     2.1288     4.8514    83.5617 
 1928.0000  -999.2500  -999.2500     2.1297     4.8442    83.5823 
 1929.0000  -999.2500  -999.2500     2.1305     4.8369    83.6028 
 1930.0000  -999.2500  -999.2500     2.1314     4.8296    83.6233 
 1931.0000  -999.2500  -999.2500     2.1322     4.8224    83.6438 
 1932.0000  -999.2500  -999.2500     2.1331     4.8151    83.6643 
 1933.0000  -999.2500  -999.2500     2.1339     4.8079    83.6848 
 1934.0000  -999.2500  -999.2500     2.1348     4.8006    83.7053 
 1935.0000  -999.2500  -999.2500     2.1356     4.7934    83.7258 
 1936.0000  -999.2500  -999.2500     2.1365     4.7861    83.7463 
 1937.0000  -999.2500  -999.2500     2.1374     4.7788    83.7668 
 1938.0000  -999.2500  -999.2500     2.1382     4.7716    83.7874 
 1939.0000  -999.2500  -999.2500     2.1391     4.7643    83.8079 
 1940.0000  -999.2500  -999.2500     2.1399     4.7571    83.8284 
 1941.0000  -999.2500  -999.2500     2.1408     4.7498    83.8489 
 1942.0000  -999.2500  -999.2500     2.1416     4.7426    83.8694 
 1943.0000  -999.2500  -999.2500     2.1425     4.7353    83.8899 
 1944.0000  -999.2500  -999.2500     2.1433     4.7280    83.9104 
 1945.0000  -999.2500  -999.2500     2.1442     4.7208    83.9309 
 1946.0000  -999.2500  -999.2500     2.1451     4.7135    83.9514 
 1947.0000  -999.2500  -999.2500     2.1459     4.7063    83.9719 
 1948.0000  -999.2500  -999.2500     2.1468     4.6990    83.9925 
 1949.0000  -999.2500  -999.2500     2.1476     4.6918    84.0130 
 1950.0000  -999.2500  -999.2500     2.1485     4.6845    84.0335 
 1951.0000  -999.2500  -999.2500     2.1493     4.6772    84.0540 
 1952.0000  -999.2500  -999.2500     2.1502     4.6700    84.0745 
 1953.0000  -999.2500  -999.2500     2.1510     4.6627    84.0866 
 1954.0000  -999.2500  -999.2500     2.1519     4.6555    84.0866 
 1955.0000  -999.2500  -999.2500     2.1528     4.6482    84.0866 
 1956.0000  -999.2500  -999.2500     2.1536     4.6410    84.0866 
 1957.0000  -999.2500  -999.2500     2.1545     4.6337    84.0866 
 1958.0000  -999.2500  -999.2500     2.1553     4.6264    84.0866 
 1959.0000  -999.2500  -999.2500     2.1562     4.6192    84.0866 
 1960.0000  -999.2500  -999.2500     2.1570     4.6119    84.0866 
 1961.0000  -999.2500  -999.2500     2.1579     4.6047    84.0866 
 1962.0000  -999.2500  -999.2500     2.1587     4.5974    84.0866 
 1963.0000  -999.2500  -999.2500     2.1596     4.5902    84.0866 
 1964.0000  -999.2500  -999.2500     2.1605     4.5829    84.0866 
 1965.0000  -999.2500  -999.2500     2.1613     4.5756    84.0866 
 1966.0000    46.0911  -999.2500     2.1622     4.5684    84.0866 
 1967.0000    48.7481  -999.2500     2.1630     4.5611    84.0866 
 1968.0000    49.3939  -999.2500     2.1639     4.5539    84.0866 
 1969.0000    53.7417  -999.2500     2.1647     4.5466    84.0866 
 1970.0000    67.1274  -999.2500     2.1656     4.5394    84.0866 
 1971.0000    67.8850  -999.2500     2.1664     4.5354    84.0866 
 1972.0000    58.7463  -999.2500     2.1673     4.5354    84.0866 
 1973.0000    58.7967  -999.2500     2.1682     4.5354    84.0866 
 1974.0000    62.8987  -999.2500     2.1690     4.5354    84.0866 
 1975.0000    61.0327  -999.2500     2.1699     4.5354    84.0866 
 1976.0000    58.4320  -999.2500     2.1707     4.5354    84.0866 
 1977.0000    58.9616  -999.2500     2.1716     4.5354    84.0866 
 1978.0000    62.0821  -999.2500     2.1724     4.5354    84.0866 
 1979.0000    67.2500  -999.2500     2.1733     4.5354    84.0866 
 1980.0000    72.4591  -999.2500     2.1741     4.5354    84.0866 
 1981.0000    73.2917  -999.2500     2.1750     4.5354    84.0866 
 1982.0000    67.5819  -999.2500     2.1759     4.5354    84.0866 
 1983.0000    60.6703  -999.2500     2.1767     4.5354    84.0866 
 1984.0000    58.5219  -999.2500     2.1776     4.5354    84.0866 
 1985.0000    60.6471  -999.2500     2.1784     4.5354    84.0866 
 1986.0000    61.8861  -999.2500     2.1793     4.5354    84.0866 
 1987.0000    60.4007  -999.2500     2.1801     4.5354    84.0866 
 1988.0000    56.7184  -999.2500     2.1810     4.5354    84.1282 
 1989.0000    52.9353  -999.2500     2.1818     4.5354    84.2097 
 1990.0000    52.4070  -999.2500     2.1827     4.5354    84.2913 
 1991.0000    53.6696  -999.2500     2.1836     4.5354    84.3728 
 1992.0000    56.0000  -999.2500     2.1844     4.5354    84.4544 
 1993.0000    64.5339  -999.2500     2.1853     4.5354    84.5359 
 1994.0000    76.1910  -999.2500     2.1861     4.5354    84.6175 
 1995.0000    77.1529  -999.2500     2.1870     4.5354    84.6990 
 1996.0000    72.5356  -999.2500     2.1878     4.5354    84.7806 
 1997.0000    64.2008  -999.2500     2.1887     4.5354    84.8622 
 1998.0000    82.9659  -999.2500     2.1895     4.5354    84.9437 
 1999.0000    91.6646  -999.2500     2.1904     4.5354    85.0253 
 2000.0000    83.8324     0.0000     2.1913     4.5354    85.1068 
 2001.0000    76.4487     0.0000     2.1921     4.5354    85.1884 
 2002.0000    69.4947     0.0000     2.1930     4.5354    85.2699 
 2003.0000    62.5408     0.0000     2.1938     4.5354    85.3515 
 2004.0000    59.2739     0.0000     2.1947     4.5354    85.4330 
 2005.0000    62.8730     0.0000     2.1955     4.5354    85.5146 
 2006.0000    63.3828     0.0000     2.1964     4.5354    85.5961 
 2007.0000    63.7759     0.0000     2.1972     4.5354    85.6777 
 2008.0000    53.7163     0.0000     2.1981     4.5354    85.7593 
 2009.0000    58.7493     0.0000     2.1989     4.5354    85.8408 
 2010.0000    57.7808     0.0000     2.1998     4.5354    85.9224 
 2011.0000    58.2704     0.0000     2.2007     4.5354    86.0039 
 2012.0000    58.1112     4.9881     2.2015     4.5354    86.0855 
 2013.0000    59.2000    27.8954     2.2024     4.5354    86.1670 
 2014.0000    58.2873    54.2225     2.2032     4.5354    86.2486 
 2015.0000    56.1652    80.5496     2.2041     4.5314    86.3301 
 2016.0000    62.6257   101.9772     2.2033     4.4950    86.4117 
 2017.0000    70.1068   109.5324     2.1976     4.4586    86.4933 
 2018.0000    68.7101   121.5337     2.1919     4.4221    86.5669 
 2019.0000    67.9779   134.9667     2.1862     4.3857    86.5669 
