~Version Information
 VERS.                  2.0:   CWLS log ASCII Standard -VERSION 2.0
 WRAP.                   NO:   One line per depth step
~Well Information Block
#MNEM.UNIT     VALUE/NAME     DESCRIPTION
#---------     -----------    ---------------------------
 STRT.F              1831.0000: START DEPTH
 STOP.F              6790.7500: STOP DEPTH
 STEP.F                 0.2500: STEP DEPTH
 NULL.                 -999.25: NULL VALUE
 FL5 .        Long -120.825003:  LOCATIONLINE5
 FL4 .          Lat  35.869473:  LOCATIONLINE4
 FL3 .          X  6,020,938.4:  LOCATIONLINE3
 FL2 .          Y  1,840,736.7:  LOCATIONLINE2
 FL1 .        NAD 83 CA ZONE 4:  LOCATIONLINE1
 RIG .                KENAI 16:  RIG NAME
 CTRY.                      US:  COUNTRY NAME
 CNTY.                MONTEREY:  COUNTY NAME
 LUL .                   BKFLD:  LOGGINGUNITLOC
 FLD .           SOUTH SALINAS:  FIELD NAME
 WELL.     BRADLEY MINERALS 2-6:  WELL NAME
 COMP.             VENOCO INC.:  COMPANY
 MDS .        Operator Entered:  MAG DATA SOURCE
 SVCO.             Halliburton:  SERVICECONAME
 IQVR.                  R2.6.1:  WLIQ VERSION
 PROV.                      CA:  PROVINCE
 STAT.                      CA:  STATE NAME
 SON .                 7136075:  JOB NUMBER
 SECT.                       6:  SECTION
 TOWN.                     24S:  TOWNSHIP
 RANG.                     11E:  RANGE
 UWI .            040532202900:  UNIQUE WELL IDENTIFIER
 API .       04-053-22029-0000:  API NUMBER
 PDAT.                      GL:  PERMANENT DATUM
 DMF .                      KB:  DRILL MEAS FROM
 DATE.                        :  DATE
 SRVC.             Halliburton:  SERVICE COMPANY
 LOC .                        :  LOCATION
 LMF .                      KB:  LOG MEASURED FROM
 APD .ft               23.0000:  DEPTH ABOVE PD
 GRDC.deg               0.0000:  GRID CORRECTION
 MDEC.deg               0.0000:  MAGNETIC DECL
 AZTC.deg               0.0000:  AZM TOTAL CORR
 MFLD.nT            48150.0000:  MAGNETIC FIELD
 EGL .ft              542.0000:  GROUND ELEVATION
 EPD .ft              542.0000:  ELEVATION
 GVFD.g                 1.0000:  GRAVITY FIELD
 TVDS.ft              565.0000:  TVDSS CORRECTN
 EKB .ft              565.0000:  KB ELEVATION
 EDF .ft                0.0000:  DF ELEVATION
 MAGU.                 1444500:  MAGUTM CHECKSUM
 VSC .                       1:  VS TO CLOSURE
~Parameter Information Block
#MNEM.UNIT       Value        Description
#---------     -----------    ---------------------------
 LUL .                   BKFLD:  LoggingUnitLoc 
 LUN .                   61841:  LoggingUnitNum 
 ENGI.             D. SANDOVAL:  Engineer Name 
 DCS .               27-Jan-10:  DateCircEndT 
 TCS .                   05 42:  Time Ciculation Ended 
 TDCE.ucts  05.43.28 27-Jan-10:  Time Circ End 
 IQVR.     WL INSITE R2.6.1 (Build 9):  WLIQ Version 
 RUN .                       1:  Run Number 
 SVCN.               XRMI_WSST:  Service Name 
 SVCS.      
 TLAB.ucts  10.01.36 27-Jan-10:  Log Start Time 
 DATE.               27-Jan-10:  Run Date 
 TLAB.                   10 01:  LogStartTimeT 
 DLAB.               27-Jan-10:  LogStartDateT 
~Curve Information Block
#MNEM.UNIT                 API CODE     Curve Description
#---------               -----------    ---------------------------
 DEPT.F                 00 000 000 000:  Depth
 DLOD.lbs               00 000 000 000:  DLOD
 GRLL.api               00 000 000 000:  Natural Gamma Ray
 LLD .ohmm              00 000 000 000:  LLD
 LLDC.ohmm              00 000 000 000:  LLDC
 LLS .ohmm              00 000 000 000:  LLS
 LLSC.ohmm              00 000 000 000:  LLSC
 MSFL.ohmm              00 000 000 000:  MSFL
 MSFLUF.ohmm            00 000 000 000:  Msfl Unfiltered
 SP  .mV                00 000 000 000:  SP
 TENS.lbs               00 000 000 000:  Cable Tension
~A   DEPT      DLOD      GRLL      LLD     LLDC    LLS     LLSC     MSFL      MSFLUF      SP      TENS    
# ...
   3807.0000 1882.5492 125.7336   2.4591 0.0000   1.9312 0.0000     1.6474     1.2496  38.2241 3360.7178 
   3807.2500 1882.0187 124.7389   2.4384 0.0000   1.9308 0.0000     1.5727     1.6629  38.3037 3347.1938 
   3807.5000 1880.4250 120.4331   2.4435 0.0000   1.9304 0.0000     1.4911     1.4122  38.4126 3335.2070 
   3807.7500 1877.2377 113.9546   2.4436 0.0000   1.9292 0.0000     1.4911     1.4257  38.4619 3325.6606 
   3808.0000 1874.0503 108.5756   2.4269 0.0000   1.9126 0.0000     1.5106     0.8042  38.5555 3318.3953 
   3808.2500 1871.3945 103.4321   2.3965 0.0000   1.8965 0.0000     1.4859     1.5346  38.6127 3312.4556 
   3808.5000 1869.8008  99.1655   2.3752 0.0000   1.8826 0.0000     1.5129     1.2418  38.6559 3308.6890 
   3808.7500 1868.7388  98.1447   2.3688 0.0000   1.8835 0.0000     1.5225     1.2948  38.7361 3305.0303 
   3809.0000 1867.6766  98.9561   2.3774 0.0000   1.8796 0.0000     1.5359     1.2615  38.7945 3301.5300 
   3809.2500 1866.0830 100.1864   2.3766 0.0000   1.8768 0.0000     1.6003     1.1671  38.8091 3297.3394 
   3809.5000 1864.2235 102.3589   2.3519 0.0000   1.8656 0.0000     1.6045     1.5216  38.8316 3293.3096 
   3809.7500 1861.8335 105.1728   2.3333 0.0000   1.8388 0.0000     1.5400     1.4566  38.8176 3290.2861 
   3810.0000 1860.2399 107.0574   2.2966 0.0000   1.8078 0.0000     1.3836     0.9276  38.7672 3290.1272 
   3810.2500 1859.4436 109.2169   2.2883 0.0000   1.7863 0.0000     1.2904     1.2320  38.7976 3290.9756 
   3810.5000 1860.2399 110.6565   2.2554 0.0000   1.7724 0.0000     1.2199     0.9690  38.7836 3293.7861 
   3810.7500 1862.0994 112.3187   2.2314 0.0000   1.7529 0.0000     1.1848     1.2772  38.7769 3297.4460 
   3811.0000 1866.0830 111.8213   2.1942 0.0000   1.7325 0.0000     1.1872     1.9242  38.7848 3301.7944 
   3811.2500 1869.5361 110.0545   2.1635 0.0000   1.7068 0.0000     1.1974     2.2657  38.8073 3305.4543 
   3811.5000 1871.3945 107.1359   2.1345 0.0000   1.6926 0.0000     1.2452     1.7948  38.8815 3308.9021 
   3811.7500 1870.5983 103.6808   2.1460 0.0000   1.6951 0.0000     1.1798     0.9787  39.0141 3312.4023 
   3812.0000 1868.4729 100.1340   2.1740 0.0000   1.7116 0.0000     1.1786     0.9683  39.0506 3318.3953 
   3812.2500 1865.0209  97.8699   2.2098 0.0000   1.7355 0.0000     1.1538     1.3545  39.0573 3326.9866 
   3812.5000 1861.0372  97.4772   2.2397 0.0000   1.7548 0.0000     1.1728     0.9600  39.0493 3336.6394 
   3812.7500 1857.8499  97.2547   2.2715 0.0000   1.7729 0.0000     1.2119     1.2082  39.0633 3345.8679 
   3813.0000 1855.7246  98.1578   2.3278 0.0000   1.8004 0.0000     1.4559     1.1011  39.0700 3353.4521 
   3813.2500 1854.3967 101.0240   2.3563 0.0000   1.8227 0.0000     1.6909     1.1733  39.0098 3358.0659 
   3813.5000 1853.6005 104.3875   2.3518 0.0000   1.8243 0.0000     1.7469     1.4622  38.9131 3358.7556 
   3813.7500 1853.3346 107.5809   2.2777 0.0000   1.7889 0.0000     1.6952     1.1433  38.8316 3353.5044 
   3814.0000 1852.8042 111.0099   2.2105 0.0000   1.7277 0.0000     1.5663     1.4299  38.7580 3344.1169 
   3814.2500 1852.0067 113.6144   2.1287 0.0000   1.6748 0.0000     1.3631     1.3459  38.7513 3334.7305 
   3814.5000 1848.8195 114.4781   2.0592 0.0000   1.6281 0.0000     1.1404     1.1682  38.6790 3327.1985 
   3814.7500 1847.2268 114.6352   1.9978 0.0000   1.5841 0.0000     1.0967     1.3521  38.5993 3321.3123 
   3815.0000 1847.2268 114.4258   1.9416 0.0000   1.5450 0.0000     1.1154     1.2637  38.5348 3316.5918 
   3815.2500 1848.8195 114.4651   1.8995 0.0000   1.5136 0.0000     1.1748     1.3851  38.4631 3312.8796 
   3815.5000 1852.0067 114.3080   1.8930 0.0000   1.5105 0.0000     1.1810     1.3028  38.3913 3310.8643 
   3815.7500 1854.1321 114.3211   1.9156 0.0000   1.5261 0.0000     1.2492     1.1672  38.3937 3308.0527 
   3816.0000 1855.7246 115.5775   1.9570 0.0000   1.5546 0.0000     1.3193     1.4601  38.2770 3302.5374 
   3816.2500 1855.7246 117.2266   2.0044 0.0000   1.5860 0.0000     1.3654     1.5981  38.2411 3294.7944 
   3816.5000 1854.1321 118.2343   2.0152 0.0000   1.6049 0.0000     1.3398     2.0330  38.2125 3288.4827 
   3816.7500 1851.7410 118.5484   2.0476 0.0000   1.6149 0.0000     1.3226     1.8097  38.1614 3284.2397 
   3817.0000 1849.3510 118.9149   2.0725 0.0000   1.6336 0.0000     1.3310     1.2702  38.1243 3280.7397 
   3817.2500 1845.3673 118.6531   2.0988 0.0000   1.6470 0.0000     1.3007     1.2651  38.1608 3277.4519 
   3817.5000 1844.0394 119.0065   2.1180 0.0000   1.6667 0.0000     1.2956     1.5247  38.0854 3275.5420 
   3817.7500 1845.6332 120.0142   2.1226 0.0000   1.6726 0.0000     1.3023     1.2210  38.0769 3276.6035 
   3818.0000 1848.8195 122.0167   2.1147 0.0000   1.6637 0.0000     1.3884     1.7321  38.0088 3279.7314 
   3818.2500 1852.8042 125.3148   2.1113 0.0000   1.6584 0.0000     1.3966     1.1582  37.9334 3282.3311 
   3818.5000 1857.3182 129.2803   2.1161 0.0000   1.7048 0.0000     1.5078     1.1615  37.9248 3283.7625 
   3818.7500 1859.7094 132.9711   2.1183 0.0000   1.7495 0.0000     1.6490     1.1232  37.9613 3285.5134 
   3819.0000 1862.6309 135.9289   2.1279 0.0000   1.7659 0.0000     1.6653     1.3836  37.9236 3287.6343 
   3819.2500 1863.1614 136.9759   2.0973 0.0000   1.7519 0.0000     1.5970     1.3929  37.9674 3289.4377 
   3819.5000 1858.3815 134.8819   2.0826 0.0000   1.7324 0.0000     1.5667     1.4762  37.9674 3288.8547 
   3819.7500 1854.6625 131.2827   2.0627 0.0000   1.7226 0.0000     1.4356     1.4738  37.9607 3286.5740 
   3820.0000 1850.6788 127.6705   2.0494 0.0000   1.7140 0.0000     1.3583     1.5189  37.9765 3285.7256 
   3820.2500 1845.1016 125.5111   2.0219 0.0000   1.6526 0.0000     1.3331     1.2893  37.9698 3288.0051 
   3820.5000 1843.5078 124.1369   2.0046 0.0000   1.5863 0.0000     1.3062     1.8142  37.9188 3294.7944 
   3820.7500 1842.1799 124.6735   1.9796 0.0000   1.5519 0.0000     1.2817     1.0843  37.8829 3305.8784 
   3821.0000 1843.7737 126.3225   1.9667 0.0000   1.5330 0.0000     1.2649     1.0770  37.8251 3320.1453 
   3821.2500 1851.7410 127.9716   1.9653 0.0000   1.5308 0.0000     1.2227     1.0902  37.8184 3336.8516 
   3821.5000 1859.1777 130.4713   1.9603 0.0000   1.5285 0.0000     1.3371     1.3730  37.8555 3353.1868 
   3821.7500 1866.8793 133.6255   1.9773 0.0000   1.5298 0.0000     1.3758     1.3737  37.8695 3364.6418 
   3822.0000 1875.6439 135.5493   1.9857 0.0000   1.5395 0.0000     1.4046     1.2530  37.8908 3370.1052 
   3822.2500 1878.2997 136.8843   1.9991 0.0000   1.5476 0.0000     1.4607     1.3541  37.9048 3369.5745 
   3822.5000 1878.0339 137.4733   2.0121 0.0000   1.5537 0.0000     1.5059     1.3792  37.9334 3364.0588 
   3822.7500 1875.6439 134.3715   2.0332 0.0000   1.5606 0.0000     1.3910     1.1700  37.9546 3354.9368 
   3823.0000 1867.6766 132.0811   2.0286 0.0000   1.5619 0.0000     1.3108     1.7907  37.9540 3342.6323 
   3823.2500 1859.9740 129.9871   2.0319 0.0000   1.5562 0.0000     1.2638     1.1045  37.9607 3330.0103 
   3823.5000 1853.6005 128.7176   2.0229 0.0000   1.5496 0.0000     1.2604     1.0945  37.9680 3321.4177 
   3823.7500 1848.8195 129.4636   2.0130 0.0000   1.5429 0.0000     1.1898     1.1149  37.9388 3317.4934 
   3824.0000 1849.3510 131.8979   2.0029 0.0000   1.5415 0.0000     1.1937     1.1520  37.9461 3316.7507 
   3824.2500 1852.8042 133.4684   1.9699 0.0000   1.5280 0.0000     1.2382     1.1538  37.9388 3317.3870 
   3824.5000 1856.7878 135.6017   1.9462 0.0000   1.5131 0.0000     1.3145     1.0491  37.9461 3319.9331 
   3824.7500 1864.2235 136.2953   1.9231 0.0000   1.4936 0.0000     1.2656     1.2760  37.9753 3324.7068 
   3825.0000 1870.3324 134.8688   1.9118 0.0000   1.4821 0.0000     1.3889     1.5076  37.9461 3330.1157 
   3825.2500 1872.7224 133.7694   1.8859 0.0000   1.4700 0.0000     1.3811     1.5186  37.8950 3331.9722 
   3825.5000 1872.7224 132.0942   1.8801 0.0000   1.4572 0.0000     1.3525     1.5840  37.9102 3328.5776 
   3825.7500 1870.5983 129.1102   1.8596 0.0000   1.4382 0.0000     1.2487     1.5587  37.8890 3321.4177 
