~VERSION INFORMATION
VERS  .       2.0                       : CWLS LOG ASCII STANDARD - VERSION 2.0
WRAP  .       NO                        : One line per depth step
~WELL INFORMATION
#MNEM .UNIT   DATA                      : DESCRIPTION OF MNEMONIC
#-----.----   ----                      : -----------------------
STRT  .ft     1900.0000                 : Start
STOP  .ft     6773.0000                 : Stop
STEP  .ft        1.0000                 : Step increment
NULL  .       -999.2500                 : Null value
COMP  .       Venoco                    : Company
WELL  .       Bradley Minerals2-6       : Well
FLD   .       Bradley Minerals          : Field
LOC   .                                 : Location
SRVC  .                                 : Service company
DATE  .       1/26/2010                 : Logging date
CNTY  .       Monterey                  : County
STAT  .       California                : State
CTRY  .       USA                       : Country
API   .       040532202900              : API number
UWI   .       040532202900              : Unique Well Identifier
~CURVE INFORMATION
#MNEM .UNIT   API CODE                  : CURVE DESCRIPTION
#-----.----   --------                  : -----------------
DEPT  .ft                               : Measured Depth
GR    .aapi                             : Gamma Ray
ROP   .ft/hr                            : Rate of Penetration
VRMS  .G                                : Average Vibration
VPK   .G                                : Peak Vibration
T-TEMP.degF                             : Tool Temperature
~PARAMETER INFORMATION
#MNEM .UNIT   VALUE                     : DESCRIPTION
#-----.----   -----                     : -----------
~OTHER INFORMATION
~A  DEPT         GR        ROP       VRMS        VPK     T-TEMP   
# ...
 5380.0000   114.7424    49.1926     2.9401     7.3487   123.7717 
 5381.0000    85.0421    49.4493     2.9817     7.5521   123.7717 
 5382.0000    70.5288    41.7305     3.1354     8.2937   123.7717 
 5383.0000    90.5209    32.7658     3.3266     9.0544   123.7717 
 5384.0000   113.1387    31.1596     3.4646     9.5748   123.7717 
 5385.0000   110.4620    32.8867     3.4435     9.5061   123.7717 
 5386.0000    99.0796    43.1214     3.3813     9.3037   123.7717 
 5387.0000    98.1084    51.1008     3.3191     9.1012   123.7717 
 5388.0000    98.4000    46.7641     3.2570     8.8988   123.7717 
 5389.0000   110.0407    48.0990     3.1948     8.6964   123.7717 
 5390.0000   125.0458    42.2849     3.1326     8.4940   123.8944 
 5391.0000   132.2260    40.1084     3.0705     8.2915   124.1262 
 5392.0000   121.8697    44.2958     3.0083     8.0891   124.3579 
 5393.0000    88.8606    38.0355     2.9462     7.8867   124.5897 
 5394.0000    66.9402    31.0273     2.8840     7.6842   124.8215 
 5395.0000    68.3343    26.3587     2.8218     7.4818   125.0533 
 5396.0000    93.9997    29.0236     2.7597     7.2794   125.2851 
 5397.0000   102.9986    31.2672     2.6975     7.0770   125.5169 
 5398.0000   106.6076    29.8532     2.6353     6.8745   125.7486 
 5399.0000    88.4000    29.0434     2.5732     6.6721   125.9804 
 5400.0000    78.0866    34.4025     2.5240     6.5912   126.2122 
 5401.0000    77.8463    39.8511     2.5550     6.6905   126.2520 
 5402.0000    79.9929    39.5524     2.5860     6.7898   126.2520 
 5403.0000    78.5368    36.1319     2.6170     6.8891   126.2520 
 5404.0000    72.9667    32.3990     2.6480     6.9884   126.2520 
 5405.0000    67.9448    30.0791     2.6803     7.0551   126.2520 
 5406.0000    63.8925    30.5135     2.7334     7.0551   126.2520 
 5407.0000    73.5641    29.6451     2.7865     7.0551   126.2520 
 5408.0000    79.1652    26.5497     2.8396     7.0551   126.2520 
 5409.0000    76.5948    26.0069     2.8928     7.0551   126.2520 
 5410.0000    64.6823    25.3961     2.9459     7.0551   126.2520 
 5411.0000    52.6582    18.6391     2.9964     7.0875   126.2520 
 5412.0000    48.9581    15.8871     3.0292     7.1920   126.2520 
 5413.0000    36.2681    28.7803     3.0621     7.2966   126.2520 
 5414.0000    35.2414    35.0071     3.0949     7.4011   126.2520 
 5415.0000    46.0377    32.8347     3.1278     7.5057   126.2520 
 5416.0000    65.8947    31.9995     3.1235     7.3949   126.2520 
 5417.0000    69.7815    40.3360     3.0457     7.0595   126.2520 
 5418.0000    59.9596    36.0329     2.9679     6.7241   126.2520 
 5419.0000    52.7020    29.1164     2.8902     6.3887   126.2520 
 5420.0000    42.4348    39.8621     2.8124     6.0533   126.2520 
 5421.0000    46.2990    50.7550     2.7346     5.7179   126.2520 
 5422.0000    57.4888    54.4725     2.6867     6.8612   126.2639 
 5423.0000    56.2506    56.9443     2.7232     8.5508   127.5232 
 5424.0000    54.4933    54.9394     2.7597     8.5082   128.1896 
 5425.0000    54.2923    29.7526     2.7961     8.4656   128.5974 
 5426.0000    53.0450    27.0971     2.8326     8.4231   128.7323 
 5427.0000    52.8305    52.7567     2.8691     8.3805   128.7323 
 5428.0000    54.5112    57.6814     2.9056     8.3379   128.7323 
 5429.0000    58.3551    58.1788     2.9420     8.2954   128.7323 
 5430.0000    60.5262    61.2673     2.9785     8.2528   128.7323 
 5431.0000    59.1697    60.4901     3.0150     8.2102   128.7323 
 5432.0000    58.8908    40.8125     3.0515     8.1677   128.7323 
 5433.0000    53.7232    29.1189     3.0879     8.1251   128.7323 
 5434.0000    44.8110    34.5077     3.1244     8.0825   128.7323 
 5435.0000    44.3856    45.9788     3.1622     7.9298   128.6005 
 5436.0000    55.3750    51.6180     3.2030     7.6834   127.9390 
 5437.0000    61.9138    51.5367     3.2438     7.4371   127.2776 
 5438.0000    58.3471    49.4445     3.2846     7.1907   126.6161 
 5439.0000    52.0071    46.7340     3.3765     7.2916   125.9057 
 5440.0000    57.6173    41.6522     3.5309     7.8177   125.1354 
 5441.0000    65.5848    34.1602     3.6852     8.3438   124.3652 
 5442.0000    70.2075    31.2778     3.7217     8.5669   123.6381 
 5443.0000    72.8779    36.4391     3.5732     8.5669   123.0564 
 5444.0000    74.1188    41.6004     3.4247     8.5669   122.4746 
 5445.0000    70.6241    45.1633     3.2761     8.5669   121.8928 
 5446.0000    64.9970    43.5884     3.1333     8.4213   121.3110 
 5447.0000    66.4060    42.9033     3.0228     7.9507   120.4429 
 5448.0000    69.2275    43.2000     2.9123     7.4801   119.5648 
 5449.0000    69.3484    43.2000     2.8019     7.0095   118.6866 
 5450.0000    70.2720    51.6143     2.6914     6.5458   117.8085 
 5451.0000    71.5077    55.3251     2.6354     6.3413   117.5407 
 5452.0000    75.6805    57.5315     2.5875     6.1368   117.4092 
 5453.0000    82.3455    55.2296     2.5396     5.9323   117.2777 
 5454.0000    98.7800    46.9882     2.4917     5.7278   117.1462 
 5455.0000    84.5223    42.5218     2.4438     5.5233   117.0147 
 5456.0000    61.7527    47.0469     2.3959     5.3188   116.8832 
 5457.0000    53.1873    47.1336     2.3480     5.1143   116.7517 
 5458.0000    53.1271    49.4245     2.3001     4.9098   116.6201 
 5459.0000    54.1240    50.0032     2.2522     4.7053   116.4886 
 5460.0000    50.1226    32.2380     2.2047     4.5622   116.3571 
 5461.0000    52.3152    25.4024     2.2047     4.7202   116.3307 
 5462.0000    58.7704    32.2907     2.2047     4.8781   116.3307 
 5463.0000    68.0860    37.4938     2.2047     5.0361   116.3307 
 5464.0000    73.0909    48.7946     2.2047     5.1941   116.3307 
 5465.0000    57.6763    51.7163     2.2047     5.3521   116.3307 
 5466.0000    49.9357    40.5567     2.2047     5.5100   116.3307 
 5467.0000    69.0901    29.3515     2.2161     5.5433   116.3307 
 5468.0000    71.5004    30.7510     2.2383     5.5433   116.3307 
 5469.0000    60.0600    36.4462     2.2605     5.5433   116.3307 
 5470.0000    56.8827    34.7448     2.2826     5.5433   116.3307 
 5471.0000    55.4282    32.2110     2.3048     5.5433   116.3307 
 5472.0000    50.8871    31.3484     2.3270     5.5433   116.3307 
 5473.0000    47.3720    28.8553     2.3491     5.5433   116.3307 
 5474.0000    49.7984    26.2197     2.3535     5.4500   116.3307 
 5475.0000    56.4829    27.7868     2.3322     5.3129   116.3307 
 5476.0000    73.1865    28.9020     2.3109     5.1758   116.3307 
 5477.0000    97.7568    30.7956     2.2895     5.0387   116.3307 
 5478.0000   111.9633    39.1116     2.2682     4.9016   116.3307 
 5479.0000   117.2993    44.8190     2.2469     4.7645   116.3307 
 5480.0000    99.9828    42.1543     2.2256     4.6274   116.3307 
 5481.0000    85.2427    37.5982     2.2064     4.5039   116.3307 
 5482.0000    82.4965    46.4014     2.2906     4.4081   116.3307 
 5483.0000   107.8712    49.3045     2.3748     4.3123   116.3307 
 5484.0000   119.1080    54.0043     2.4590     4.2165   116.3307 
 5485.0000   109.4269    64.1055     2.5084     4.1206   116.3307 
 5486.0000   104.2960    74.2066     2.4680     4.0377   116.3307 
 5487.0000    88.5185    84.3078     2.4276     4.1271   116.3307 
 5488.0000    86.6815    76.8687     2.3873     4.2165   116.3307 
 5489.0000   111.3716    51.5232     2.3469     4.3058   116.3307 
 5490.0000   109.4192    66.0645     2.3065     4.3952   116.3307 
 5491.0000    88.5040    91.3674     2.2661     4.4846   116.3307 
 5492.0000    86.7745    92.3923     2.2257     4.5595   116.3307 
 5493.0000    97.6114    81.2188     2.2047     4.6153   116.3307 
 5494.0000   101.6168    35.5784     2.2047     4.6711   116.3307 
 5495.0000    70.0415    22.6628     2.2047     4.7269   116.3307 
 5496.0000    59.1586    31.2789     2.2047     4.7827   116.3307 
 5497.0000    49.9692    28.2647     2.2047     4.8385   116.3307 
 5498.0000    43.7491    15.8546     2.2047     4.8943   116.3307 
 5499.0000    44.1632    19.1784     2.2047     4.9501   116.3307 
