~VERSION INFORMATION
VERS  .       2.0                       : CWLS LOG ASCII STANDARD - VERSION 2.0
WRAP  .       NO                        : One line per depth step
~WELL INFORMATION
#MNEM .UNIT   DATA                      : DESCRIPTION OF MNEMONIC
#-----.----   ----                      : -----------------------
STRT  .ft     1900.0000                 : Start
STOP  .ft     6773.0000                 : Stop
STEP  .ft        1.0000                 : Step increment
NULL  .       -999.2500                 : Null value
COMP  .       Venoco                    : Company
WELL  .       Bradley Minerals2-6       : Well
FLD   .       Bradley Minerals          : Field
LOC   .                                 : Location
SRVC  .                                 : Service company
DATE  .       1/26/2010                 : Logging date
CNTY  .       Monterey                  : County
STAT  .       California                : State
CTRY  .       USA                       : Country
API   .       040532202900              : API number
UWI   .       040532202900              : Unique Well Identifier
~CURVE INFORMATION
#MNEM .UNIT   API CODE                  : CURVE DESCRIPTION
#-----.----   --------                  : -----------------
DEPT  .ft                               : Measured Depth
GR    .aapi                             : Gamma Ray
ROP   .ft/hr                            : Rate of Penetration
VRMS  .G                                : Average Vibration
VPK   .G                                : Peak Vibration
T-TEMP.degF                             : Tool Temperature
~PARAMETER INFORMATION
#MNEM .UNIT   VALUE                     : DESCRIPTION
#-----.----   -----                     : -----------
~OTHER INFORMATION
~A  DEPT         GR        ROP       VRMS        VPK     T-TEMP   
# ...
 4420.0000    63.7412    66.2746     2.2047     4.9618   116.3307 
 4421.0000    57.4924    63.4404     2.2047     4.9915   116.3307 
 4422.0000    72.2013    58.9478     2.2047     5.0211   116.3307 
 4423.0000    76.8270    59.4804     2.2047     5.0053   116.3307 
 4424.0000    74.8046    67.6453     2.2047     4.9168   116.3307 
 4425.0000    78.1840    78.4584     2.2047     4.8283   116.3307 
 4426.0000    81.0775    77.5508     2.2047     4.7397   116.3307 
 4427.0000    83.9129    71.3652     2.2047     4.6512   116.3307 
 4428.0000    88.1170    66.5310     2.2047     4.5627   116.3307 
 4429.0000    84.9970    64.8620     2.2047     4.4741   116.3307 
 4430.0000    79.4614    68.4589     2.2047     4.3856   116.3307 
 4431.0000    78.6431    77.2475     2.2047     4.2971   116.3307 
 4432.0000    83.6680    73.3573     2.2047     4.2086   116.3307 
 4433.0000    85.9800    62.5041     2.2047     4.1200   116.3307 
 4434.0000    83.2656    58.1699     2.2047     4.0315   116.3307 
 4435.0000    81.9558    56.7484     2.2218     4.1232   116.3307 
 4436.0000    81.0597    57.7878     2.2498     4.2149   116.3307 
 4437.0000    82.4511    58.7672     2.2778     4.3066   116.3307 
 4438.0000    84.7178    57.6085     2.3058     4.3982   116.3307 
 4439.0000    89.8588    50.7104     2.3338     4.4899   116.3307 
 4440.0000    95.4014    36.4656     2.3618     4.5816   116.3307 
 4441.0000    97.0617    33.4168     2.3898     4.6733   116.3307 
 4442.0000    88.0474    37.1497     2.4178     4.7650   116.3307 
 4443.0000    82.8942    40.7952     2.4458     4.8567   116.3307 
 4444.0000    82.6111    40.1894     2.4738     4.9484   116.3307 
 4445.0000    81.6656    47.0147     2.5018     5.0381   116.3307 
 4446.0000    79.1549    43.1568     2.4755     4.8706   116.3307 
 4447.0000    76.5169    25.5870     2.3528     4.7032   116.3307 
 4448.0000    76.3077    13.0631     2.2301     4.5357   116.3307 
 4449.0000    77.2527    12.6068     2.1074     4.3682   116.3307 
 4450.0000    79.2648    19.8358     2.0863     4.2007   116.3307 
 4451.0000    87.2840    25.8354     2.1629     4.0333   116.3307 
 4452.0000    92.1263    34.9230     2.1998     4.0658   116.3307 
 4453.0000    89.3832    35.2552     2.1889     4.1004   116.3307 
 4454.0000    87.9745    27.6451     2.1780     4.1350   116.3307 
 4455.0000    90.9312    37.7128     2.1671     4.1696   116.3307 
 4456.0000    95.6713    57.7230     2.1562     4.2042   116.3307 
 4457.0000    99.0231    65.0337     2.1453     4.2389   116.3307 
 4458.0000    93.1226    70.2982     2.1344     4.2735   116.3307 
 4459.0000    86.2516    70.4349     2.1235     4.3081   116.3307 
 4460.0000    83.7970    61.0533     2.1126     4.3427   116.3307 
 4461.0000    80.6373    56.1063     2.1016     4.3773   116.3307 
 4462.0000    83.1821    59.2742     2.0907     4.4120   116.3307 
 4463.0000    89.6096    61.8138     2.0798     4.4466   116.3307 
 4464.0000    99.7778    63.7987     2.0689     4.4812   116.3307 
 4465.0000    99.4885    67.1150     2.0580     4.5158   116.3307 
 4466.0000    91.2928    68.3012     2.0474     4.5473   116.3307 
 4467.0000    89.4286    66.4680     2.0645     4.5746   116.3307 
 4468.0000    89.0649    67.4924     2.0816     4.6018   116.3307 
 4469.0000    83.8189    73.2247     2.0986     4.6291   116.3307 
 4470.0000    82.0910    75.8711     2.1157     4.6564   116.3307 
 4471.0000    80.8141    49.8412     2.1328     4.6837   116.3307 
 4472.0000    80.0000    44.5587     2.1499     4.7110   116.3307 
 4473.0000    79.3206    61.9385     2.1669     4.7383   116.3307 
 4474.0000    80.0445    62.1702     2.1840     4.7656   116.3307 
 4475.0000    80.3442    61.0836     2.2011     4.7929   116.3307 
 4476.0000    80.6057    59.8075     2.2182     4.8202   116.3307 
 4477.0000    78.0834    62.8081     2.2353     4.8475   116.3307 
 4478.0000    75.1989    72.1361     2.2523     4.8748   116.3307 
 4479.0000    77.6276    78.2661     2.2694     4.9021   116.3307 
 4480.0000    74.1264    81.2221     2.2865     4.9294   116.3307 
 4481.0000    73.6100    81.5133     2.3036     4.9567   116.3307 
 4482.0000    73.9777    81.4246     2.3206     4.9839   116.3307 
 4483.0000    73.9349    79.4608     2.3377     5.0112   116.3307 
 4484.0000    77.3754    72.3879     2.3548     5.0385   116.3307 
 4485.0000    82.0644    59.9657     2.3622     4.9895   116.3307 
 4486.0000    84.1669    63.6404     2.3622     4.9380   116.3307 
 4487.0000    82.6720    74.4763     2.3622     4.8865   116.3307 
 4488.0000    84.5251    69.9957     2.3622     4.8351   116.3307 
 4489.0000    94.9922    65.4323     2.3622     4.7836   116.3307 
 4490.0000   104.7822    63.5730     2.3622     4.7321   116.3307 
 4491.0000    90.7331    65.6714     2.3622     4.6806   116.3307 
 4492.0000    75.8253    70.7453     2.3622     4.6292   116.3307 
 4493.0000    79.0578    67.4008     2.3622     4.5777   116.3307 
 4494.0000    82.9905    65.6428     2.3622     4.5262   116.3307 
 4495.0000    83.7475    67.9512     2.3343     4.4749   116.3307 
 4496.0000    79.4383    70.1813     2.3021     4.4235   116.3307 
 4497.0000    77.8438    72.6527     2.2699     4.3721   116.3307 
 4498.0000    84.3227    75.2514     2.2378     4.3207   116.3307 
 4499.0000    84.9024    80.9999     2.2056     4.2694   116.3307 
 4500.0000    83.4896    80.0868     2.1735     4.2180   116.3307 
 4501.0000    84.0839    76.8303     2.1413     4.1666   116.3307 
 4502.0000    90.4863    64.8976     2.1091     4.1153   116.3307 
 4503.0000    92.1667    41.6193     2.0770     4.0639   116.3307 
 4504.0000    89.7636    39.2732     2.0559     4.2239   116.3307 
 4505.0000    87.3475    34.3295     2.1704     4.7447   116.3307 
 4506.0000    85.7584    28.5316     2.2849     5.2654   116.3307 
 4507.0000    88.4927    21.2262     2.3994     5.7861   116.3307 
 4508.0000    87.9897    18.2924     2.5139     5.8754   116.1854 
 4509.0000    82.3412    19.5101     2.4513     5.5308   115.7811 
 4510.0000    79.7939    14.5691     2.3792     5.1862   115.3768 
 4511.0000    80.4645    20.9709     2.3071     4.8415   114.9724 
 4512.0000    82.1810    44.8811     2.2350     4.4969   114.5681 
 4513.0000    85.1568    50.0164     2.1629     4.1523   114.1638 
 4514.0000    85.3145    47.0773     2.0908     4.2866   113.8504 
 4515.0000    82.9634    46.2472     2.0472     4.6792   113.8504 
 4516.0000    83.0065    45.0636     2.0472     5.0719   113.8504 
 4517.0000    83.3684    64.2300     2.0472     5.4646   113.8504 
 4518.0000    84.2500    68.2187     2.0472     5.8573   113.8504 
 4519.0000    88.0000    65.2291     2.0472     5.9416   113.8504 
 4520.0000    89.0010    67.8721     2.0472     5.7369   113.8504 
 4521.0000    91.1714    65.7641     2.0472     5.5321   113.8504 
 4522.0000    95.4301    64.4213     2.0472     5.3274   113.8504 
 4523.0000    99.2857    66.9277     2.0472     5.1227   113.8504 
 4524.0000    94.5000    70.3753     2.0472     4.9180   113.8504 
 4525.0000    90.5139    70.1801     2.0472     4.7133   113.8504 
 4526.0000    88.0776    65.7845     2.0472     4.5086   113.8504 
 4527.0000    83.9718    61.3300     2.0472     4.3039   113.8504 
 4528.0000    85.1933    56.9179     2.0472     4.0992   113.8504 
 4529.0000    81.1033    57.0844     2.0496     4.0315   113.8504 
 4530.0000    75.2904    63.4962     2.0593     4.0315   114.1753 
 4531.0000    75.0000    64.3414     2.0690     4.0315   114.5672 
 4532.0000    78.1389    64.2593     2.0787     4.0315   114.9590 
 4533.0000    81.5643    51.6341     2.0885     4.0315   115.3509 
 4534.0000    83.4669    44.2732     2.0982     4.0315   115.7427 
 4535.0000    82.1501    53.4954     2.1079     4.0315   116.1346 
 4536.0000    79.6003    57.0854     2.1176     4.0315   116.3307 
 4537.0000    80.1117    58.1476     2.1273     4.0315   116.3307 
 4538.0000    70.3700    60.1452     2.1371     4.0315   116.3307 
 4539.0000    62.1949    67.5252     2.1468     4.0315   116.3307 
