~VERSION INFORMATION
VERS  .       2.0                       : CWLS LOG ASCII STANDARD - VERSION 2.0
WRAP  .       NO                        : One line per depth step
~WELL INFORMATION
#MNEM .UNIT   DATA                      : DESCRIPTION OF MNEMONIC
#-----.----   ----                      : -----------------------
STRT  .ft     1900.0000                 : Start
STOP  .ft     6773.0000                 : Stop
STEP  .ft        1.0000                 : Step increment
NULL  .       -999.2500                 : Null value
COMP  .       Venoco                    : Company
WELL  .       Bradley Minerals2-6       : Well
FLD   .       Bradley Minerals          : Field
LOC   .                                 : Location
SRVC  .                                 : Service company
DATE  .       1/26/2010                 : Logging date
CNTY  .       Monterey                  : County
STAT  .       California                : State
CTRY  .       USA                       : Country
API   .       040532202900              : API number
UWI   .       040532202900              : Unique Well Identifier
~CURVE INFORMATION
#MNEM .UNIT   API CODE                  : CURVE DESCRIPTION
#-----.----   --------                  : -----------------
DEPT  .ft                               : Measured Depth
GR    .aapi                             : Gamma Ray
ROP   .ft/hr                            : Rate of Penetration
VRMS  .G                                : Average Vibration
VPK   .G                                : Peak Vibration
T-TEMP.degF                             : Tool Temperature
~PARAMETER INFORMATION
#MNEM .UNIT   VALUE                     : DESCRIPTION
#-----.----   -----                     : -----------
~OTHER INFORMATION
~A  DEPT         GR        ROP       VRMS        VPK     T-TEMP   
# ...
 5980.0000   118.2353    53.4000     2.1919     4.5354   126.2520 
 5981.0000   117.0126    47.3527     2.2024     4.5117   126.2520 
 5982.0000   116.9432    42.2488     2.1870     4.4623   126.2520 
 5983.0000   118.8379    41.9483     2.1716     4.4128   126.2520 
 5984.0000   121.1549    38.1858     2.1562     4.3634   126.2520 
 5985.0000   122.3089    34.7676     2.1408     4.3139   126.2520 
 5986.0000   120.9091    36.0434     2.1254     4.2645   126.2520 
 5987.0000   125.1228    32.6778     2.1100     4.2150   126.2520 
 5988.0000   131.0587    35.2219     2.0946     4.1656   126.2520 
 5989.0000   128.8879    44.4382     2.0792     4.1161   126.2520 
 5990.0000   131.8890    46.2410     2.0638     4.0667   126.2520 
 5991.0000   135.2628    45.5490     2.0484     4.0447   126.2520 
 5992.0000   138.1122    46.7162     2.0472     4.0903   126.3753 
 5993.0000   141.6426    48.6582     2.0472     4.1360   126.5985 
 5994.0000   134.1608    49.5282     2.0472     4.1816   126.8217 
 5995.0000   129.8889    51.7837     2.0472     4.2272   127.0450 
 5996.0000   130.4686    55.3666     2.0472     4.2729   127.2682 
 5997.0000   126.4855    55.9154     2.0472     4.3185   127.4914 
 5998.0000   127.5132    54.5402     2.0472     4.3641   127.7147 
 5999.0000   130.8755    53.0970     2.0472     4.4098   127.9379 
 6000.0000   131.9345    51.7135     2.0472     4.4554   128.1611 
 6001.0000   138.4890    48.6295     2.0472     4.5010   128.3844 
 6002.0000   146.1969    47.1582     2.0472     4.5470   128.6076 
 6003.0000   144.0674    49.0509     2.0598     4.5941   128.7323 
 6004.0000   140.8571    51.1663     2.0745     4.6411   128.7323 
 6005.0000   140.4247    52.1714     2.0893     4.6881   128.7323 
 6006.0000   129.2563    50.5557     2.1040     4.7352   128.7323 
 6007.0000   119.0463    49.3576     2.1187     4.7822   128.7323 
 6008.0000   123.9443    49.1635     2.1335     4.8292   128.7323 
 6009.0000   129.0191    49.5523     2.1482     4.8763   128.7323 
 6010.0000   128.1818    52.0943     2.1629     4.9233   128.7323 
 6011.0000   128.0056    53.9265     2.1777     4.9703   128.7323 
 6012.0000   131.0602    54.3021     2.1924     5.0174   128.7323 
 6013.0000   131.9743    54.1231     2.2022     5.0138   128.7323 
 6014.0000   132.3231    54.0076     2.1866     4.9658   128.7323 
 6015.0000   131.8137    53.6358     2.1710     4.9178   128.7323 
 6016.0000   133.6252    53.0419     2.1555     4.8697   128.7323 
 6017.0000   132.8182    52.9699     2.1399     4.8217   128.7323 
 6018.0000   129.6232    54.0745     2.1244     4.7737   128.7323 
 6019.0000   130.4732    54.4000     2.1088     4.7256   128.7323 
 6020.0000   129.4319    54.4000     2.0933     4.6776   128.7323 
 6021.0000   129.9252    60.3733     2.0777     4.6296   128.7323 
 6022.0000   137.0236    67.0227     2.0622     4.5816   128.7323 
 6023.0000   132.6972    67.8215     2.0472     4.5354   128.7323 
 6024.0000   113.8593    67.4300     2.0472     4.5354   128.7323 
 6025.0000   108.7980    64.2010     2.0472     4.5354   128.8687 
 6026.0000   119.2427    48.7941     2.0472     4.5354   129.0756 
 6027.0000   125.0605    43.6411     2.0472     4.5354   129.2824 
 6028.0000   127.4904    55.9481     2.0472     4.5354   129.4893 
 6029.0000   131.7324    63.4312     2.0472     4.5354   129.6961 
 6030.0000   137.4988    64.2759     2.0472     4.5354   129.9030 
 6031.0000   143.9205    64.9877     2.0472     4.5354   130.1099 
 6032.0000   148.0410    65.0137     2.0472     4.5354   130.3167 
 6033.0000   148.8745    65.0473     2.0472     4.5354   130.5236 
 6034.0000   147.8375    64.0934     2.0472     4.5354   130.7305 
 6035.0000   142.5856    61.0494     2.0472     4.5354   130.9373 
 6036.0000   140.5588    59.1001     2.0472     4.5354   131.1442 
 6037.0000   141.9930    59.5562     2.0472     4.5354   131.2126 
 6038.0000   131.8526    60.6147     2.0472     4.5354   131.2126 
 6039.0000   130.3598    60.7880     2.0472     4.5354   131.2126 
 6040.0000   131.5767    59.8020     2.0472     4.5354   131.2126 
 6041.0000   131.5367    59.9495     2.0472     4.5354   131.2126 
 6042.0000   127.6944    60.8318     2.0472     4.5354   131.2126 
 6043.0000   128.5321    60.9535     2.0472     4.5354   131.2126 
 6044.0000   126.8629    61.4587     2.0472     4.5354   131.2126 
 6045.0000   126.8928    62.1604     2.0472     4.5354   131.2126 
 6046.0000   114.9006    59.6132     2.0472     4.5354   131.2126 
 6047.0000   109.3335    57.9178     2.0472     4.5354   131.2126 
 6048.0000   121.8903    60.4259     2.0904     4.5354   131.2126 
 6049.0000   128.4197    62.4048     2.1395     4.5354   131.2126 
 6050.0000   132.8997    62.7481     2.1887     4.5354   131.2126 
 6051.0000   133.2612    55.3680     2.2378     4.5354   131.2126 
 6052.0000   132.7237    57.7347     2.2869     4.5354   131.2126 
 6053.0000   129.1456    68.9571     2.3360     4.5354   131.2126 
 6054.0000   126.2775    66.6644     2.3851     4.5354   131.2126 
 6055.0000   131.2748    59.8907     2.4342     4.5354   131.2126 
 6056.0000   133.2082    61.0792     2.4833     4.5354   131.2126 
 6057.0000   131.7130    65.4031     2.5062     4.5354   131.0675 
 6058.0000   132.4545    66.7495     2.4540     4.5354   130.7584 
 6059.0000   130.1024    68.3511     2.4019     4.5354   130.4493 
 6060.0000   126.3941    68.4839     2.3498     4.5354   130.1402 
 6061.0000   121.5919    68.6475     2.2976     4.5354   129.8311 
 6062.0000   128.9504    64.9166     2.2455     4.5354   129.5219 
 6063.0000   133.9182    57.5821     2.1934     4.5354   129.2128 
 6064.0000   128.1843    60.5075     2.1413     4.5370   128.9037 
 6065.0000   125.7400    68.2867     2.0891     4.5633   128.7887 
 6066.0000   127.4491    66.6807     2.0490     4.5896   128.9152 
 6067.0000   125.1593    64.5931     2.0578     4.6159   129.0418 
 6068.0000   125.3287    63.9238     2.0666     4.6421   129.1684 
 6069.0000   127.9790    63.9592     2.0755     4.6684   129.2949 
 6070.0000   127.6186    64.4747     2.0843     4.6947   129.4215 
 6071.0000   128.3077    64.3871     2.0931     4.7210   129.5481 
 6072.0000   129.0573    64.0963     2.1020     4.7473   129.6747 
 6073.0000   126.9086    64.4165     2.1108     4.7736   129.8012 
 6074.0000   109.6150    63.7451     2.1196     4.7999   129.9278 
 6075.0000    94.8000    60.9592     2.1285     4.8262   130.0544 
 6076.0000   105.4066    61.8028     2.1373     4.8524   130.1810 
 6077.0000   119.6748    64.5638     2.1461     4.8787   130.3075 
 6078.0000   118.6299    64.6380     2.1550     4.9050   130.4341 
 6079.0000   120.6424    64.7154     2.1638     4.9313   130.5607 
 6080.0000   122.8241    64.3290     2.1726     4.9576   130.6872 
 6081.0000   120.3071    63.9781     2.1815     4.9839   130.8138 
 6082.0000   124.8535    64.0354     2.1903     5.0102   130.9404 
 6083.0000   114.4836    64.6000     2.1991     5.0365   131.0670 
 6084.0000   110.0448    66.8400     2.2006     4.9759   131.1935 
 6085.0000   113.3972    67.6527     2.1895     4.9045   131.2126 
 6086.0000   116.8006    69.7752     2.1783     4.8332   131.2126 
 6087.0000   119.4208    72.6255     2.1671     4.7618   131.2126 
 6088.0000   122.8299    71.9053     2.1560     4.6904   131.2126 
 6089.0000   121.3042    71.8175     2.1448     4.6191   131.2126 
 6090.0000   115.6700    71.9250     2.1336     4.5477   131.2126 
 6091.0000   110.6087    71.9171     2.1225     4.4763   131.2126 
 6092.0000   105.7311    71.7816     2.1113     4.4050   131.2126 
 6093.0000   108.1597    71.6306     2.1002     4.3336   131.2126 
 6094.0000   109.0000    71.5844     2.0890     4.2622   131.2126 
 6095.0000   105.3719    71.4176     2.0778     4.1909   131.2126 
 6096.0000   106.3499    71.5184     2.0667     4.1195   131.2126 
 6097.0000   118.0364    70.3648     2.0555     4.0481   131.2126 
 6098.0000   124.3747    66.0077     2.0472     4.0315   131.2126 
 6099.0000   119.3333    64.0633     2.0472     4.0315   131.3418 
