~VERSION INFORMATION
VERS  .       2.0                       : CWLS LOG ASCII STANDARD - VERSION 2.0
WRAP  .       NO                        : One line per depth step
~WELL INFORMATION
#MNEM .UNIT   DATA                      : DESCRIPTION OF MNEMONIC
#-----.----   ----                      : -----------------------
STRT  .ft     1900.0000                 : Start
STOP  .ft     6773.0000                 : Stop
STEP  .ft        1.0000                 : Step increment
NULL  .       -999.2500                 : Null value
COMP  .       Venoco                    : Company
WELL  .       Bradley Minerals2-6       : Well
FLD   .       Bradley Minerals          : Field
LOC   .                                 : Location
SRVC  .                                 : Service company
DATE  .       1/26/2010                 : Logging date
CNTY  .       Monterey                  : County
STAT  .       California                : State
CTRY  .       USA                       : Country
API   .       040532202900              : API number
UWI   .       040532202900              : Unique Well Identifier
~CURVE INFORMATION
#MNEM .UNIT   API CODE                  : CURVE DESCRIPTION
#-----.----   --------                  : -----------------
DEPT  .ft                               : Measured Depth
GR    .aapi                             : Gamma Ray
ROP   .ft/hr                            : Rate of Penetration
VRMS  .G                                : Average Vibration
VPK   .G                                : Peak Vibration
T-TEMP.degF                             : Tool Temperature
~PARAMETER INFORMATION
#MNEM .UNIT   VALUE                     : DESCRIPTION
#-----.----   -----                     : -----------
~OTHER INFORMATION
~A  DEPT         GR        ROP       VRMS        VPK     T-TEMP   
# ...
 3100.0000    62.8711   128.0358     2.6397     5.1047    96.4882 
 3101.0000    59.5165   124.7716     2.6342     4.9839    96.4882 
 3102.0000    57.8847   121.9230     2.6287     4.8630    96.4882 
 3103.0000    58.6344   121.7757     2.6232     4.7422    96.4882 
 3104.0000    57.5349   124.1444     2.6177     4.6213    96.4882 
 3105.0000    54.6727   126.0811     2.6123     4.5419    96.4882 
 3106.0000    59.4080   126.4346     2.6068     4.5642    96.4882 
 3107.0000    65.9443   127.6266     2.6013     4.5866    96.4882 
 3108.0000    72.0000   128.8944     2.5958     4.6089    96.4882 
 3109.0000    72.9240   129.7535     2.5903     4.6312    96.4882 
 3110.0000    72.1324   130.9774     2.5848     4.6536    96.4882 
 3111.0000    73.9400   132.2216     2.5794     4.6759    96.4882 
 3112.0000    79.4308   133.1617     2.5739     4.6983    96.4882 
 3113.0000    92.4892   133.7701     2.5684     4.7206    96.4882 
 3114.0000    95.5597   132.7044     2.5629     4.7429    96.4882 
 3115.0000    92.3638   132.5903     2.5574     4.7653    96.4882 
 3116.0000    84.0789    98.7471     2.5520     4.7876    96.4882 
 3117.0000    77.8168    90.3697     2.5465     4.8099    96.4882 
 3118.0000    77.3028   130.5396     2.5410     4.8323    96.4882 
 3119.0000    75.2052   144.8287     2.5355     4.8546    96.4882 
 3120.0000    67.3105   144.0559     2.5300     4.8770    96.4882 
 3121.0000    63.8743   141.5910     2.5246     4.8993    96.4882 
 3122.0000    64.2829   140.3844     2.5191     4.9216    96.4882 
 3123.0000    62.2243   140.4000     2.5136     4.9440    96.4882 
 3124.0000    52.5737   140.4000     2.5081     4.9663    96.4882 
 3125.0000    47.1794   140.4000     2.5026     4.9886    96.4882 
 3126.0000    46.8005   140.4000     2.4972     5.0110    96.4882 
 3127.0000    49.7575   140.4000     2.4917     5.0333    96.4882 
 3128.0000    57.2282   140.4000     2.4862     5.0557    96.4882 
 3129.0000    59.1797   140.4000     2.4807     5.0780    96.4882 
 3130.0000    60.1052   140.4000     2.4752     5.1003    96.4882 
 3131.0000    60.6587   139.6384     2.4698     5.1227    96.4882 
 3132.0000    63.4216   133.5865     2.4643     5.1450    96.4882 
 3133.0000    67.0667   131.2716     2.4588     5.1673    96.4882 
 3134.0000    71.3222   131.7829     2.4533     5.1897    96.4882 
 3135.0000    75.2566   134.9652     2.4478     5.2120    96.4882 
 3136.0000    80.0362   138.1314     2.4424     5.2344    96.4882 
 3137.0000    88.3136   135.9738     2.4369     5.2567    96.4882 
 3138.0000    88.6708   134.2796     2.4314     5.2790    96.4882 
 3139.0000    79.7053   135.4324     2.4259     5.3014    96.4882 
 3140.0000    70.7397   137.1778     2.4204     5.3237    96.4882 
 3141.0000    68.0000   132.8504     2.4150     5.3461    96.4882 
 3142.0000    64.7665   130.9001     2.4095     5.3684    96.4882 
 3143.0000    63.6058   133.6762     2.4040     5.3907    96.4882 
 3144.0000    63.1685   132.8961     2.3985     5.4131    96.4882 
 3145.0000    54.5132   130.7256     2.3930     5.4354    96.4882 
 3146.0000    54.3042   128.3856     2.3876     5.4577    96.4882 
 3147.0000    52.7305   121.6713     2.3821     5.4801    96.4882 
 3148.0000    48.4726    55.7911     2.3766     5.5024    96.4882 
 3149.0000    46.3592    32.8013     2.3711     5.5248    96.4882 
 3150.0000    46.4366    27.4101     2.3656     5.5617    96.4882 
 3151.0000    46.2526    32.6532     2.3730     5.6700    96.4882 
 3152.0000    50.0470    40.8170     2.4019     5.7783    96.4882 
 3153.0000    51.8544    57.2941     2.4308     5.8867    96.4882 
 3154.0000    55.1362    79.5479     2.4596     5.9950    96.4882 
 3155.0000    60.1000    68.5867     2.4885     6.1034    96.4882 
 3156.0000    66.1015    70.8556     2.5174     6.2117    96.4882 
 3157.0000    67.8743    92.7457     2.5462     6.3200    96.4882 
 3158.0000    65.8372    80.9101     2.5751     6.4284    96.4882 
 3159.0000    67.2590   107.7217     2.6040     6.5367    96.4882 
 3160.0000    70.6056   143.1402     2.6328     6.6451    96.4882 
 3161.0000    73.6161   142.1913     2.6617     6.7534    96.4882 
 3162.0000    74.4877   102.4750     2.6906     6.8618    96.4882 
 3163.0000    70.6210    73.5469     2.7194     6.9701    96.4882 
 3164.0000    69.3980    63.5713     2.7483     7.0495    96.4882 
 3165.0000    67.2714    88.5069     2.7772     7.0232    96.4977 
 3166.0000    63.5556   132.0287     2.8060     6.9970    96.5612 
 3167.0000    60.2650   133.1251     2.8346     6.9707    96.6247 
 3168.0000    59.0000   132.9032     2.8303     6.9445    96.6882 
 3169.0000    57.9881   132.3308     2.8259     6.9182    96.7517 
 3170.0000    51.9344   131.9876     2.8215     6.8920    96.8152 
 3171.0000    49.2957   133.0190     2.8172     6.8657    96.8787 
 3172.0000    51.4417   133.1502     2.8128     6.8394    96.9422 
 3173.0000    49.8940   130.1090     2.8085     6.8132    97.0057 
 3174.0000    47.8459   125.5314     2.8041     6.7869    97.0692 
 3175.0000    46.7833   121.4066     2.7998     6.7607    97.1327 
 3176.0000    46.5097   116.9282     2.7954     6.7344    97.1962 
 3177.0000    47.6562   117.1343     2.7911     6.7082    97.2598 
 3178.0000    51.5413    96.1705     2.7867     6.6819    97.3233 
 3179.0000    59.4845    79.7861     2.7823     6.6557    97.3868 
 3180.0000    67.1638   122.1759     2.7780     6.6294    97.4503 
 3181.0000    71.1829   140.0651     2.7736     6.6032    97.5138 
 3182.0000    75.2019   128.3253     2.7693     6.5769    97.5773 
 3183.0000    73.3718   130.4304     2.7649     6.5502    97.6408 
 3184.0000    73.1327   141.1050     2.7606     6.4983    97.7043 
 3185.0000    71.2000   142.3028     2.7562     6.4464    97.7678 
 3186.0000    67.7501   143.6905     2.7519     6.3945    97.8313 
 3187.0000    70.5094   144.6198     2.7475     6.3425    97.8948 
 3188.0000    82.0810   145.7987     2.7431     6.2906    97.9583 
 3189.0000    81.6460   145.8968     2.7388     6.2387    98.0218 
 3190.0000    71.4824   145.6691     2.7344     6.1868    98.0853 
 3191.0000    68.9534   146.8333     2.7301     6.1349    98.1488 
 3192.0000    70.2072   146.6682     2.7257     6.0830    98.2123 
 3193.0000    71.8415   146.1140     2.7214     6.0311    98.2758 
 3194.0000    71.9416   146.3014     2.7170     5.9792    98.3393 
 3195.0000    70.8082   143.4511     2.7127     5.9273    98.4028 
 3196.0000    69.5445   137.6261     2.7083     5.8754    98.4663 
 3197.0000    71.7049   134.2656     2.7039     5.8234    98.5298 
 3198.0000    73.8652   134.6523     2.6996     5.7715    98.5933 
 3199.0000    80.3244   134.4319     2.6952     5.7196    98.6568 
 3200.0000    80.1031   132.4278     2.6909     5.6677    98.7203 
 3201.0000    77.9081   131.4943     2.6865     5.6158    98.7838 
 3202.0000    75.7111   132.3582     2.6822     5.5639    98.8473 
 3203.0000    74.8914   132.9418     2.6778     5.5523    98.9108 
 3204.0000    78.5350   134.6059     2.6736     5.5671    98.9685 
 3205.0000    85.4833   132.9141     2.6695     5.5820    98.9685 
 3206.0000    94.5365   133.0251     2.6654     5.5968    98.9685 
 3207.0000    92.0189   135.4635     2.6612     5.6117    98.9685 
 3208.0000    90.5857   136.9020     2.6571     5.6265    98.9685 
 3209.0000    95.4776   134.5924     2.6530     5.6414    98.9685 
 3210.0000   100.6579   133.3642     2.6488     5.6562    98.9685 
 3211.0000   102.2836    87.9444     2.6447     5.6711    98.9685 
 3212.0000    89.1097    36.3161     2.6406     5.6859    98.9685 
 3213.0000    81.6684    32.1966     2.6364     5.7008    98.9685 
 3214.0000    78.3322    38.8824     2.6323     5.7156    98.9685 
 3215.0000    74.0376    43.5159     2.6281     5.7305    98.9685 
 3216.0000    71.2163    53.5207     2.6240     5.7453    98.9685 
 3217.0000    73.4952    51.4675     2.6199     5.7602    98.9685 
 3218.0000    74.8886    45.5119     2.6157     5.7750    98.9685 
 3219.0000    68.3687    44.8076     2.6116     5.7899    98.9685 
