~VERSION INFORMATION
VERS  .       2.0                       : CWLS LOG ASCII STANDARD - VERSION 2.0
WRAP  .       NO                        : One line per depth step
~WELL INFORMATION
#MNEM .UNIT   DATA                      : DESCRIPTION OF MNEMONIC
#-----.----   ----                      : -----------------------
STRT  .ft     1900.0000                 : Start
STOP  .ft     6773.0000                 : Stop
STEP  .ft        1.0000                 : Step increment
NULL  .       -999.2500                 : Null value
COMP  .       Venoco                    : Company
WELL  .       Bradley Minerals2-6       : Well
FLD   .       Bradley Minerals          : Field
LOC   .                                 : Location
SRVC  .                                 : Service company
DATE  .       1/26/2010                 : Logging date
CNTY  .       Monterey                  : County
STAT  .       California                : State
CTRY  .       USA                       : Country
API   .       040532202900              : API number
UWI   .       040532202900              : Unique Well Identifier
~CURVE INFORMATION
#MNEM .UNIT   API CODE                  : CURVE DESCRIPTION
#-----.----   --------                  : -----------------
DEPT  .ft                               : Measured Depth
GR    .aapi                             : Gamma Ray
ROP   .ft/hr                            : Rate of Penetration
VRMS  .G                                : Average Vibration
VPK   .G                                : Peak Vibration
T-TEMP.degF                             : Tool Temperature
~PARAMETER INFORMATION
#MNEM .UNIT   VALUE                     : DESCRIPTION
#-----.----   -----                     : -----------
~OTHER INFORMATION
~A  DEPT         GR        ROP       VRMS        VPK     T-TEMP   
# ...
 4060.0000   111.1111    57.7546     2.2047     4.0315   111.3701 
 4061.0000   115.7540    73.7951     2.2047     4.0315   111.3701 
 4062.0000   122.1906    84.1895     2.2047     4.0315   111.3701 
 4063.0000   123.9315    82.3890     2.2047     4.0315   111.3701 
 4064.0000   113.6565    79.5445     2.2047     4.0315   111.3701 
 4065.0000   101.3260    76.4895     2.2047     4.0315   111.3701 
 4066.0000    96.1460    73.4961     2.2047     4.0315   111.3701 
 4067.0000    99.3327    73.8698     2.2047     4.0315   111.3701 
 4068.0000   102.3546    71.9826     2.2047     4.0315   111.3701 
 4069.0000   102.5592    67.4457     2.1933     4.0315   111.3701 
 4070.0000   107.2399    74.1275     2.1560     4.0315   111.3701 
 4071.0000   112.1405    82.2453     2.1187     4.0315   111.3701 
 4072.0000   117.7312    79.2764     2.0813     4.0315   111.3701 
 4073.0000   111.5574    77.6513     2.0440     4.0315   111.3701 
 4074.0000   107.4488    79.6741     2.0066     4.0315   111.3701 
 4075.0000   108.8791    78.4699     1.9693     4.0315   111.3701 
 4076.0000   107.8961    76.1947     1.9320     4.0459   111.3701 
 4077.0000   105.9381    74.2329     1.8946     4.1491   111.3701 
 4078.0000   106.1112    73.7331     1.9096     4.2523   111.3701 
 4079.0000   106.2967    74.3668     1.9323     4.3555   111.3701 
 4080.0000   104.3333    74.8380     1.9551     4.4587   111.3701 
 4081.0000   109.6721    75.7614     1.9779     4.5619   111.3701 
 4082.0000   120.6690    77.6860     2.0007     4.6651   111.3701 
 4083.0000   115.6368    80.3952     2.0234     4.7683   111.3701 
 4084.0000    96.1106    77.5733     2.0462     4.8714   111.3701 
 4085.0000    95.1633    75.8935     2.0690     4.9746   111.3701 
 4086.0000   102.1704    78.6984     2.0918     5.0778   111.3701 
 4087.0000   113.0348    80.5463     2.1145     5.1810   111.3701 
 4088.0000   121.9284    81.9567     2.1373     5.2842   111.3701 
 4089.0000   117.8307    81.3323     2.1601     5.3874   111.3701 
 4090.0000   104.1956    76.2295     2.1828     5.4906   111.3701 
 4091.0000   102.8261    66.7059     2.2047     5.5006   111.3701 
 4092.0000   113.9773    80.4840     2.2047     5.4134   111.3701 
 4093.0000   119.9510    95.2587     2.2047     5.3263   111.3701 
 4094.0000   128.0062    94.6586     2.2047     5.2391   111.3701 
 4095.0000   130.0492    98.2235     2.2047     5.1519   111.3701 
 4096.0000   119.2006    99.1272     2.2047     5.0647   111.3701 
 4097.0000   117.0655    95.1173     2.2047     4.9775   111.5523 
 4098.0000   118.1505    93.3426     2.2047     4.8903   111.7504 
 4099.0000   112.8773    93.6568     2.2047     4.8031   111.9486 
 4100.0000   108.6672    92.7929     2.2047     4.7159   112.1468 
 4101.0000   107.6000    94.0705     2.2047     4.6287   112.3449 
 4102.0000    98.3129    95.0356     2.2047     4.5415   112.5431 
 4103.0000    72.3206    89.8554     2.2047     4.4544   112.7413 
 4104.0000    62.1980    72.4417     2.2047     4.3672   112.9394 
 4105.0000    82.7918    52.5955     2.2047     4.2800   113.1376 
 4106.0000    90.5895    55.5520     2.2047     4.1928   113.3357 
 4107.0000    91.7143    60.2169     2.2047     4.1056   113.5339 
 4108.0000    95.0365    60.1510     2.2047     4.0315   113.7321 
 4109.0000    93.6797    68.3109     2.1939     4.0315   113.8504 
 4110.0000    93.2274    68.7110     2.1798     4.0315   113.8504 
 4111.0000    96.1581    67.0434     2.1657     4.0315   113.8504 
 4112.0000    96.9845    69.3351     2.1516     4.0315   113.8504 
 4113.0000    97.1794    77.9875     2.1375     4.0315   113.8504 
 4114.0000    97.4081    92.2028     2.1234     4.0315   113.8504 
 4115.0000    95.7449   101.1985     2.1093     4.0315   113.8504 
 4116.0000    94.9949    98.4043     2.0952     4.0315   113.8504 
 4117.0000    91.8800    94.7016     2.0811     4.0315   113.8504 
 4118.0000    85.9183    95.9377     2.0670     4.0315   113.8504 
 4119.0000    83.3813    95.6797     2.0529     4.0360   113.8504 
 4120.0000    80.6469    90.6107     2.0472     4.2733   113.8504 
 4121.0000    81.1789    69.7957     2.0472     4.5106   113.8504 
 4122.0000    86.2061    26.4391     2.0472     4.7478   113.8504 
 4123.0000    84.2812     1.4706     2.0472     4.9851   113.8504 
 4124.0000    83.4203    32.0504     2.0472     5.2224   113.8504 
 4125.0000    88.9135    51.6120     2.0472     5.4596   113.8504 
 4126.0000    93.1608    48.3180     2.0472     5.6969   113.8504 
 4127.0000    90.9897    46.5506     2.0472     5.9342   113.8504 
 4128.0000    86.1050    54.7439     2.0472     6.1714   113.8504 
 4129.0000    87.9633    56.2998     2.0472     6.4087   113.8504 
 4130.0000    89.0749    52.1282     2.0472     6.6460   113.8504 
 4131.0000    81.9236    51.0668     2.0472     6.8833   113.8504 
 4132.0000    81.2454    45.6472     2.0472     6.8935   113.8504 
 4133.0000    91.4383    37.5922     2.0472     6.3071   113.8504 
 4134.0000    96.8249    43.7583     2.0472     5.7207   113.8504 
 4135.0000    95.3336    49.9748     2.0472     5.1342   113.8504 
 4136.0000    94.8654    54.2128     2.0472     4.5478   113.8504 
 4137.0000    96.4499    69.8775     2.0472     4.0348   113.8504 
 4138.0000    99.6549    79.6185     2.0472     4.0629   113.8504 
 4139.0000   100.8353    87.4312     2.0491     4.0909   113.8504 
 4140.0000   104.3956    86.3844     2.0585     4.1190   113.8504 
 4141.0000   106.1344    85.9143     2.0679     4.1470   113.8504 
 4142.0000   104.2897    83.4405     2.0773     4.1750   113.8504 
 4143.0000   107.2204    82.4375     2.0867     4.2031   113.8504 
 4144.0000   113.1792    81.4422     2.0960     4.2311   113.8504 
 4145.0000   101.1258    76.0502     2.1054     4.2592   113.8504 
 4146.0000    91.1640    72.3412     2.1148     4.2872   113.8504 
 4147.0000    96.8000    70.7301     2.1242     4.3152   113.8504 
 4148.0000    96.4876    69.6558     2.1336     4.3433   113.8504 
 4149.0000    84.4875    72.3189     2.1430     4.3713   113.8504 
 4150.0000    79.9219    75.7501     2.1523     4.3993   113.8504 
 4151.0000    81.8616    78.3653     2.1617     4.4274   113.8504 
 4152.0000    81.4503    93.4441     2.1711     4.4554   113.8504 
 4153.0000    70.8903   105.8113     2.1805     4.4835   113.8504 
 4154.0000    51.3583    91.9108     2.1899     4.5115   113.8504 
 4155.0000    69.3094    77.5596     2.1993     4.5313   113.8504 
 4156.0000    92.0725    81.6448     2.2047     4.5030   113.8504 
 4157.0000   100.0786    88.3948     2.2047     4.4747   113.8504 
 4158.0000   104.4549    84.7540     2.2047     4.4464   113.8504 
 4159.0000   107.5407    80.2218     2.2047     4.4181   113.8504 
 4160.0000   101.6667    79.4592     2.2047     4.3898   113.8504 
 4161.0000    96.8739    78.7642     2.2047     4.3615   113.8504 
 4162.0000    92.6667    74.3702     2.2047     4.3332   113.8504 
 4163.0000    91.4629    73.4317     2.2047     4.3049   113.8504 
 4164.0000    95.2824    73.1459     2.2047     4.2766   113.8504 
 4165.0000   100.9691    67.4884     2.2047     4.2483   113.8504 
 4166.0000    99.1421    62.9195     2.2047     4.2200   113.8504 
 4167.0000    98.0018    65.8827     2.2047     4.1917   113.8504 
 4168.0000    92.8371    70.8046     2.2047     4.1634   113.8504 
 4169.0000    87.1785    72.3350     2.2047     4.1351   113.8504 
 4170.0000    83.4805    64.3636     2.2047     4.1068   113.8504 
 4171.0000    87.8752    57.6931     2.2047     4.0785   113.8504 
 4172.0000    94.4310    61.5780     2.2047     4.0502   113.8504 
 4173.0000   102.0297    65.5251     2.2047     4.0443   113.8504 
 4174.0000   104.9361    67.6302     2.2047     4.0821   113.8504 
 4175.0000   109.5556    68.4085     2.2047     4.1199   113.8504 
 4176.0000   108.9206    67.9805     2.2047     4.1576   113.8504 
 4177.0000   105.4934    68.7683     2.2047     4.1954   113.8504 
 4178.0000   100.5096    70.2221     2.2047     4.2332   113.8504 
 4179.0000    94.7241    70.1106     2.2047     4.2710   113.8504 
