~VERSION INFORMATION
VERS.           2.0   :CWLS Log ASCII Standard - VERSION 2.0
WRAP.           YES   :Multiple lines per depth step
PROD.  Schlumberger   :LAS Producer
PROG.  DLIS to ASCII 19C0-187                          :LAS Program name and version
CREA.        2011/01/03 01:37                          :LAS Creation date {YYYY/MM/DD hh:mm}
DLIS_CREA.  2011-Jan-03 01:12                          :DLIS Creation date and time {YYYY-MMM-DD hh:mm}
SOURCE.     BC0W-00120_VENOCO_HAMES_VALLEY_1-35_FPEX_HRLA_HNGS_068PUP.DLIS  :DLIS File Name
FILE-ID.     TLD_MCFL_CNL_NGS_068PUP                   :File Identification Number
#--------------------------------------------------
~WELL INFORMATION
#MNEM.UNIT      DATA             DESCRIPTION
#---- ------ --------------   -----------------------------
STRT .F         5235.0       :START DEPTH     
STOP .F           78.5       :STOP DEPTH     
STEP .F           -0.5       :STEP     
NULL .          -999.25      :NULL VALUE
COMP .        VENOCO, INC.                             :COMPANY
WELL .        HAMES VALLEY 1-35                        :WELL
FLD  .        HAMES VALLEY                             :FIELD
LOC  .        LAT: 35.889467                           :LOCATION
CNTY .        MONTEREY                                 :COUNTY
STAT .        CALIFORNIA                               :STATE
CTRY .                                                 :COUNTRY
API  .        040532205900                             :API NUMBER
UWI  .        040532205900                             :UNIQUE WELL ID
DATE .        02-Jan-2011                              :LOG DATE {DD-MMM-YYYY}
SRVC .        Schlumberger                             :SERVICE COMPANY
LATI .DEG                                              :LATITUDE
LONG .DEG                                              :LONGITUDE
GDAT .                                                 :GeoDetic Datum
SECT .        35                                       :Section
RANG .        10E                                      :Range
TOWN .        23S                                      :Township
#-----------------------------------------------------------------------------
~PARAMETER INFORMATION
#MNEM.UNIT    VALUE                      DESCRIPTION
#---- -----   --------------------       ------------------------
RUN  .          ONE                      :RUN NUMBER
PDAT .        GROUND LEVEL               :Permanent Datum
EPD  .F         1002.000000              :Elevation of Permanent Datum above Mean Sea Level
LMF  .          KELLY BUSHING            :Logging Measured From (Name of Logging Elevation Reference)
APD  .F          23.000000               :Elevation of Depth Reference (LMF) above Permanent Datum
#-----------------------------------------------------------------------------
~CURVE INFORMATION
#MNEM.UNIT   API CODE                                  DESCRIPTION
#---- -----  --------                                  -----------------------
DEPT .F                                                :DEPTH (BOREHOLE) {F10.1}
BS   .IN                                               :Bit Size {F13.4}
CDF  .LBF                                              :Calibrated Downhole Force {F13.4}
DF   .LBF                                              :Uncalibrated Downhole Force {F13.4}
GR   .GAPI                                             :Gamma Ray {F13.4}
HBHK .CFCF                                             :HNGS Borehole Potassium Concentration {F13.4}
HCAL .IN                                               :HRCC Cal. Caliper {F13.4}
HCGR .GAPI                                             :HNGS Computed Gamma Ray {F13.4}
HDRA .G/C3                                             :HRDD Density Correction {F13.4}
HFK  .CFCF                                             :HNGS Formation Potassium Concentration {F13.4}
HMIN .OHMM                                             :MCFL Micro Inverse Resistivity {F13.4}
HMNO .OHMM                                             :MCFL Micro Normal Resistivity {F13.4}
HSGR .GAPI                                             :HNGS Standard Gamma Ray {F13.4}
HTHO .PPM                                              :HNGS Formation Thorium Concentration {F13.4}
HTPR .                                                 :HNGS Thorium/Potassium Ratio {F13.4}
HTUR .                                                 :HNGS Thorium/Uranium Ratio {F13.4}
HURA .PPM                                              :HNGS Formation Uranium Concentration {F13.4}
ICV  .F3                                               :Integrated Cement Volume {F13.4}
IHV  .F3                                               :Integrated Hole Volume {F13.4}
PEFZ .                                                 :HRDD Standard Resolution Formation Photoelectric Factor {F13.4}
RHOZ .G/C3                                             :HRDD Standard Resolution Formation Density {F13.4}
RLA1 .OHMM                                             :HRLT Borehole Corrected Resistivity 1 {F13.4}
RLA2 .OHMM                                             :HRLT Borehole Corrected Resistivity 2 {F13.4}
RLA3 .OHMM                                             :HRLT Borehole Corrected Resistivity 3 {F13.4}
RLA4 .OHMM                                             :HRLT Borehole Corrected Resistivity 4 {F13.4}
RLA5 .OHMM                                             :HRLT Borehole Corrected Resistivity 5 {F13.4}
RXOZ .OHMM                                             :MCFL Standard Resolution Invaded Zone Resistivity {F13.4}
SP   .MV                                               :SP Shifted {F13.4}
TENS .LBF                                              :Cable Tension {F13.4}
TNPH .CFCF                                             :Thermal Neutron Porosity {F13.4}
#-----------------------------------------------------------------------------
# DEPT       
#     BS           CDF          DF           GR_EDTC      HBHK         HCAL         
#     HCGR         HDRA         HFK          HMIN         HMNO         HSGR         
#     HTHO         HTPR         HTUR         HURA         ICV          IHV          
#     PEFZ         RHOZ         RLA1         RLA2         RLA3         RLA4         
#     RLA5         RXOZ         SP           TENS         TNPH         
~A  
# ...
2494.5
     12.2500     971.4037     971.4037      97.4253       0.0148      12.4761
     65.6959      -0.0107       0.0251       0.4023       0.3915     100.7979
      6.3609       2.5329       1.4134       4.5005     986.8629    2369.7542
      1.8642       1.6606       1.8480       2.5573       2.9373       3.0236
      3.3305       0.7309     -51.7500    2277.0000       0.5319
2494.0
     12.2500     958.9612     958.9612      95.6925       0.0148      12.4840
     64.9484      -0.0098       0.0253       0.4778       0.4435     101.2832
      5.9896       2.3639       1.3079       4.5796     987.0352    2370.1792
      1.9018       1.6474       1.8128       2.4390       2.8056       2.8861
      3.1720       0.6625     -51.5625    2286.0000       0.5144
2493.5
     12.2500     983.8463     983.8463      95.8283       0.0148      12.4840
     69.3084      -0.0079       0.0267       0.4769       0.4479     106.2507
      6.5628       2.4538       1.3808       4.7529     987.2076    2370.6042
      1.9595       1.6622       1.8260       2.4632       2.8323       2.9225
      3.2081       0.7090     -51.1875    2247.0000       0.5200
2493.0
     12.2500     971.4037     971.4037      92.7476       0.0148      12.4761
     69.3762      -0.0080       0.0271       0.5131       0.4821     108.5343
      6.3649       2.3469       1.2501       5.0916     987.3794    2371.0288
      2.0047       1.6819       1.8258       2.4378       2.7946       2.8815
      3.1511       0.8033     -50.8750    2316.0000       0.5036
2492.5
     12.2500     971.4037     971.4037      92.5551       0.0148      12.4522
     68.7171      -0.0079       0.0266       0.6937       0.6289     108.5602
      6.4583       2.4279       1.2290       5.2551     987.5496    2371.4517
      2.0311       1.6960       1.9504       2.6899       3.1305       3.2428
      3.5537       0.7965     -51.3125    2272.0000       0.5166
2492.0
     12.2500     971.4037     971.4037      94.5372       0.0148      12.4522
     66.4568      -0.0091       0.0258       0.4861       0.4612     107.7324
      6.2037       2.4048       1.1493       5.3980     987.7198    2371.8745
      2.0381       1.6884       1.8769       2.5604       2.9200       3.0218
      3.3045       0.8030     -51.2500    2314.0000       0.4848
2491.5
     12.2500     971.4037     971.4037      97.8104       0.0148      12.4999
     65.3471      -0.0073       0.0254       0.5209       0.4844     106.3115
      6.0546       2.3796       1.1346       5.3365     987.8933    2372.3005
      2.0289       1.6895       1.8361       2.4419       2.8459       2.9384
      3.2185       0.7172     -51.3125    2360.0000       0.4671
2491.0
     12.2500     971.4037     971.4037     100.0778       0.0148      12.4761
     66.1929      -0.0064       0.0250       0.5279       0.4964     106.9277
      6.5576       2.6180       1.2270       5.3442     988.0651    2372.7251
      2.0198       1.6925       1.8444       2.4513       2.8154       2.9075
      3.1664       0.8417     -51.2500    2313.0000       0.4571
2490.5
     12.2500     983.8463     983.8463      97.3823       0.0148      12.4999
     63.7479      -0.0041       0.0247       0.7033       0.6532     105.5550
      5.9850       2.4243       1.0905       5.4884     988.2386    2373.1511
      2.0087       1.7101       1.9702       2.7032       3.1941       3.3059
      3.6171       0.8354     -51.3750    2316.0000       0.4843
2490.0
     12.2500     971.4037     971.4037      90.6433       0.0148      12.5475
     64.5708      -0.0056       0.0245       0.5404       0.5173     104.5747
      6.3385       2.5836       1.2246       5.1758     988.4153    2373.5806
      1.9711       1.7103       1.8835       2.5531       2.9343       3.0262
      3.3027       0.9303     -51.3125    2325.0000       0.5562
2489.5
     12.2500     958.9612     958.9612      84.3326       0.0148      12.5237
     62.4415      -0.0075       0.0243       0.5704       0.5517     103.9063
      5.8162       2.3974       1.0897       5.3372     988.5903    2374.0083
      1.9347       1.6963       1.9161       2.6521       3.1005       3.2123
      3.5058       0.7570     -51.6250    2281.0000       0.5664
2489.0
     12.2500     983.8463     983.8463      85.1027       0.0148      12.5555
     62.1749      -0.0102       0.0242       0.4242       0.3979     102.3854
      5.7700       2.3849       1.1105       5.1958     988.7676    2374.4382
      1.8863       1.6756       1.8124       2.4403       2.8120       2.9049
      3.1763       0.6994     -51.5625    2308.0000       0.5126
2488.5
     12.2500     958.9612     958.9612      94.5372       0.0148      12.5555
     62.9406      -0.0109       0.0241       0.4610       0.4181     103.4624
      6.0914       2.5313       1.1483       5.3048     988.9448    2374.8682
      1.8887       1.6660       1.7458       2.3080       2.6420       2.7245
      2.9703       0.6682     -51.5625    2282.0000       0.5152
2488.0
     12.2500     983.8463     983.8463     102.2389       0.0148      12.5832
     65.0679      -0.0103       0.0253       0.5464       0.5025     109.7917
      6.0314       2.3810       1.0500       5.7441     989.1240    2375.3000
      1.9077       1.6747       1.8313       2.4762       2.8815       2.9843
      3.2603       0.7442     -51.8125    2317.0000       0.5339
2487.5
     12.2500     983.8463     983.8463     102.2389       0.0148      12.5713
     68.6829      -0.0099       0.0273       0.5545       0.5244     114.3079
      6.0204       2.2029       1.0409       5.7837     989.3023    2375.7310
      1.9424       1.6853       1.8563       2.5250       2.9262       3.0191
      3.2931       0.8246     -52.0000    2316.0000       0.5135
2487.0
     12.2500     983.8463     983.8463      98.9657       0.0148      12.5952
     70.3935      -0.0101       0.0282       0.5426       0.5191     116.3895
      6.0785       2.1580       1.0667       5.6987     989.4823    2376.1636
      1.9703       1.6940       1.8638       2.5758       2.9937       3.1054
      3.3948       0.8119     -52.3125    2319.0000       0.5008
2486.5
     12.2500     983.8463     983.8463     100.8616       0.0148      12.5793
     69.1623      -0.0095       0.0277       0.5525       0.5217     110.3402
      5.9389       2.1416       1.1926       4.9796     989.6612    2376.5950
      2.0084       1.7015       1.8382       2.5055       2.8941       2.9929
      3.2593       0.8453     -52.6250    2246.0000       0.5710
2486.0
     12.2500     983.8463     983.8463     105.9004       0.0148      12.5713
     71.8805      -0.0093       0.0291       0.6201       0.5873     111.9820
      6.0022       2.0617       1.2600       4.7634     989.8395    2377.0259
      2.0339       1.7096       1.8400       2.5077       2.9167       3.0089
      3.2811       0.9205     -52.9375    2301.0000       0.5898
2485.5
     12.2500     971.4037     971.4037      99.7391       0.0148      12.5713
     72.0299      -0.0082       0.0290       0.5995       0.5783     112.0490
      6.0927       2.0981       1.2723       4.7887     990.0179    2377.4568
      2.0410       1.7173       1.9128       2.6246       3.0978       3.1987
      3.4961       0.8926     -53.0625    2266.0000       0.5232
2485.0
     12.2500     983.8463     983.8463      92.0669       0.0148      12.5832
     73.5871      -0.0094       0.0291       0.5763       0.5432     114.7946
      6.5305       2.2407       1.3470       4.8481     990.1970    2377.8887
      2.0277       1.7127       1.8481       2.4762       2.8321       2.9127
      3.1752       0.8896     -53.0625    2324.0000       0.4701
2484.5
     12.2500     983.8463     983.8463      91.0715       0.0148      12.5713
     72.1648      -0.0089       0.0285       0.5899       0.5648     111.3817
      6.4648       2.2701       1.3902       4.6503     990.3754    2378.3196
      2.0354       1.7133       1.9350       2.6360       3.0557       3.1607
      3.4570       0.8405     -53.2500    2287.0000       0.4953
