~VERSION INFORMATION
VERS.           2.0   :CWLS Log ASCII Standard - VERSION 2.0
WRAP.           NO    :One Line per depth step
PROD.  Schlumberger   :LAS Producer
PROG.  DLIS to ASCII 19C0-187                          :LAS Program name and version
CREA.        2011/01/03 01:40                          :LAS Creation date {YYYY/MM/DD hh:mm}
DLIS_CREA.  2011-Jan-02 17:53                          :DLIS Creation date and time {YYYY-MMM-DD hh:mm}
SOURCE.     BC0W-00120_VENOCO_HAMES_VALLEY_HAMES_VALLEY_1-35_FMI_DSST_MAIN.DLIS  :DLIS File Name
FILE-ID.     FMI_CAL_DSI_028PUP                        :File Identification Number
#--------------------------------------------------
~WELL INFORMATION
#MNEM.UNIT      DATA             DESCRIPTION
#---- ------ --------------   -----------------------------
STRT .F         5241.0       :START DEPTH     
STOP .F         1500.5       :STOP DEPTH     
STEP .F           -0.5       :STEP     
NULL .          -999.25      :NULL VALUE
COMP .        VENOCO, INC.                             :COMPANY
WELL .        HAMES VALLEY 1-35                        :WELL
FLD  .        HAMES VALLEY                             :FIELD
LOC  .        LAT: 35.889467                           :LOCATION
CNTY .        MONTEREY                                 :COUNTY
STAT .        CALIFORNIA                               :STATE
CTRY .                                                 :COUNTRY
API  .        040532205900                             :API NUMBER
UWI  .        040532205900                             :UNIQUE WELL ID
DATE .        02-Jan-2011                              :LOG DATE {DD-MMM-YYYY}
SRVC .        Schlumberger                             :SERVICE COMPANY
LATI .DEG                                              :LATITUDE
LONG .DEG                                              :LONGITUDE
GDAT .                                                 :GeoDetic Datum
SECT .        35                                       :Section
RANG .        10E                                      :Range
TOWN .        23S                                      :Township
#-----------------------------------------------------------------------------
~PARAMETER INFORMATION
#MNEM.UNIT    VALUE                      DESCRIPTION
#---- -----   --------------------       ------------------------
RUN  .          ONE                      :RUN NUMBER
PDAT .        GROUND LEVEL               :Permanent Datum
EPD  .F         1002.000000              :Elevation of Permanent Datum above Mean Sea Level
LMF  .          KELLY BUSHING            :Logging Measured From (Name of Logging Elevation Reference)
APD  .F          23.000000               :Elevation of Depth Reference (LMF) above Permanent Datum
#-----------------------------------------------------------------------------
~CURVE INFORMATION
#MNEM.UNIT   API CODE                                  DESCRIPTION
#---- -----  --------                                  -----------------------
DEPT .F                                                :DEPTH (BOREHOLE) {F10.1}
BS   .IN                                               :Bit Size {F13.4}
CDF  .LBF                                              :Calibrated Downhole Force {F13.4}
DF   .LBF                                              :Uncalibrated Downhole Force {F13.4}
DTCO .US/F                                             :Delta-T Compressional {F13.4}
DTSM .US/F                                             :Delta-T Shear {F13.4}
GR_EDTC.GAPI                                           :EDTC Gamma Ray {F13.4}
HD1_PPC1.IN                                            :PPC1 Hole Diameter 1 {F13.4}
HD1_PPC2.IN                                            :PPC2 Hole Diameter 1 {F13.4}
HD2_PPC1.IN                                            :PPC1 Hole Diameter 2 {F13.4}
HD2_PPC2.IN                                            :PPC2 Hole Diameter 2 {F13.4}
ICV  .F3                                               :Integrated Cement Volume {F13.4}
IHV  .F3                                               :Integrated Hole Volume {F13.4}
ITT  .S                                                :Integrated Transit Time {F13.4}
SPHI .CFCF                                             :Sonic Porosity {F13.4}
TENS .LBF                                              :Cable Tension {F13.4}
#-----------------------------------------------------------------------------
# 
#     DEPT        BS           CDF          DF           DTCO         DTSM       GR_EDTC      HD1_PPC1     HD1_PPC2     HD2_PPC1     HD2_PPC2       ICV          IHV          ITT          SPHI         TENS
#
~A  
# ...
    2764.5      12.2500    1141.1550    1141.1550     128.8012    -999.2500     103.5302      12.9749      12.9864      12.5350      12.8124     914.0486    2160.5178       0.2497       0.3533    2534.0000
    2764.0      12.2500    1202.4788    1202.4788     125.3136    -999.2500     103.5302      12.9645      12.9755      12.5350      12.8124     914.2391    2160.9609       0.2497       0.3457    2704.0000
    2763.5      12.2500    1166.0400    1166.0400     124.1105    -999.2500      97.9475      12.9643      12.9541      12.5106      12.7767     914.4288    2161.4033       0.2498       0.3430    2573.0000
    2763.0      12.2500    1177.5938    1177.5938     122.9829    -999.2500      96.6466      12.9328      12.9538      12.5228      12.7772     914.6179    2161.8450       0.2498       0.3404    2639.0000
    2762.5      12.2500    1166.0400    1166.0400     122.8816    -999.2500      99.0257      12.9643      12.9755      12.5469      12.8008     914.8088    2162.2886       0.2499       0.3402    2603.0000
    2762.0      12.2500    1190.0363    1190.0363     123.1443    -999.2500      97.0747      12.9749      12.9734      12.5350      12.8124     914.9998    2162.7322       0.2500       0.3408    2648.0000
    2761.5      12.2500    1202.4788    1202.4788     123.9646    -999.2500     103.5951      13.0063      13.0312      12.5469      12.8486     915.1922    2163.1772       0.2500       0.3427    2660.0000
    2761.0      12.2500    1202.4788    1202.4788     124.6972    -999.2500     100.0264      13.0063      13.0399      12.5469      12.8244     915.3846    2163.6223       0.2501       0.3443    2589.0000
    2760.5      12.2500    1226.4750    1226.4750     125.8750    -999.2500     101.5482      12.9718      12.9755      12.5349      12.7892     915.5754    2164.0657       0.2501       0.3469    2764.0000
    2760.0      12.2500    1177.5938    1177.5938     124.2122    -999.2500      96.0908      12.9749      12.9970      12.5228      12.8128     915.7659    2164.5088       0.2502       0.3432    2566.0000
    2759.5      12.2500    1202.4788    1202.4788     126.5087    -999.2500     102.6333      12.9612      12.9647      12.5349      12.8008     915.9564    2164.9519       0.2503       0.3483    2614.0000
    2759.0      12.2500    1214.9213    1214.9213     128.1561    -999.2500     106.5820      12.9433      12.9541      12.5109      12.7884     916.1453    2165.3936       0.2503       0.3519    2634.0000
    2758.5      12.2500    1190.0363    1190.0363     132.1810    -999.2500     108.3663      12.9749      12.9967      12.5106      12.7772     916.3354    2165.8362       0.2504       0.3602    2581.0000
    2758.0      12.2500    1177.5938    1177.5938     133.9294    -999.2500     109.1593      13.0137      13.0396      12.5829      12.8837     916.5294    2166.2827       0.2505       0.3637    2621.0000
    2757.5      12.2500    1190.0363    1190.0363     134.5132    -999.2500     109.4080      13.0169      13.0290      12.5831      12.8596     916.7234    2166.7295       0.2505       0.3648    2623.0000
    2757.0      12.2500    1177.5938    1177.5938     132.2051    -999.2500     112.1836      12.9853      13.0185      12.5469      12.8244     916.9152    2167.1738       0.2506       0.3603    2599.0000
    2756.5      12.2500    1202.4788    1202.4788     130.0530    -999.2500     101.8681      12.9749      12.9090      12.5469      12.7767     917.1065    2167.6179       0.2507       0.3559    2566.0000
    2756.0      12.2500    1153.5975    1153.5975     128.2369    -999.2500     102.2949      12.9014      12.9002      12.4506      12.7423     917.2919    2168.0559       0.2507       0.3521    2589.0000
    2755.5      12.2500    1166.0400    1166.0400     126.4123    -999.2500      97.9332      12.9222      12.9108      12.4625      12.7772     917.4785    2168.4951       0.2508       0.3481    2501.0000
    2755.0      12.2500    1177.5938    1177.5938     125.2701    -999.2500     101.9846      12.9116      12.9002      12.4744      12.7655     917.6652    2168.9343       0.2509       0.3456    2636.0000
    2754.5      12.2500    1166.0400    1166.0400     126.3954    -999.2500      94.3941      12.9328      12.9217      12.4506      12.7535     917.8517    2169.3735       0.2509       0.3481    2583.0000
    2754.0      12.2500    1166.0400    1166.0400     128.5850    -999.2500      96.3767      12.8697      12.9002      12.4747      12.7414     918.0369    2169.8113       0.2510       0.3528    2582.0000
    2753.5      12.2500    1141.1550    1141.1550     129.8253    -999.2500      97.4020      12.9328      12.9538      12.4747      12.7655     918.2242    2170.2512       0.2511       0.3554    2522.0000
    2753.0      12.2500    1166.0400    1166.0400     134.4589    -999.2500      99.0447      12.9643      12.9668      12.4749      12.7773     918.4127    2170.6924       0.2511       0.3647    2517.0000
    2752.5      12.2500    1177.5938    1177.5938     138.2347    -999.2500      97.7047      12.9747      12.9731      12.4987      12.7767     918.6023    2171.1345       0.2512       0.3718    2638.0000
    2752.0      12.2500    1166.0400    1166.0400     141.9708    -999.2500      94.8150      12.8908      13.0287      12.4628      12.7892     918.7878    2171.5728       0.2513       0.3785    2599.0000
    2751.5      12.2500    1202.4788    1202.4788     146.7770    -999.2500      90.2551      13.1109      13.1361      12.5350      12.8596     918.9833    2172.0210       0.2513       0.3865    2537.0000
    2751.0      12.2500    1166.0400    1166.0400     147.4718    -999.2500      85.7851      13.1845      13.2003      12.6910      13.0015     919.1870    2172.4773       0.2514       0.3877    2607.0000
    2750.5      12.2500    1166.0400    1166.0400     150.1593    -999.2500      84.8493      13.1215      13.0722      12.6670      12.9540     919.3876    2172.9307       0.2515       0.3919    2534.0000
    2750.0      12.2500    1202.4788    1202.4788     149.9818    -999.2500      83.0590      13.1215      13.1253      12.6910      12.9780     919.5892    2173.3848       0.2516       0.3916    2676.0000
    2749.5      12.2500    1153.5975    1153.5975     149.1938    -999.2500      86.8864      13.0377      13.0508      12.6430      12.9544     919.7861    2173.8342       0.2516       0.3904    2651.0000
    2749.0      12.2500    1153.5975    1153.5975     148.2528    -999.2500      86.6636      13.1007      13.0613      12.6549      12.9660     919.9856    2174.2864       0.2517       0.3889    2504.0000
    2748.5      12.2500    1214.9213    1214.9213     145.8028    -999.2500      90.2382      13.0588      13.0936      12.6430      12.9309     920.1832    2174.7366       0.2518       0.3849    2774.0000
    2748.0      12.2500    1153.5975    1153.5975     143.2866    -999.2500      88.0574      13.1007      13.1361      12.6430      12.9424     920.3823    2175.1882       0.2518       0.3807    2537.0000
    2747.5      12.2500    1190.0363    1190.0363     140.1517    -999.2500      90.6039      13.0169      13.0290      12.5228      12.9068     920.5743    2175.6328       0.2519       0.3753    2662.0000
    2747.0      12.2500    1177.5938    1177.5938     139.6425    -999.2500      92.1009      13.0243      13.1128      12.6067      12.9658     920.7695    2176.0806       0.2520       0.3744    2672.0000
    2746.5      12.2500    1166.0400    1166.0400     139.7231    -999.2500      96.2643      13.1215      13.0936      12.6670      12.9544     920.9701    2176.5339       0.2521       0.3745    2481.0000
    2746.0      12.2500    1214.9213    1214.9213     141.2422    -999.2500      89.3300      13.0588      13.0722      12.6430      12.9424     921.1677    2176.9841       0.2521       0.3772    2748.0000
    2745.5      12.2500    1177.5938    1177.5938     143.5431    -999.2500      86.8417      13.1317      13.1681      12.6549      12.9424     921.3683    2177.4373       0.2522       0.3812    2582.0000
