~VERSION INFORMATION
VERS.           2.0   :CWLS Log ASCII Standard - VERSION 2.0
WRAP.           NO    :One Line per depth step
PROD.  Schlumberger   :LAS Producer
PROG.  DLIS to ASCII 19C0-187                          :LAS Program name and version
CREA.        2011/01/03 01:40                          :LAS Creation date {YYYY/MM/DD hh:mm}
DLIS_CREA.  2011-Jan-02 17:53                          :DLIS Creation date and time {YYYY-MMM-DD hh:mm}
SOURCE.     BC0W-00120_VENOCO_HAMES_VALLEY_HAMES_VALLEY_1-35_FMI_DSST_MAIN.DLIS  :DLIS File Name
FILE-ID.     FMI_CAL_DSI_028PUP                        :File Identification Number
#--------------------------------------------------
~WELL INFORMATION
#MNEM.UNIT      DATA             DESCRIPTION
#---- ------ --------------   -----------------------------
STRT .F         5241.0       :START DEPTH     
STOP .F         1500.5       :STOP DEPTH     
STEP .F           -0.5       :STEP     
NULL .          -999.25      :NULL VALUE
COMP .        VENOCO, INC.                             :COMPANY
WELL .        HAMES VALLEY 1-35                        :WELL
FLD  .        HAMES VALLEY                             :FIELD
LOC  .        LAT: 35.889467                           :LOCATION
CNTY .        MONTEREY                                 :COUNTY
STAT .        CALIFORNIA                               :STATE
CTRY .                                                 :COUNTRY
API  .        040532205900                             :API NUMBER
UWI  .        040532205900                             :UNIQUE WELL ID
DATE .        02-Jan-2011                              :LOG DATE {DD-MMM-YYYY}
SRVC .        Schlumberger                             :SERVICE COMPANY
LATI .DEG                                              :LATITUDE
LONG .DEG                                              :LONGITUDE
GDAT .                                                 :GeoDetic Datum
SECT .        35                                       :Section
RANG .        10E                                      :Range
TOWN .        23S                                      :Township
#-----------------------------------------------------------------------------
~PARAMETER INFORMATION
#MNEM.UNIT    VALUE                      DESCRIPTION
#---- -----   --------------------       ------------------------
RUN  .          ONE                      :RUN NUMBER
PDAT .        GROUND LEVEL               :Permanent Datum
EPD  .F         1002.000000              :Elevation of Permanent Datum above Mean Sea Level
LMF  .          KELLY BUSHING            :Logging Measured From (Name of Logging Elevation Reference)
APD  .F          23.000000               :Elevation of Depth Reference (LMF) above Permanent Datum
#-----------------------------------------------------------------------------
~CURVE INFORMATION
#MNEM.UNIT   API CODE                                  DESCRIPTION
#---- -----  --------                                  -----------------------
DEPT .F                                                :DEPTH (BOREHOLE) {F10.1}
BS   .IN                                               :Bit Size {F13.4}
CDF  .LBF                                              :Calibrated Downhole Force {F13.4}
DF   .LBF                                              :Uncalibrated Downhole Force {F13.4}
DTCO .US/F                                             :Delta-T Compressional {F13.4}
DTSM .US/F                                             :Delta-T Shear {F13.4}
GR_EDTC.GAPI                                           :EDTC Gamma Ray {F13.4}
HD1_PPC1.IN                                            :PPC1 Hole Diameter 1 {F13.4}
HD1_PPC2.IN                                            :PPC2 Hole Diameter 1 {F13.4}
HD2_PPC1.IN                                            :PPC1 Hole Diameter 2 {F13.4}
HD2_PPC2.IN                                            :PPC2 Hole Diameter 2 {F13.4}
ICV  .F3                                               :Integrated Cement Volume {F13.4}
IHV  .F3                                               :Integrated Hole Volume {F13.4}
ITT  .S                                                :Integrated Transit Time {F13.4}
SPHI .CFCF                                             :Sonic Porosity {F13.4}
TENS .LBF                                              :Cable Tension {F13.4}
#-----------------------------------------------------------------------------
# 
#     DEPT        BS           CDF          DF           DTCO         DTSM       GR_EDTC      HD1_PPC1     HD1_PPC2     HD2_PPC1     HD2_PPC2       ICV          IHV          ITT          SPHI         TENS
#
~A  
# ...
    2257.5      12.2500    1153.5975    1153.5975     160.7691    -999.2500      89.8108      13.1815      13.3389      12.6549      12.9189    1138.3237    2640.9600       0.3186       0.4073    2447.0000
    2257.0      12.2500    1177.5938    1177.5938     159.8805    -999.2500      85.8456      13.2547      13.3260      12.6668      12.9298    1138.5291    2641.4180       0.3186       0.4061    2471.0000
    2256.5      12.2500    1141.1550    1141.1550     159.0482    -999.2500      82.5244      13.2443      13.2725      12.6191      12.9062    1138.7323    2641.8738       0.3187       0.4049    2534.0000
    2256.0      12.2500    1153.5975    1153.5975     158.3114    -999.2500      81.3348      13.2338      13.2830      12.6428      12.9182    1138.9360    2642.3301       0.3188       0.4039    2514.0000
    2255.5      12.2500    1141.1550    1141.1550     157.5142    -999.2500      83.1192      13.2756      13.2190      12.6309      12.9062    1139.1407    2642.7874       0.3189       0.4028    2432.0000
    2255.0      12.2500    1177.5938    1177.5938     157.1362    -999.2500      83.3019      13.2026      13.2105      12.6067      12.9189    1139.3420    2643.2412       0.3190       0.4023    2682.0000
    2254.5      12.2500    1117.1588    1117.1588     156.0877    -999.2500      86.6723      13.1399      13.2085      12.6549      12.9418    1139.5430    2643.6948       0.3190       0.4008    2374.0000
    2254.0      12.2500    1177.5938    1177.5938     156.0393    -999.2500      86.6723      13.1295      13.1977      12.6668      12.9534    1139.7439    2644.1484       0.3191       0.4007    2622.0000
    2253.5      12.2500    1117.1588    1117.1588     155.0767    -999.2500      82.2540      13.1608      13.1763      12.7147      12.9653    1139.9476    2644.6047       0.3192       0.3993    2386.0000
    2253.0      12.2500    1166.0400    1166.0400     154.4646    -999.2500      77.8923      13.1503      13.2306      12.6910      12.9534    1140.1501    2645.0598       0.3193       0.3984    2525.0000
    2252.5      12.2500    1129.6013    1129.6013     153.7079    -999.2500      78.8376      13.1503      13.2407      12.6670      12.9538    1140.3518    2645.5142       0.3194       0.3973    2417.0000
    2252.0      12.2500    1166.0400    1166.0400     155.4358    -999.2500      80.4222      13.1608      13.1868      12.6910      12.9534    1140.5547    2645.9697       0.3194       0.3998    2580.0000
    2251.5      12.2500    1129.6013    1129.6013     154.6171    -999.2500      81.2409      13.1712      13.1658      12.6309      12.9062    1140.7557    2646.4233       0.3195       0.3986    2360.0000
    2251.0      12.2500    1166.0400    1166.0400     155.0581    -999.2500      82.0799      13.2026      13.2000      12.6789      12.9304    1140.9596    2646.8799       0.3196       0.3993    2524.0000
    2250.5      12.2500    1141.1550    1141.1550     154.3343    -999.2500      82.7983      13.1712      13.1871      12.6549      12.9418    1141.1615    2647.3345       0.3197       0.3982    2469.0000
    2250.0      12.2500    1166.0400    1166.0400     154.6588    -999.2500      84.1605      13.2026      13.1681      12.6910      12.9540    1141.3658    2647.7915       0.3197       0.3987    2501.0000
    2249.5      12.2500    1141.1550    1141.1550     155.3509    -999.2500      80.9884      13.1399      13.1441      12.6431      12.9062    1141.5663    2648.2446       0.3198       0.3997    2463.0000
    2249.0      12.2500    1141.1550    1141.1550     154.8059    -999.2500      76.1310      13.2026      13.2427      12.6668      12.9189    1141.7698    2648.7007       0.3199       0.3989    2494.0000
    2248.5      12.2500    1141.1550    1141.1550     155.9530    -999.2500      71.1746      13.1608      13.2190      12.6789      12.9538    1141.9723    2649.1558       0.3200       0.4006    2483.0000
    2248.0      12.2500    1141.1550    1141.1550     156.7895    -999.2500      70.3815      13.3484      13.3277      12.7147      12.9653    1142.1825    2649.6187       0.3200       0.4018    2464.0000
    2247.5      12.2500    1141.1550    1141.1550     157.4496    -999.2500      70.3519      13.2129      13.2082      12.7507      13.0479    1142.3894    2650.0781       0.3201       0.4027    2512.0000
    2247.0      12.2500    1153.5975    1153.5975     158.9923    -999.2500      74.5153      13.2757      13.2295      12.8464      13.0714    1142.6019    2650.5432       0.3202       0.4049    2462.0000
    2246.5      12.2500    1141.1550    1141.1550     159.4945    -999.2500      74.1187      13.2650      13.4879      12.8340      13.1422    1142.8136    2651.0076       0.3203       0.4056    2556.0000
    2246.0      12.2500    1117.1588    1117.1588     160.1476    -999.2500      74.1690      13.2861      13.3043      12.9180      13.1763    1143.0291    2651.4756       0.3204       0.4065    2388.0000
    2245.5      12.2500    1166.0400    1166.0400     160.5466    -999.2500      70.4022      13.5461      13.7385      13.1085      13.5161    1143.2607    2651.9600       0.3204       0.4070    2504.0000
    2245.0      12.2500    1141.1550    1141.1550     159.4323    -999.2500      70.7519      13.6910      13.7392      13.2745      13.4924    1143.5038    2652.4556       0.3205       0.4055    2403.0000
    2244.5      12.2500    1153.5975    1153.5975     158.6406    -999.2500      76.0843      13.6497      13.6969      13.1914      13.4576    1143.7422    2652.9465       0.3206       0.4044    2540.0000
    2244.0      12.2500    1129.6013    1129.6013     157.6301    -999.2500      73.1104      13.7014      13.7180      13.1442      13.4458    1143.9807    2653.4377       0.3207       0.4030    2440.0000
    2243.5      12.2500    1202.4788    1202.4788     156.4734    -999.2500      73.9502      13.7633      13.7814      13.2389      13.5271    1144.2250    2653.9346       0.3208       0.4013    2681.0000
    2243.0      12.2500    1104.7163    1104.7163     158.3347    -999.2500      72.5825      13.9076      14.0238      13.2389      13.6319    1144.4745    2654.4368       0.3208       0.4039    2339.0000
    2242.5      12.2500    1166.0400    1166.0400     157.0206    -999.2500      75.5564      13.9693      13.9397      14.0856      13.7129    1144.7585    2654.9734       0.3209       0.4021    2461.0000
    2242.0      12.2500    1141.1550    1141.1550     154.9712    -999.2500      71.9878      13.9795      13.5490      13.5216      13.2232    1145.0215    2655.4890       0.3210       0.3992    2545.0000
    2241.5      12.2500    1141.1550    1141.1550     156.2686    -999.2500      72.9589      13.4004      13.5191      12.6431      12.9764    1145.2310    2655.9512       0.3211       0.4010    2381.0000
    2241.0      12.2500    1166.0400    1166.0400     155.3505    -999.2500      71.4049      13.2650      13.3148      12.6309      12.9418    1145.4353    2656.4082       0.3212       0.3997    2578.0000
    2240.5      12.2500    1129.6013    1129.6013     153.1385    -999.2500      75.7666      13.2338      13.3790      12.6309      12.9422    1145.6385    2656.8640       0.3212       0.3964    2388.0000
    2240.0      12.2500    1190.0363    1190.0363     154.5573    -999.2500      73.7606      13.1817      13.1786      12.6309      12.9416    1145.8400    2657.3181       0.3213       0.3985    2631.0000
    2239.5      12.2500    1129.6013    1129.6013     155.3189    -999.2500      78.0180      13.1608      13.1336      12.6431      12.9414    1146.0411    2657.7720       0.3214       0.3997    2374.0000
    2239.0      12.2500    1177.5938    1177.5938     155.9017    -999.2500      75.3539      13.1713      13.1980      12.6309      12.9414    1146.2423    2658.2258       0.3215       0.4005    2631.0000
    2238.5      12.2500    1141.1550    1141.1550     156.1290    -999.2500      75.7801      13.1365      13.2210      12.5949      12.8828    1146.4409    2658.6770       0.3215       0.4008    2416.0000
