~VERSION INFORMATION
VERS.           2.0   :CWLS Log ASCII Standard - VERSION 2.0
WRAP.           YES   :Multiple lines per depth step
PROD.  Schlumberger   :LAS Producer
PROG.  DLIS to ASCII 19C0-187                          :LAS Program name and version
CREA.        2011/01/03 01:37                          :LAS Creation date {YYYY/MM/DD hh:mm}
DLIS_CREA.  2011-Jan-03 01:12                          :DLIS Creation date and time {YYYY-MMM-DD hh:mm}
SOURCE.     BC0W-00120_VENOCO_HAMES_VALLEY_1-35_FPEX_HRLA_HNGS_068PUP.DLIS  :DLIS File Name
FILE-ID.     TLD_MCFL_CNL_NGS_068PUP                   :File Identification Number
#--------------------------------------------------
~WELL INFORMATION
#MNEM.UNIT      DATA             DESCRIPTION
#---- ------ --------------   -----------------------------
STRT .F         5235.0       :START DEPTH     
STOP .F           78.5       :STOP DEPTH     
STEP .F           -0.5       :STEP     
NULL .          -999.25      :NULL VALUE
COMP .        VENOCO, INC.                             :COMPANY
WELL .        HAMES VALLEY 1-35                        :WELL
FLD  .        HAMES VALLEY                             :FIELD
LOC  .        LAT: 35.889467                           :LOCATION
CNTY .        MONTEREY                                 :COUNTY
STAT .        CALIFORNIA                               :STATE
CTRY .                                                 :COUNTRY
API  .        040532205900                             :API NUMBER
UWI  .        040532205900                             :UNIQUE WELL ID
DATE .        02-Jan-2011                              :LOG DATE {DD-MMM-YYYY}
SRVC .        Schlumberger                             :SERVICE COMPANY
LATI .DEG                                              :LATITUDE
LONG .DEG                                              :LONGITUDE
GDAT .                                                 :GeoDetic Datum
SECT .        35                                       :Section
RANG .        10E                                      :Range
TOWN .        23S                                      :Township
#-----------------------------------------------------------------------------
~PARAMETER INFORMATION
#MNEM.UNIT    VALUE                      DESCRIPTION
#---- -----   --------------------       ------------------------
RUN  .          ONE                      :RUN NUMBER
PDAT .        GROUND LEVEL               :Permanent Datum
EPD  .F         1002.000000              :Elevation of Permanent Datum above Mean Sea Level
LMF  .          KELLY BUSHING            :Logging Measured From (Name of Logging Elevation Reference)
APD  .F          23.000000               :Elevation of Depth Reference (LMF) above Permanent Datum
#-----------------------------------------------------------------------------
~CURVE INFORMATION
#MNEM.UNIT   API CODE                                  DESCRIPTION
#---- -----  --------                                  -----------------------
DEPT .F                                                :DEPTH (BOREHOLE) {F10.1}
BS   .IN                                               :Bit Size {F13.4}
CDF  .LBF                                              :Calibrated Downhole Force {F13.4}
DF   .LBF                                              :Uncalibrated Downhole Force {F13.4}
GR   .GAPI                                             :Gamma Ray {F13.4}
HBHK .CFCF                                             :HNGS Borehole Potassium Concentration {F13.4}
HCAL .IN                                               :HRCC Cal. Caliper {F13.4}
HCGR .GAPI                                             :HNGS Computed Gamma Ray {F13.4}
HDRA .G/C3                                             :HRDD Density Correction {F13.4}
HFK  .CFCF                                             :HNGS Formation Potassium Concentration {F13.4}
HMIN .OHMM                                             :MCFL Micro Inverse Resistivity {F13.4}
HMNO .OHMM                                             :MCFL Micro Normal Resistivity {F13.4}
HSGR .GAPI                                             :HNGS Standard Gamma Ray {F13.4}
HTHO .PPM                                              :HNGS Formation Thorium Concentration {F13.4}
HTPR .                                                 :HNGS Thorium/Potassium Ratio {F13.4}
HTUR .                                                 :HNGS Thorium/Uranium Ratio {F13.4}
HURA .PPM                                              :HNGS Formation Uranium Concentration {F13.4}
ICV  .F3                                               :Integrated Cement Volume {F13.4}
IHV  .F3                                               :Integrated Hole Volume {F13.4}
PEFZ .                                                 :HRDD Standard Resolution Formation Photoelectric Factor {F13.4}
RHOZ .G/C3                                             :HRDD Standard Resolution Formation Density {F13.4}
RLA1 .OHMM                                             :HRLT Borehole Corrected Resistivity 1 {F13.4}
RLA2 .OHMM                                             :HRLT Borehole Corrected Resistivity 2 {F13.4}
RLA3 .OHMM                                             :HRLT Borehole Corrected Resistivity 3 {F13.4}
RLA4 .OHMM                                             :HRLT Borehole Corrected Resistivity 4 {F13.4}
RLA5 .OHMM                                             :HRLT Borehole Corrected Resistivity 5 {F13.4}
RXOZ .OHMM                                             :MCFL Standard Resolution Invaded Zone Resistivity {F13.4}
SP   .MV                                               :SP Shifted {F13.4}
TENS .LBF                                              :Cable Tension {F13.4}
TNPH .CFCF                                             :Thermal Neutron Porosity {F13.4}
#-----------------------------------------------------------------------------
# DEPT       
#     BS           CDF          DF           GR_EDTC      HBHK         HCAL         
#     HCGR         HDRA         HFK          HMIN         HMNO         HSGR         
#     HTHO         HTPR         HTUR         HURA         ICV          IHV          
#     PEFZ         RHOZ         RLA1         RLA2         RLA3         RLA4         
#     RLA5         RXOZ         SP           TENS         TNPH         
~A  
# ...
3523.5
     12.2500     934.9650     934.9650      80.2892       0.0115      12.2855
     50.4455      -0.0028       0.0213       0.7281       0.6435      89.9082
      3.6863       1.7282       0.7235       5.0953     596.2230    1459.2006
      1.8624       2.0714       2.8632       5.5547       7.8316       8.3931
      9.9149       0.9576      -1.0625    2555.0000       0.3854
3523.0
     12.2500     934.9650     934.9650      78.6784       0.0115      12.4046
     51.8137      -0.0059       0.0216       0.7849       0.6940      92.7331
      3.9635       1.8345       0.7589       5.2226     596.3900    1459.6201
      1.8706       2.0796       2.9164       5.6275       7.9262       8.4927
     10.1055       0.9140      -1.4375    2519.0000       0.3729
3522.5
     12.2500     934.9650     934.9650      77.8957       0.0115      12.4284
     54.5053      -0.0077       0.0229       0.7759       0.6860      92.4991
      4.0402       1.7606       0.8255       4.8943     596.5585    1460.0414
      1.8659       2.0941       2.9066       5.4992       7.6548       8.2713
      9.9153       1.0589      -2.0000    2579.0000       0.3785
3522.0
     12.2500     910.9688     910.9688      79.4361       0.0115      12.3927
     57.5404      -0.0087       0.0241       0.8882       0.7856      94.2279
      4.3659       1.8150       0.9381       4.6539     596.7247    1460.4602
      1.8792       2.1051       2.7745       4.9975       6.7127       7.3137
      8.8212       1.0152      -2.1875    2563.0000       0.3829
3521.5
     12.2500     934.9650     934.9650      77.3885       0.0115      12.3411
     57.9044      -0.0075       0.0234       0.9077       0.8028      93.4777
      4.8520       2.0714       1.0705       4.5323     596.8875    1460.8755
      1.9037       2.1179       2.7923       5.0454       6.8135       7.5234
      9.1452       1.1577      -2.3125    2548.0000       0.3743
3521.0
     12.2500     922.5225     922.5225      74.1279       0.0115      12.3093
     60.4028      -0.0051       0.0239       0.9937       0.8792      93.3634
      5.3622       2.2417       1.3003       4.1239     597.0480    1461.2887
      1.9250       2.1309       2.7563       5.0432       6.8552       7.6835
      9.4791       1.2022      -2.4375    2564.0000       0.3654
3520.5
     12.2500     934.9650     934.9650      73.3577       0.0115      12.2974
     59.5631      -0.0039       0.0232       0.9644       0.8531      90.7168
      5.5076       2.3727       1.3799       3.9913     597.2078    1461.7010
      1.9644       2.1333       2.7415       4.9417       6.6214       7.4679
      9.2933       1.0817      -2.8750    2542.0000       0.3560
3520.0
     12.2500     934.9650     934.9650      82.2146       0.0115      12.3014
     59.8282      -0.0045       0.0233       0.7636       0.6751      92.1231
      5.5504       2.3838       1.3395       4.1438     597.3679    1462.1136
      2.0037       2.1280       2.7175       4.8024       6.4852       7.3341
      9.2214       1.0808      -2.8750    2573.0000       0.3750
3519.5
     12.2500     934.9650     934.9650      87.6057       0.0115      12.3570
     60.2160      -0.0064       0.0233       0.8479       0.7499      94.6493
      5.6772       2.4387       1.2568       4.5173     597.5316    1462.5300
      2.0501       2.1184       2.6736       4.6171       6.2489       7.0400
      8.9780       1.0839      -2.9375    2555.0000       0.3776
3519.0
     12.2500     922.5225     922.5225      93.3819       0.0115      12.3808
     63.1898      -0.0071       0.0246       0.9165       0.8107      99.9992
      5.8751       2.3911       1.2256       4.7938     597.6970    1462.9480
      2.0689       2.1164       2.7743       4.8837       6.7276       7.6276
      9.8621       1.1883      -3.1250    2573.0000       0.3618
3518.5
     12.2500     947.4075     947.4075      91.2640       0.0115      12.3967
     63.3352      -0.0070       0.0246       0.8522       0.7536      99.2207
      5.8964       2.3956       1.2592       4.6827     597.8634    1463.3671
      2.0916       2.1112       2.6940       4.7756       6.5968       7.4676
      9.7544       1.0908      -3.4375    2625.0000       0.3573
3518.0
     12.2500     922.5225     922.5225      96.2785       0.0115      12.4522
     62.9388      -0.0066       0.0245       0.8104       0.7165      97.7720
      5.8075       2.3657       1.2661       4.5868     598.0336    1463.7899
      2.0930       2.1070       2.6213       4.5930       6.2769       7.1111
      9.2914       1.0868      -3.0625    2541.0000       0.3704
3517.5
     12.2500     934.9650     934.9650      87.8067       0.0115      12.4761
     62.0606      -0.0056       0.0239       0.8412       0.7439      93.0032
      5.8908       2.4621       1.4261       4.1307     598.2054    1464.2144
      2.1030       2.1055       2.5566       4.4465       6.0651       6.8532
      8.9294       1.0567      -3.7500    2536.0000       0.3760
3517.0
     12.2500     934.9650     934.9650      87.9992       0.0115      12.4761
     61.7370      -0.0043       0.0233       0.7647       0.6760      93.9342
      6.1300       2.6264       1.4468       4.2371     598.3773    1464.6388
      2.1048       2.1117       2.5328       4.4034       6.0059       6.7626
      8.8025       1.0456      -3.5000    2569.0000       0.3869
3516.5
     12.2500     922.5225     922.5225      83.1773       0.0115      12.5158
     64.2810      -0.0028       0.0238       0.8284       0.7325      95.7319
      6.6810       2.8081       1.6183       4.1285     598.5518    1465.0659
      2.1173       2.1179       2.4343       4.1098       5.4481       6.0025
      7.8098       1.0187      -3.2500    2563.0000       0.3761
3516.0
     12.2500     934.9650     934.9650      92.6117       0.0115      12.4999
     64.9864      -0.0032       0.0244       0.8748       0.7737      98.9532
      6.5613       2.6910       1.4748       4.4490     598.7253    1465.4919
      2.1252       2.1172       2.4589       4.2040       5.5606       6.0810
      7.9046       1.0846      -4.0000    2514.0000       0.3632
3515.5
     12.2500     934.9650     934.9650      91.2780       0.0115      12.4840
     67.4645      -0.0048       0.0255       0.8337       0.7373     102.8783
      6.7257       2.6417       1.4406       4.6686     598.8976    1465.9170
      2.1129       2.1123       2.4558       4.1607       5.4668       5.9954
      7.7396       1.1258      -2.1875    2548.0000       0.3662
3515.0
     12.2500     934.9650     934.9650      93.7810       0.0115      12.4284
     67.5871      -0.0068       0.0260       0.9455       0.8364     102.5291
      6.4586       2.4857       1.4411       4.4818     599.0662    1466.3383
      2.0954       2.1063       2.5664       4.5203       5.8486       6.5012
      8.3353       1.1582      -2.3750    2557.0000       0.3651
3514.5
     12.2500     922.5225     922.5225      91.6631       0.0115      12.4046
     67.7211      -0.0075       0.0261       0.8529       0.7542     100.6838
      6.4198       2.4576       1.4980       4.2856     599.2332    1466.7578
      2.0760       2.1084       2.6479       4.7161       6.1905       6.9110
      8.7687       1.0642      -2.9375    2548.0000       0.3942
3514.0
     12.2500     934.9650     934.9650      91.1501       0.0115      12.3728
     65.5595      -0.0060       0.0261       0.8487       0.7506      97.5091
      5.7657       2.2129       1.4131       4.0803     599.3981    1467.1753
      2.0668       2.1253       2.6523       4.3667       5.6216       6.2821
      7.8360       1.1518      -3.1875    2542.0000       0.3903
3513.5
     12.2500     947.4075     947.4075      88.8396       0.0115      12.3689
     64.0834      -0.0064       0.0257       1.1719       1.0373      96.0088
      5.4816       2.1302       1.3638       4.0193     599.5626    1467.5925
      2.1034       2.1524       2.9028       4.8943       6.4200       7.2425
      8.9785       1.2420      -2.6875    2563.0000       0.3907
