~VERSION INFORMATION
VERS.           2.0   :CWLS Log ASCII Standard - VERSION 2.0
WRAP.           YES   :Multiple lines per depth step
PROD.  Schlumberger   :LAS Producer
PROG.  DLIS to ASCII 19C0-187                          :LAS Program name and version
CREA.        2011/01/03 01:37                          :LAS Creation date {YYYY/MM/DD hh:mm}
DLIS_CREA.  2011-Jan-03 01:12                          :DLIS Creation date and time {YYYY-MMM-DD hh:mm}
SOURCE.     BC0W-00120_VENOCO_HAMES_VALLEY_1-35_FPEX_HRLA_HNGS_068PUP.DLIS  :DLIS File Name
FILE-ID.     TLD_MCFL_CNL_NGS_068PUP                   :File Identification Number
#--------------------------------------------------
~WELL INFORMATION
#MNEM.UNIT      DATA             DESCRIPTION
#---- ------ --------------   -----------------------------
STRT .F         5235.0       :START DEPTH     
STOP .F           78.5       :STOP DEPTH     
STEP .F           -0.5       :STEP     
NULL .          -999.25      :NULL VALUE
COMP .        VENOCO, INC.                             :COMPANY
WELL .        HAMES VALLEY 1-35                        :WELL
FLD  .        HAMES VALLEY                             :FIELD
LOC  .        LAT: 35.889467                           :LOCATION
CNTY .        MONTEREY                                 :COUNTY
STAT .        CALIFORNIA                               :STATE
CTRY .                                                 :COUNTRY
API  .        040532205900                             :API NUMBER
UWI  .        040532205900                             :UNIQUE WELL ID
DATE .        02-Jan-2011                              :LOG DATE {DD-MMM-YYYY}
SRVC .        Schlumberger                             :SERVICE COMPANY
LATI .DEG                                              :LATITUDE
LONG .DEG                                              :LONGITUDE
GDAT .                                                 :GeoDetic Datum
SECT .        35                                       :Section
RANG .        10E                                      :Range
TOWN .        23S                                      :Township
#-----------------------------------------------------------------------------
~PARAMETER INFORMATION
#MNEM.UNIT    VALUE                      DESCRIPTION
#---- -----   --------------------       ------------------------
RUN  .          ONE                      :RUN NUMBER
PDAT .        GROUND LEVEL               :Permanent Datum
EPD  .F         1002.000000              :Elevation of Permanent Datum above Mean Sea Level
LMF  .          KELLY BUSHING            :Logging Measured From (Name of Logging Elevation Reference)
APD  .F          23.000000               :Elevation of Depth Reference (LMF) above Permanent Datum
#-----------------------------------------------------------------------------
~CURVE INFORMATION
#MNEM.UNIT   API CODE                                  DESCRIPTION
#---- -----  --------                                  -----------------------
DEPT .F                                                :DEPTH (BOREHOLE) {F10.1}
BS   .IN                                               :Bit Size {F13.4}
CDF  .LBF                                              :Calibrated Downhole Force {F13.4}
DF   .LBF                                              :Uncalibrated Downhole Force {F13.4}
GR   .GAPI                                             :Gamma Ray {F13.4}
HBHK .CFCF                                             :HNGS Borehole Potassium Concentration {F13.4}
HCAL .IN                                               :HRCC Cal. Caliper {F13.4}
HCGR .GAPI                                             :HNGS Computed Gamma Ray {F13.4}
HDRA .G/C3                                             :HRDD Density Correction {F13.4}
HFK  .CFCF                                             :HNGS Formation Potassium Concentration {F13.4}
HMIN .OHMM                                             :MCFL Micro Inverse Resistivity {F13.4}
HMNO .OHMM                                             :MCFL Micro Normal Resistivity {F13.4}
HSGR .GAPI                                             :HNGS Standard Gamma Ray {F13.4}
HTHO .PPM                                              :HNGS Formation Thorium Concentration {F13.4}
HTPR .                                                 :HNGS Thorium/Potassium Ratio {F13.4}
HTUR .                                                 :HNGS Thorium/Uranium Ratio {F13.4}
HURA .PPM                                              :HNGS Formation Uranium Concentration {F13.4}
ICV  .F3                                               :Integrated Cement Volume {F13.4}
IHV  .F3                                               :Integrated Hole Volume {F13.4}
PEFZ .                                                 :HRDD Standard Resolution Formation Photoelectric Factor {F13.4}
RHOZ .G/C3                                             :HRDD Standard Resolution Formation Density {F13.4}
RLA1 .OHMM                                             :HRLT Borehole Corrected Resistivity 1 {F13.4}
RLA2 .OHMM                                             :HRLT Borehole Corrected Resistivity 2 {F13.4}
RLA3 .OHMM                                             :HRLT Borehole Corrected Resistivity 3 {F13.4}
RLA4 .OHMM                                             :HRLT Borehole Corrected Resistivity 4 {F13.4}
RLA5 .OHMM                                             :HRLT Borehole Corrected Resistivity 5 {F13.4}
RXOZ .OHMM                                             :MCFL Standard Resolution Invaded Zone Resistivity {F13.4}
SP   .MV                                               :SP Shifted {F13.4}
TENS .LBF                                              :Cable Tension {F13.4}
TNPH .CFCF                                             :Thermal Neutron Porosity {F13.4}
#-----------------------------------------------------------------------------
# DEPT       
#     BS           CDF          DF           GR_EDTC      HBHK         HCAL         
#     HCGR         HDRA         HFK          HMIN         HMNO         HSGR         
#     HTHO         HTPR         HTUR         HURA         ICV          IHV          
#     PEFZ         RHOZ         RLA1         RLA2         RLA3         RLA4         
#     RLA5         RXOZ         SP           TENS         TNPH         
~A  
# ...
3859.5
     12.2500     958.9612     958.9612     102.6239       0.0123      12.2260
     68.1266      -0.0057       0.0271       1.5102       1.3381     111.1238
      5.9809       2.2080       1.1856       5.0445     487.1719    1180.3812
      2.0891       2.1580       3.0101       5.2522       6.6803       7.1056
      7.8476       1.7367       5.0625    2634.0000       0.3847
3859.0
     12.2500     947.4075     947.4075     104.9343       0.0123      12.1783
     67.4143      -0.0048       0.0276       1.2370       1.0953     110.6684
      5.4274       1.9634       1.0675       5.0845     487.3237    1180.7856
      2.0848       2.1516       2.9247       4.9055       6.2571       6.6301
      7.2929       1.6044       5.1250    2589.0000       0.3940
3858.5
     12.2500     958.9612     958.9612      99.8760       0.0123      12.1783
     69.0397      -0.0031       0.0284       1.1795       1.0442     111.4326
      5.4901       1.9313       1.0852       5.0593     487.4756    1181.1901
      2.0760       2.1447       2.8526       4.6662       5.8817       6.2288
      6.8424       1.5549       5.0000    2628.0000       0.3797
3858.0
     12.2500     958.9612     958.9612      94.2924       0.0123      12.1426
     66.3337      -0.0022       0.0278       1.2269       1.0863     109.7209
      4.9697       1.7855       0.9408       5.2826     487.6250    1181.5922
      2.0438       2.1316       2.8191       4.6972       5.9788       6.3358
      6.9680       1.3643       4.3750    2615.0000       0.3954
3857.5
     12.2500     947.4075     947.4075      89.4924       0.0123      12.1505
     64.1261      -0.0020       0.0268       0.8817       0.7799     104.6713
      4.8810       1.8229       1.0019       4.8718     487.7750    1181.9948
      1.9771       2.1114       2.5861       4.1309       5.1497       5.4362
      5.9467       1.1091       4.1250    2567.0000       0.4139
3857.0
     12.2500     947.4075     947.4075      89.1596       0.0123      12.1585
     58.3679      -0.0016       0.0243       0.8245       0.7292      95.8701
      4.4718       1.8385       0.9955       4.4920     487.9254    1182.3978
      1.9080       2.0889       2.5723       4.1430       5.1326       5.3802
      5.8957       1.0067       4.8750    2572.0000       0.4109
3856.5
     12.2500     958.9612     958.9612      83.5759       0.0123      12.1664
     55.6980      -0.0005       0.0230       0.7254       0.6412      88.5456
      4.3784       1.9020       1.1244       3.8939     488.0765    1182.8015
      1.8645       2.0685       2.6689       4.4024       5.5272       5.8023
      6.3304       0.8572       5.6875    2580.0000       0.3917
3856.0
     12.2500     971.4037     971.4037      79.9041       0.0123      12.1823
     56.2022      -0.0003       0.0235       0.5810       0.5135      87.8427
      4.2396       1.8015       1.1178       3.7930     488.2285    1183.2062
      1.8686       2.0477       2.4572       4.0102       4.9866       5.2067
      5.6855       0.8259       5.8750    2594.0000       0.3750
3855.5
     12.2500     958.9612     958.9612      81.3240       0.0123      12.2141
     57.9565      -0.0003       0.0245       0.6306       0.5572      90.0969
      4.2502       1.7365       1.1163       3.8076     488.3827    1183.6130
      1.8856       2.0402       2.4221       4.1275       5.1906       5.4232
      5.9183       0.7888       5.5625    2654.0000       0.3681
3855.0
     12.2500     934.9650     934.9650      84.0195       0.0123      12.3173
     59.9858      -0.0027       0.0259       0.6866       0.6068      93.6939
      4.0623       1.5680       0.9857       4.1211     488.5438    1184.0267
      1.9119       2.0410       2.3348       3.9452       4.9720       5.1791
      5.6503       0.9169       5.8750    2595.0000       0.3817
3854.5
     12.2500     958.9612     958.9612      85.1748       0.0123      12.3570
     61.7209      -0.0052       0.0266       0.8794       0.7779      96.3625
      4.2093       1.5820       0.9816       4.2883     488.7076    1184.4431
      1.9214       2.0557       2.3422       4.0328       5.1282       5.3762
      5.8462       1.0558       5.3125    2634.0000       0.3805
3854.0
     12.2500     947.4075     947.4075      79.7115       0.0123      12.3331
     61.1842      -0.0072       0.0268       0.9573       0.8469      96.2221
      3.9439       1.4734       0.9039       4.3634     488.8698    1184.8579
      1.9161       2.0726       2.3549       4.1214       5.3154       5.6057
      6.0899       1.1217       5.2500    2630.0000       0.3810
3853.5
     12.2500     947.4075     947.4075      80.0966       0.0123      12.3411
     59.8014      -0.0063       0.0266       0.8959       0.7935      94.6955
      3.5793       1.3439       0.8465       4.2283     489.0324    1185.2732
      1.9191       2.0928       2.3691       4.1251       5.3596       5.6518
      6.1383       1.2010       5.4375    2586.0000       0.3855
3853.0
     12.2500     983.8463     983.8463      83.7549       0.0123      12.3570
     59.8316      -0.0040       0.0270       1.0865       0.9885      95.8149
      3.3808       1.2527       0.7592       4.4529     489.1962    1185.6896
      1.9155       2.1154       2.4038       4.2355       5.5608       5.8666
      6.3902       1.3285       5.4375    2598.0000       0.3819
3852.5
     12.2500     958.9612     958.9612      84.5250       0.0123      12.3093
     61.0988      -0.0023       0.0270       1.2323       1.0912      94.5994
      3.7770       1.3986       0.9308       4.0580     489.3568    1186.1028
      1.9348       2.1304       2.4545       4.4784       5.9713       6.3372
      6.9053       1.4727       5.2500    2605.0000       0.3805
3852.0
     12.2500     947.4075     947.4075      86.2579       0.0123      12.3967
     61.7571      -0.0009       0.0270       0.9279       0.8946      96.5681
      4.0093       1.4866       0.9422       4.2550     489.5232    1186.5219
      1.9337       2.1430       2.3940       4.2863       5.6402       5.9859
      6.5085       1.6038       5.6875    2571.0000       0.3710
3851.5
     12.2500     947.4075     947.4075      85.9342       0.0123      12.4642
     60.3384      -0.0003       0.0260       1.4999       1.3290      94.3705
      4.1042       1.5767       0.9701       4.2308     489.6942    1186.9456
      1.9280       2.1477       2.5424       4.7622       6.4600       6.9372
      7.6136       1.7282       7.1875    2596.0000       0.3468
3851.0
     12.2500     947.4075     947.4075      91.3254       0.0123      12.3689
     60.3926      -0.0001       0.0261       1.5279       1.3538      96.9181
      4.1055       1.5755       0.8979       4.5724     489.8588    1187.3628
      1.9063       2.1490       2.5786       4.8801       6.7126       7.2566
      7.9429       1.8438       4.0000    2584.0000       0.3367
3850.5
     12.2500     947.4075     947.4075      92.6732       0.0123      12.2776
     61.1008      -0.0009       0.0262       1.4335       1.2699      97.6802
      4.2469       1.6206       0.9292       4.5703     490.0172    1187.7738
      1.8938       2.1465       2.5205       4.6456       6.2747       6.7421
      7.4118       1.6446       4.5625    2605.0000       0.3188
3850.0
     12.2500     947.4075     947.4075      91.6491       0.0123      12.5634
     62.0012      -0.0021       0.0267       1.1191       0.9906      99.8205
      4.2351       1.5851       0.8853       4.7837     490.1950    1188.2042
      1.9108       2.1449       2.4700       4.4249       5.8758       6.2752
      6.9053       1.4062       4.8750    2609.0000       0.3128
3849.5
     12.2500     958.9612     958.9612      92.9968       0.0123      12.6785
     63.4401      -0.0031       0.0272       1.0198       0.9024     103.7230
      4.4103       1.6210       0.8805       5.0090     490.3807    1188.6426
      1.9393       2.1484       2.4932       4.4284       5.8276       6.2412
      6.8695       1.3248       4.6875    2571.0000       0.3114
