~Version Information
VERS  .          2.0                              :CWLS Log Ascii Standard - Version 2.0
WRAP  .          NO                               :One line per depth step
~Well Information Block
#MNEM.UNIT       Data Type                        Information
#---------       ---------                        -------------------------------
STRT  .F         5219.99583                       :START DEPTH
STOP  .F         1629.99583                       :STOP DEPTH
STEP  .F         -0.00000                         :INCREMENT
NULL  .          -999.25                          :NULL DATA VALUE
COMP  .          VENOCO, INC.                     :COMPANY
WELL  .          HAMES VALLEY 1-35                :WELL
FLD   .          SOUTH SALINAS                    :FIELD
LOC   .                                           :LOCATION
PROV  .          CALIFORNIA                       :PROVINCE
STAT  .          CALIFORNIA                       :STATE
CNTY  .          MONTEREY                         :COUNTY
CTRY  .          U.S.A                            :COUNTRY
DATE  .          2-Jan-2011                       :DATE
UWI   .          040532205900                     :UNIQUE WELL UWI
LIC   .                                           :LICENSE NUMBER
API   .          040532205900                                                                                                                      :API NUMBER
SRVC  .                                           :SERVICE COMPANY
~Parameter Information Block
#MNEM.UNIT       Value                            Description
#---------       ---------                        -------------
LONG  .DEG       -120.859398                      :Well Surface Location
LATI  .DEG       35.889400                        :Well Surface Location
XWELL .DEG       -120.859398                      :X-coordinate of Well Head
YWELL .DEG       35.889400                        :Y-coordinate of Well Head
~Curve Information Block
#MNEM.UNIT       API Code            Curve    Description
#--------        --------------      -----    -------------------
DEPT  .F                             :0       Index
DIP_HEIGHT.F                         :1       Height of Dip Plane Intersection with Borehole
DPAA_NAZ.DEG                         :2       Apparent Dip Azimuth - North  
DPAA_TOH.DEG                         :3       Apparent Dip Azimuth - Top of Hole
DPAP  .DEG                           :4       Apparent Dip Angle - Tool     
DPAZ  .DEG                           :5       True Dip Azimuth              
DPTR  .DEG                           :6       True Dip Angle                
QUAF  .                              :7       Dip Quality Factor            
~Ascii Data Section
# ...
   2073.99583       0.19825     115.85738      57.88797      10.03531     121.86762       9.46039      17.00000 
   2071.99583       0.19620     115.53729      59.36299       9.95794     121.64679       9.41315      17.00000 
   2069.99583       0.19939     117.21491      68.02836       9.98808     123.83000       9.60218      17.00000 
   2067.99583       0.20199     115.80820      75.48537       9.99372     122.83680       9.75574      17.00000 
   2065.99583       0.20735     108.54664      76.84084      10.18545     115.49808       9.97445      17.00000 
   2063.99583       0.24871     104.52987      79.85073      12.13836     110.17221      11.98328      17.00000 
   2061.99583       0.44579     103.08206      83.06614      21.07176     106.11687      20.96128      15.00000 
   2059.99583       0.14183     117.76246     101.49003       6.96160     126.74763       7.28369      14.00000 
   2057.99583       0.11661     134.35022     122.60800       5.62782     143.51016       6.35876      17.00000 
   2055.99583       0.15061     113.19593     107.40619       6.75708     122.80695       7.23988      17.00000 
   2053.99583       0.17452     104.99978     106.20937       7.70254     113.78005       8.16334      17.00000 
   2051.99583       0.17675     107.22549     112.08135       8.03941     115.37644       8.62687      17.00000 
   2049.99583       0.16925     111.22485     117.54649       7.79810     118.68095       8.44546      17.00000 
   2047.99583       0.18047     113.21692     116.91732       8.50496     119.79653       9.09882      17.00000 
   2045.99583       0.19209     118.22275     119.84423       9.26014     124.21033       9.91346      17.00000 
   2043.99583       0.18302     118.39179     120.09063       8.70308     125.17531       9.41954      17.00000 
   2041.99583       0.17994     114.07100     119.27071       8.37689     121.16334       9.08012      17.00000 
   2039.99583       0.20179     115.54118     124.48891       9.48816     121.40707      10.27085      17.00000 
   2037.99583       0.22509     119.04606     131.59073      10.51389     123.54298      11.34887      17.00000 
   2035.99583       0.28179     120.84366     129.70923      13.33918     124.27069      14.07734      17.00000 
   2033.99583       0.29523     120.39037     125.69576      14.09030     123.84975      14.77197      17.00000 
   2031.99583       0.24422      66.50052      70.26612      11.76769      72.09750      11.41776      13.00000 
   2029.99583       0.19819      99.51919     105.68927       9.46607     106.66338       9.89253      17.00000 
   2027.99583       0.19464     107.89081     117.54942       9.25202     114.50782       9.92078      17.00000 
   2025.99583       0.18640     108.25311     120.64514       8.92734     114.63676       9.62746      17.00000 
   2023.99583       0.16158     111.70148     124.38553       7.95619     118.04676       8.67016      18.00000 
   2021.99583       0.16307     109.88251     119.83064       8.13037     116.21413       8.74089      17.00000 
   2019.99583       0.17669     100.00590     107.21633       8.60063     107.13026       9.02026      17.00000 
   2017.99583       0.23855      92.74025     100.83062      11.57250      98.72445      11.87851      17.00000 
   2015.99583       0.24789      99.01144     109.76100      11.97837     104.65622      12.48810      17.00000 
   2013.99583       0.65264      97.36906     110.48662      29.43203      99.49548      29.91130      13.00000 
   2011.99583       0.40667      95.68063     109.48088      19.59121      98.84246      20.03041      12.00000 
   2009.99583       0.06544     175.06696     187.82559       3.29012     173.02597       4.44482      17.00000 
   2007.99583       0.07022     165.25166     176.40819       3.51594     166.14182       4.67927      17.00000 
   2005.99583       0.14152     118.51120     129.84961       7.04624     125.29877       7.88402      17.00000 
   2003.99583       0.17090     112.45766     126.81601       8.40638     118.76303       9.22744      17.00000 
   2001.99583       0.18237     111.17460     129.00970       8.91930     116.88730       9.76277      17.00000 
   1999.99583       0.17920     113.65077     134.02118       8.97593     118.61803       9.84492      17.00000 
   1997.99583       0.18625     113.61238     134.34158       9.32635     118.16902      10.15527      17.00000 
   1995.99583       0.20420     110.25919     129.69817      10.16150     114.68254      10.90052      17.00000 
   1993.99583       0.20093     111.22822     128.35953      10.02728     115.88607      10.76286      17.00000 
   1991.99583       0.19811     111.61304     128.57498       9.80097     116.53726      10.57217      17.00000 
   1989.99583       0.19152     108.64864     126.96568       9.52673     113.95517      10.29543      17.00000 
   1987.99583       0.17159     109.00964     129.27914       8.63624     114.50491       9.42456      17.00000 
   1985.99583       0.17303     109.13465     130.67657       8.69787     114.18819       9.45725      17.00000 
   1983.99583       0.18713     114.55488     135.02254       9.43282     118.75822      10.21786      17.00000 
   1981.99583       0.18879     115.31803     132.04684       9.50465     119.76612      10.26100      17.00000 
   1979.99583       0.18763     110.46889     124.89097       9.38438     115.66232      10.06797      17.00000 
   1977.99583       0.18559     106.29301     120.47623       9.33631     111.99395       9.97496      17.00000 
   1975.99583       0.18263     106.11837     122.04259       9.23011     111.78291       9.89618      17.00000 
   1973.99583       0.17947     104.02175     121.76907       9.05933     109.61265       9.69637      17.00000 
   1971.99583       0.18589     114.44769     133.15730       9.30875     118.86568      10.07389      17.00000 
   1969.99583       0.19274     107.79053     125.93301       9.76001     112.44547      10.41385      17.00000 
   1967.99583       0.19245     108.43368     125.09520       9.75116     113.28707      10.41473      17.00000 
   1965.99583       0.19779     103.70862     120.01968       9.94594     109.02089      10.56317      17.00000 
   1963.99583       0.19674     104.74300     123.73343       9.94385     109.95213      10.64069      17.00000 
   1961.99583       0.19206     103.48840     124.65112       9.41954     108.87418      10.12853      17.00000 
   1959.99583       0.19203     105.15934     126.84918       9.52172     110.12059      10.23045      17.00000 
   1957.99583       0.18919     105.89946     126.95698       9.48518     110.61274      10.15409      17.00000 
   1955.99583       0.15969     115.49156     133.54759       8.14125     120.35503       8.89598      17.00000 
   1953.99583       0.15417     125.93993     142.13625       7.84775     130.22887       8.71698      17.00000 
   1951.99583       0.17554     117.16531     134.16196       8.62204     121.98270       9.43152      17.00000 
   1949.99583       0.18023     110.78806     127.84371       8.79565     116.19089       9.54270      17.00000 
   1947.99583       0.17840     111.75840     127.82194       8.82742     117.10429       9.56757      17.00000 
   1945.99583       0.20323     111.63772     124.47532      10.02427     116.57041      10.70338      17.00000 
   1943.99583       0.20755     110.64922     118.06638      10.35165     115.84561      10.93112      17.00000 
   1941.99583       0.20425     109.06492     112.40976      10.15854     114.80282      10.65672      17.00000 
   1939.99583       0.20696     107.80712     109.33604      10.30475     113.77383      10.76063      17.00000 
   1937.99583       0.20185     107.97745     108.37017      10.04542     114.12164      10.48282      17.00000 
   1935.99583       0.17385     106.97547     105.20410       8.63543     114.09203       9.01114      17.00000 
   1933.99583       0.17533     110.27106     104.45556       8.72022     117.24184       9.07390      17.00000 
