~VERSION INFORMATION
VERS.           2.0   :CWLS Log ASCII Standard - VERSION 2.0
WRAP.           NO    :One Line per depth step
PROD.  Schlumberger   :LAS Producer
PROG.  DLIS to ASCII 19C0-187                          :LAS Program name and version
CREA.        2011/01/03 01:40                          :LAS Creation date {YYYY/MM/DD hh:mm}
DLIS_CREA.  2011-Jan-02 17:53                          :DLIS Creation date and time {YYYY-MMM-DD hh:mm}
SOURCE.     BC0W-00120_VENOCO_HAMES_VALLEY_HAMES_VALLEY_1-35_FMI_DSST_MAIN.DLIS  :DLIS File Name
FILE-ID.     FMI_CAL_DSI_028PUP                        :File Identification Number
#--------------------------------------------------
~WELL INFORMATION
#MNEM.UNIT      DATA             DESCRIPTION
#---- ------ --------------   -----------------------------
STRT .F         5241.0       :START DEPTH     
STOP .F         1500.5       :STOP DEPTH     
STEP .F           -0.5       :STEP     
NULL .          -999.25      :NULL VALUE
COMP .        VENOCO, INC.                             :COMPANY
WELL .        HAMES VALLEY 1-35                        :WELL
FLD  .        HAMES VALLEY                             :FIELD
LOC  .        LAT: 35.889467                           :LOCATION
CNTY .        MONTEREY                                 :COUNTY
STAT .        CALIFORNIA                               :STATE
CTRY .                                                 :COUNTRY
API  .        040532205900                             :API NUMBER
UWI  .        040532205900                             :UNIQUE WELL ID
DATE .        02-Jan-2011                              :LOG DATE {DD-MMM-YYYY}
SRVC .        Schlumberger                             :SERVICE COMPANY
LATI .DEG                                              :LATITUDE
LONG .DEG                                              :LONGITUDE
GDAT .                                                 :GeoDetic Datum
SECT .        35                                       :Section
RANG .        10E                                      :Range
TOWN .        23S                                      :Township
#-----------------------------------------------------------------------------
~PARAMETER INFORMATION
#MNEM.UNIT    VALUE                      DESCRIPTION
#---- -----   --------------------       ------------------------
RUN  .          ONE                      :RUN NUMBER
PDAT .        GROUND LEVEL               :Permanent Datum
EPD  .F         1002.000000              :Elevation of Permanent Datum above Mean Sea Level
LMF  .          KELLY BUSHING            :Logging Measured From (Name of Logging Elevation Reference)
APD  .F          23.000000               :Elevation of Depth Reference (LMF) above Permanent Datum
#-----------------------------------------------------------------------------
~CURVE INFORMATION
#MNEM.UNIT   API CODE                                  DESCRIPTION
#---- -----  --------                                  -----------------------
DEPT .F                                                :DEPTH (BOREHOLE) {F10.1}
BS   .IN                                               :Bit Size {F13.4}
CDF  .LBF                                              :Calibrated Downhole Force {F13.4}
DF   .LBF                                              :Uncalibrated Downhole Force {F13.4}
DTCO .US/F                                             :Delta-T Compressional {F13.4}
DTSM .US/F                                             :Delta-T Shear {F13.4}
GR_EDTC.GAPI                                           :EDTC Gamma Ray {F13.4}
HD1_PPC1.IN                                            :PPC1 Hole Diameter 1 {F13.4}
HD1_PPC2.IN                                            :PPC2 Hole Diameter 1 {F13.4}
HD2_PPC1.IN                                            :PPC1 Hole Diameter 2 {F13.4}
HD2_PPC2.IN                                            :PPC2 Hole Diameter 2 {F13.4}
ICV  .F3                                               :Integrated Cement Volume {F13.4}
IHV  .F3                                               :Integrated Hole Volume {F13.4}
ITT  .S                                                :Integrated Transit Time {F13.4}
SPHI .CFCF                                             :Sonic Porosity {F13.4}
TENS .LBF                                              :Cable Tension {F13.4}
#-----------------------------------------------------------------------------
# 
#     DEPT        BS           CDF          DF           DTCO         DTSM       GR_EDTC      HD1_PPC1     HD1_PPC2     HD2_PPC1     HD2_PPC2       ICV          IHV          ITT          SPHI         TENS
#
~A  
# ...
    2998.5      12.2500    1226.4750    1226.4750     134.7866    -999.2500      74.1208      13.6980      13.7426      13.4534      13.7260     812.2838    1940.5236       0.2221       0.3653    2748.0000
    2998.0      12.2500    1202.4788    1202.4788     134.9904    -999.2500      80.5126      13.7046      13.7218      13.4524      13.7370     812.5340    1941.0264       0.2221       0.3657    2680.0000
    2997.5      12.2500    1262.9138    1262.9138     134.3214    -999.2500      80.0746      13.6046      13.5836      13.3233      13.6095     812.7757    1941.5208       0.2222       0.3644    2739.0000
    2997.0      12.2500    1238.9175    1238.9175     135.2079    -999.2500      83.6683      13.5700      13.6156      13.3105      13.5164     813.0157    1942.0133       0.2223       0.3661    2844.0000
    2996.5      12.2500    1190.0363    1190.0363     132.0633    -999.2500      89.2247      13.5284      13.5415      13.1681      13.4812     813.2489    1942.4991       0.2223       0.3600    2541.0000
    2996.0      12.2500    1214.9213    1214.9213     128.4172    -999.2500      98.0650      13.5389      13.3287      13.1086      13.2828     813.4803    1942.9832       0.2224       0.3525    2753.0000
    2995.5      12.2500    1214.9213    1214.9213     119.3228    -999.2500     103.8144      13.2889      13.2539      12.9539      13.2360     813.6971    1943.4526       0.2225       0.3317    2687.0000
    2995.0      12.2500    1166.0400    1166.0400     116.8050    -999.2500     110.1646      13.1428      13.1259      12.9182      13.1537     813.9075    1943.9156       0.2225       0.3254    2503.0000
    2994.5      12.2500    1226.4750    1226.4750     113.7723    -999.2500     112.8464      13.0798      13.1071      12.8462      13.1310     814.1132    1944.3739       0.2226       0.3174    2673.0000
    2994.0      12.2500    1202.4788    1202.4788     112.5367    -999.2500     113.8030      13.1009      13.1476      12.8226      13.1422     814.3187    1944.8320       0.2226       0.3140    2618.0000
    2993.5      12.2500    1190.0363    1190.0363     112.1480    -999.2500     113.0878      13.2263      13.2779      12.9061      13.2019     814.5316    1945.2976       0.2227       0.3129    2639.0000
    2993.0      12.2500    1226.4750    1226.4750     113.9361    -999.2500     116.2599      13.2368      13.5406      12.9061      13.2833     814.7448    1945.7635       0.2227       0.3178    2797.0000
    2992.5      12.2500    1190.0363    1190.0363     114.0279    -999.2500     117.8806      13.5910      13.4593      13.1209      13.3426     814.9785    1946.2499       0.2228       0.3181    2595.0000
    2992.0      12.2500    1238.9175    1238.9175     114.4976    -999.2500     119.3510      13.3727      13.3926      13.0136      13.2943     815.2005    1946.7245       0.2228       0.3193    2774.0000
    2991.5      12.2500    1202.4788    1202.4788     114.4080    -999.2500     113.7998      13.3622      13.4482      13.0013      13.2948     815.4217    1947.1982       0.2229       0.3191    2753.0000
    2991.0      12.2500    1177.5938    1177.5938     114.8963    -999.2500     115.3298      13.4143      13.4219      13.0133      13.3172     815.6451    1947.6743       0.2230       0.3204    2519.0000
    2990.5      12.2500    1226.4750    1226.4750     115.2282    -999.2500     111.1664      13.5494      13.5650      13.0851      13.4008     815.8760    1948.1578       0.2230       0.3213    2747.0000
    2990.0      12.2500    1190.0363    1190.0363     115.9456    -999.2500     114.9333      13.5494      13.5202      13.0848      13.3764     816.1069    1948.6414       0.2231       0.3231    2628.0000
    2989.5      12.2500    1214.9213    1214.9213     115.9960    -999.2500     110.4294      13.5806      13.6371      13.3461      13.6678     816.3486    1949.1356       0.2231       0.3233    2610.0000
    2989.0      12.2500    1251.3600    1251.3600     115.9086    -999.2500     108.0112      13.7773      13.7215      13.7466      13.6678     816.6125    1949.6521       0.2232       0.3230    2719.0000
    2988.5      12.2500    1202.4788    1202.4788     115.1806    -999.2500     105.0373      14.9806      14.9652      14.4804      14.7464     816.9515    1950.2437       0.2233       0.3211    2700.0000
    2988.0      12.2500    1214.9213    1214.9213     115.4637    -999.2500      97.1070      14.6774      14.7067      14.3066      14.5650     817.2716    1950.8163       0.2233       0.3219    2642.0000
    2987.5      12.2500    1226.4750    1226.4750     114.4525    -999.2500      97.3445      14.3926      14.3565      14.0626      14.3151     817.5709    1951.3683       0.2234       0.3192    2719.0000
    2987.0      12.2500    1214.9213    1214.9213     115.4809    -999.2500      93.9741      14.3316      14.3213      13.8757      14.1986     817.8607    1951.9106       0.2234       0.3219    2660.0000
    2986.5      12.2500    1190.0363    1190.0363     115.2307    -999.2500      99.7236      13.8906      13.6481      13.7118      13.9339     818.1274    1952.4301       0.2235       0.3213    2622.0000
    2986.0      12.2500    1190.0363    1190.0363     115.1941    -999.2500      98.1375      13.6425      13.5950      13.5468      13.8301     818.3788    1952.9341       0.2235       0.3212    2575.0000
    2985.5      12.2500    1202.4788    1202.4788     116.4137    -999.2500     102.4992      13.4243      13.3506      13.3105      13.6095     818.6135    1953.4214       0.2236       0.3243    2621.0000
    2985.0      12.2500    1214.9213    1214.9213     120.7280    -999.2500     101.9044      13.2365      13.2569      13.1206      13.3660     818.8345    1953.8950       0.2237       0.3351    2675.0000
    2984.5      12.2500    1202.4788    1202.4788     117.2510    -999.2500      98.3358      13.2367      13.3500      13.0968      13.3182     819.0547    1954.3678       0.2237       0.3265    2592.0000
    2984.0      12.2500    1226.4750    1226.4750     116.8687    -999.2500      88.9051      13.8185      13.8697      13.3105      13.5867     819.3037    1954.8694       0.2238       0.3255    2691.0000
    2983.5      12.2500    1214.9213    1214.9213     116.0665    -999.2500      87.6806      13.8698      13.8908      13.3461      13.6095     819.5559    1955.3743       0.2238       0.3234    2752.0000
    2983.0      12.2500    1214.9213    1214.9213     115.8677    -999.2500      86.4982      13.8596      13.9543      13.3578      13.6678     819.8082    1955.8792       0.2239       0.3229    2693.0000
    2982.5      12.2500    1214.9213    1214.9213     114.7304    -999.2500      87.6021      14.0345      13.9466      13.4524      13.6336     820.0704    1956.3940       0.2239       0.3199    2701.0000
    2982.0      12.2500    1226.4750    1226.4750     116.9752    -999.2500      85.0597      13.9832      13.8596      13.4524      13.4812     820.3308    1956.9071       0.2240       0.3258    2657.0000
    2981.5      12.2500    1214.9213    1214.9213     118.2260    -999.2500      87.3865      13.7808      13.6377      13.1806      13.4227     820.5735    1957.4025       0.2241       0.3290    2693.0000
    2981.0      12.2500    1202.4788    1202.4788     123.8846    -999.2500      90.3603      13.6114      13.5950      13.1206      13.3879     820.8080    1957.8895       0.2241       0.3425    2661.0000
    2980.5      12.2500    1190.0363    1190.0363     126.5778    -999.2500      91.9464      13.4967      13.4888      13.0254      13.3296     821.0348    1958.3689       0.2242       0.3485    2637.0000
    2980.0      12.2500    1202.4788    1202.4788     129.3643    -999.2500      90.4363      13.4867      13.3957      13.0254      13.3655     821.2612    1958.8480       0.2243       0.3544    2625.0000
    2979.5      12.2500    1226.4750    1226.4750     133.1377    -999.2500      91.2585      13.3932      13.4888      13.0369      13.3883     821.4848    1959.3242       0.2243       0.3621    2688.0000
