~VERSION INFORMATION
VERS.           2.0   :CWLS Log ASCII Standard - VERSION 2.0
WRAP.           NO    :One Line per depth step
PROD.  Schlumberger   :LAS Producer
PROG.  DLIS to ASCII 19C0-187                          :LAS Program name and version
CREA.        2011/01/03 01:40                          :LAS Creation date {YYYY/MM/DD hh:mm}
DLIS_CREA.  2011-Jan-02 17:53                          :DLIS Creation date and time {YYYY-MMM-DD hh:mm}
SOURCE.     BC0W-00120_VENOCO_HAMES_VALLEY_HAMES_VALLEY_1-35_FMI_DSST_MAIN.DLIS  :DLIS File Name
FILE-ID.     FMI_CAL_DSI_028PUP                        :File Identification Number
#--------------------------------------------------
~WELL INFORMATION
#MNEM.UNIT      DATA             DESCRIPTION
#---- ------ --------------   -----------------------------
STRT .F         5241.0       :START DEPTH     
STOP .F         1500.5       :STOP DEPTH     
STEP .F           -0.5       :STEP     
NULL .          -999.25      :NULL VALUE
COMP .        VENOCO, INC.                             :COMPANY
WELL .        HAMES VALLEY 1-35                        :WELL
FLD  .        HAMES VALLEY                             :FIELD
LOC  .        LAT: 35.889467                           :LOCATION
CNTY .        MONTEREY                                 :COUNTY
STAT .        CALIFORNIA                               :STATE
CTRY .                                                 :COUNTRY
API  .        040532205900                             :API NUMBER
UWI  .        040532205900                             :UNIQUE WELL ID
DATE .        02-Jan-2011                              :LOG DATE {DD-MMM-YYYY}
SRVC .        Schlumberger                             :SERVICE COMPANY
LATI .DEG                                              :LATITUDE
LONG .DEG                                              :LONGITUDE
GDAT .                                                 :GeoDetic Datum
SECT .        35                                       :Section
RANG .        10E                                      :Range
TOWN .        23S                                      :Township
#-----------------------------------------------------------------------------
~PARAMETER INFORMATION
#MNEM.UNIT    VALUE                      DESCRIPTION
#---- -----   --------------------       ------------------------
RUN  .          ONE                      :RUN NUMBER
PDAT .        GROUND LEVEL               :Permanent Datum
EPD  .F         1002.000000              :Elevation of Permanent Datum above Mean Sea Level
LMF  .          KELLY BUSHING            :Logging Measured From (Name of Logging Elevation Reference)
APD  .F          23.000000               :Elevation of Depth Reference (LMF) above Permanent Datum
#-----------------------------------------------------------------------------
~CURVE INFORMATION
#MNEM.UNIT   API CODE                                  DESCRIPTION
#---- -----  --------                                  -----------------------
DEPT .F                                                :DEPTH (BOREHOLE) {F10.1}
BS   .IN                                               :Bit Size {F13.4}
CDF  .LBF                                              :Calibrated Downhole Force {F13.4}
DF   .LBF                                              :Uncalibrated Downhole Force {F13.4}
DTCO .US/F                                             :Delta-T Compressional {F13.4}
DTSM .US/F                                             :Delta-T Shear {F13.4}
GR_EDTC.GAPI                                           :EDTC Gamma Ray {F13.4}
HD1_PPC1.IN                                            :PPC1 Hole Diameter 1 {F13.4}
HD1_PPC2.IN                                            :PPC2 Hole Diameter 1 {F13.4}
HD2_PPC1.IN                                            :PPC1 Hole Diameter 2 {F13.4}
HD2_PPC2.IN                                            :PPC2 Hole Diameter 2 {F13.4}
ICV  .F3                                               :Integrated Cement Volume {F13.4}
IHV  .F3                                               :Integrated Hole Volume {F13.4}
ITT  .S                                                :Integrated Transit Time {F13.4}
SPHI .CFCF                                             :Sonic Porosity {F13.4}
TENS .LBF                                              :Cable Tension {F13.4}
#-----------------------------------------------------------------------------
# 
#     DEPT        BS           CDF          DF           DTCO         DTSM       GR_EDTC      HD1_PPC1     HD1_PPC2     HD2_PPC1     HD2_PPC2       ICV          IHV          ITT          SPHI         TENS
#
~A  
# ...
    1516.5      12.2500    1226.4750    1226.4750      53.9155      86.6072      46.8970      13.1569      13.1740      12.6905      13.0002    1459.3867    3332.6238       0.4279      -0.0242    2400.0000
    1516.0      12.2500    1251.3600    1251.3600      53.7383      88.7752      47.2935      13.1465      13.1763      12.7023      13.0124    1459.3867    3332.6238       0.4279      -0.0263    2466.0000
    1515.5      12.2500    1202.4788    1202.4788      54.9038      90.7080      50.6925      13.1151      13.1871      12.7147      13.0009    1459.3867    3332.6238       0.4280      -0.0125    2400.0000
    1515.0      12.2500    1238.9175    1238.9175      53.6901      88.6018      50.7064      13.1465      13.2085      12.7265      12.9889    1459.3867    3332.6238       0.4280      -0.0269    2480.0000
    1514.5      12.2500    1226.4750    1226.4750      54.6715      90.2292      45.9482      13.1362      13.1980      12.7386      12.9769    1459.3867    3332.6238       0.4280      -0.0152    2426.0000
    1514.0      12.2500    1226.4750    1226.4750      55.4632      90.2035      44.8737      13.1465      13.2088      12.7265      12.9884    1459.3867    3332.6238       0.4281      -0.0060    2430.0000
    1513.5      12.2500    1238.9175    1238.9175      54.8967      96.2862      48.2302      13.1674      13.1980      12.7383      13.0004    1459.3867    3332.6238       0.4281      -0.0126    2414.0000
    1513.0      12.2500    1214.9213    1214.9213      54.2367     102.4842      50.1486      13.1569      13.1871      12.7265      13.0239    1459.3867    3332.6238       0.4281      -0.0203    2362.0000
    1512.5      12.2500    1226.4750    1226.4750      55.4365     102.0740      45.7335      13.1707      13.1848      12.7147      13.0113    1459.3867    3332.6238       0.4281      -0.0064    2369.0000
    1512.0      12.2500    1214.9213    1214.9213      57.4511     106.9948      44.2045      13.1779      13.1871      12.7144      13.0124    1459.3867    3332.6238       0.4282       0.0158    2368.0000
    1511.5      12.2500    1238.9175    1238.9175      55.6304     101.9140      48.4320      13.1707      13.1763      12.7026      13.0009    1459.3867    3332.6238       0.4282      -0.0042    2425.0000
    1511.0      12.2500    1214.9213    1214.9213      57.8796      98.9126      52.0007      13.1674      13.1871      12.7144      13.0009    1459.3867    3332.6238       0.4282       0.0203    2397.0000
    1510.5      12.2500    1214.9213    1214.9213      56.8115     104.1726      52.3242      13.1674      13.1871      12.7265      13.0124    1459.3867    3332.6238       0.4282       0.0089    2449.0000
    1510.0      12.2500    1238.9175    1238.9175      55.9671     105.9468      50.8793      13.1778      13.1766      12.7023      13.0124    1459.3867    3332.6238       0.4283      -0.0004    2459.0000
    1509.5      12.2500    1214.9213    1214.9213      57.2919     106.5503      52.6636      13.1674      13.1871      12.7265      13.0239    1459.3867    3332.6238       0.4283       0.0141    2426.0000
    1509.0      12.2500    1238.9175    1238.9175      56.9183     108.9334      50.8442      13.1569      13.1848      12.7141      13.0113    1459.3867    3332.6238       0.4283       0.0101    2422.0000
    1508.5      12.2500    1251.3600    1251.3600      56.9183     108.9334      48.1257      13.1571      13.1871      12.7144      13.0009    1459.3867    3332.6238       0.4283       0.0101    2451.0000
    1508.0      12.2500    1226.4750    1226.4750      56.9183     108.9334      44.8779      13.1465      13.1871      12.7383      12.9889    1459.3867    3332.6238       0.4283       0.0101    2406.0000
    1507.5      12.2500    1226.4750    1226.4750      56.9183     108.9334      44.7307      13.1569      13.1871      12.7265      12.9769    1459.3867    3332.6238       0.4283       0.0101    2409.0000
    1507.0      12.2500    1226.4750    1226.4750      56.9183     108.9334      42.9464      13.1498      13.1871      12.7268      13.0124    1459.3867    3332.6238       0.4283       0.0101    2394.0000
    1506.5      12.2500    1238.9175    1238.9175      56.9183     108.9334      50.3498      13.1778      13.1871      12.7265      13.0120    1459.3867    3332.6238       0.4283       0.0101    2428.0000
    1506.0      12.2500    1226.4750    1226.4750      56.9183     108.9334      52.1341      13.1674      13.1740      12.7265      13.0232    1459.3867    3332.6238       0.4283       0.0101    2409.0000
    1505.5      12.2500    1226.4750    1226.4750      56.9183     108.9334      56.8128      13.1674      13.1740      12.7265      13.0002    1459.3867    3332.6238       0.4283       0.0101    2444.0000
    1505.0      12.2500    1226.4750    1226.4750      56.9183     108.9334      49.8956      13.1778      13.1763      12.7144      13.0124    1459.3867    3332.6238       0.4283       0.0101    2436.0000
    1504.5      12.2500    1226.4750    1226.4750      56.9183     108.9334      47.7148      13.1603      13.1871      12.7268      13.0120    1459.3867    3332.6238       0.4283       0.0101    2449.0000
    1504.0      12.2500    1226.4750    1226.4750      56.9183     108.9334      46.6582      13.1571      13.1848      12.7265      12.9997    1459.3867    3332.6238       0.4283       0.0101    2459.0000
    1503.5      12.2500    1226.4750    1226.4750      56.9183     108.9334      50.2127      13.1362      13.1740      12.7147      12.9882    1459.3867    3332.6238       0.4283       0.0101    2378.0000
    1503.0      12.2500    1226.4750    1226.4750      56.9183     108.9334      49.2910      13.1151      13.1980      12.7265      13.0009    1459.3867    3332.6238       0.4283       0.0101    2397.0000
    1502.5      12.2500    1226.4750    1226.4750      56.9183     108.9334      51.4184      13.1362      13.1871      12.7265      13.0124    1459.3867    3332.6238       0.4283       0.0101    2399.0000
    1502.0      12.2500    1214.9213    1214.9213      56.9183     108.9334      50.6253      13.1362      13.1871      12.7265      12.9884    1459.3867    3332.6238       0.4283       0.0101    2345.0000
    1501.5      12.2500    1226.4750    1226.4750      56.9183     108.9334      51.8795      13.1465      13.1871      12.7265      13.0009    1459.3867    3332.6238       0.4283       0.0101    2368.0000
    1501.0      12.2500    1214.9213    1214.9213      56.9183     108.9334      46.9231      13.1465      13.1871      12.7265      13.0009    1459.3867    3332.6238       0.4283       0.0101    2369.0000
    1500.5      12.2500    1226.4750    1226.4750      56.9183     108.9334      41.5725      13.1362      13.1766      12.7265      13.0004    1459.3867    3332.6238       0.4283       0.0101    2371.0000
