~VERSION INFORMATION
VERS.           2.0   :CWLS Log ASCII Standard - VERSION 2.0
WRAP.           NO    :One Line per depth step
PROD.  Schlumberger   :LAS Producer
PROG.  DLIS to ASCII 19C0-187                          :LAS Program name and version
CREA.        2011/01/03 01:40                          :LAS Creation date {YYYY/MM/DD hh:mm}
DLIS_CREA.  2011-Jan-02 17:53                          :DLIS Creation date and time {YYYY-MMM-DD hh:mm}
SOURCE.     BC0W-00120_VENOCO_HAMES_VALLEY_HAMES_VALLEY_1-35_FMI_DSST_MAIN.DLIS  :DLIS File Name
FILE-ID.     FMI_CAL_DSI_028PUP                        :File Identification Number
#--------------------------------------------------
~WELL INFORMATION
#MNEM.UNIT      DATA             DESCRIPTION
#---- ------ --------------   -----------------------------
STRT .F         5241.0       :START DEPTH     
STOP .F         1500.5       :STOP DEPTH     
STEP .F           -0.5       :STEP     
NULL .          -999.25      :NULL VALUE
COMP .        VENOCO, INC.                             :COMPANY
WELL .        HAMES VALLEY 1-35                        :WELL
FLD  .        HAMES VALLEY                             :FIELD
LOC  .        LAT: 35.889467                           :LOCATION
CNTY .        MONTEREY                                 :COUNTY
STAT .        CALIFORNIA                               :STATE
CTRY .                                                 :COUNTRY
API  .        040532205900                             :API NUMBER
UWI  .        040532205900                             :UNIQUE WELL ID
DATE .        02-Jan-2011                              :LOG DATE {DD-MMM-YYYY}
SRVC .        Schlumberger                             :SERVICE COMPANY
LATI .DEG                                              :LATITUDE
LONG .DEG                                              :LONGITUDE
GDAT .                                                 :GeoDetic Datum
SECT .        35                                       :Section
RANG .        10E                                      :Range
TOWN .        23S                                      :Township
#-----------------------------------------------------------------------------
~PARAMETER INFORMATION
#MNEM.UNIT    VALUE                      DESCRIPTION
#---- -----   --------------------       ------------------------
RUN  .          ONE                      :RUN NUMBER
PDAT .        GROUND LEVEL               :Permanent Datum
EPD  .F         1002.000000              :Elevation of Permanent Datum above Mean Sea Level
LMF  .          KELLY BUSHING            :Logging Measured From (Name of Logging Elevation Reference)
APD  .F          23.000000               :Elevation of Depth Reference (LMF) above Permanent Datum
#-----------------------------------------------------------------------------
~CURVE INFORMATION
#MNEM.UNIT   API CODE                                  DESCRIPTION
#---- -----  --------                                  -----------------------
DEPT .F                                                :DEPTH (BOREHOLE) {F10.1}
BS   .IN                                               :Bit Size {F13.4}
CDF  .LBF                                              :Calibrated Downhole Force {F13.4}
DF   .LBF                                              :Uncalibrated Downhole Force {F13.4}
DTCO .US/F                                             :Delta-T Compressional {F13.4}
DTSM .US/F                                             :Delta-T Shear {F13.4}
GR_EDTC.GAPI                                           :EDTC Gamma Ray {F13.4}
HD1_PPC1.IN                                            :PPC1 Hole Diameter 1 {F13.4}
HD1_PPC2.IN                                            :PPC2 Hole Diameter 1 {F13.4}
HD2_PPC1.IN                                            :PPC1 Hole Diameter 2 {F13.4}
HD2_PPC2.IN                                            :PPC2 Hole Diameter 2 {F13.4}
ICV  .F3                                               :Integrated Cement Volume {F13.4}
IHV  .F3                                               :Integrated Hole Volume {F13.4}
ITT  .S                                                :Integrated Transit Time {F13.4}
SPHI .CFCF                                             :Sonic Porosity {F13.4}
TENS .LBF                                              :Cable Tension {F13.4}
#-----------------------------------------------------------------------------
# 
#     DEPT        BS           CDF          DF           DTCO         DTSM       GR_EDTC      HD1_PPC1     HD1_PPC2     HD2_PPC1     HD2_PPC2       ICV          IHV          ITT          SPHI         TENS
#
~A  
# ...
    3505.5      12.2500    1141.1550    1141.1550      82.6882     145.5971      57.2584      12.7884      12.8032      12.4633      12.7423     607.7665    1479.8385       0.1738       0.2017    2782.0000
    3505.0      12.2500    1117.1588    1117.1588      72.5684     121.4334      57.0289      12.7673      12.7817      12.4509      12.7426     607.9474    1480.2720       0.1739       0.1427    2759.0000
    3504.5      12.2500    1129.6013    1129.6013      80.9024     139.9934      62.4987      12.7884      12.8377      12.4270      12.7191     608.1282    1480.7053       0.1739       0.1924    2739.0000
    3504.0      12.2500    1153.5975    1153.5975      83.6769     138.6398      65.9777      12.7781      12.8158      12.4026      12.6954     608.3077    1481.1376       0.1739       0.2067    2880.0000
    3503.5      12.2500    1141.1550    1141.1550      80.1393     134.3829      67.8416      12.7674      12.8048      12.4270      12.7307     608.4878    1481.5703       0.1740       0.1883    2839.0000
    3503.0      12.2500    1117.1588    1117.1588      90.4867     153.2909      69.5321      12.7674      12.7919      12.4148      12.6833     608.6674    1482.0026       0.1740       0.2382    2754.0000
    3502.5      12.2500    1141.1550    1141.1550     101.0249     157.8651      75.6429      12.8307      12.8048      12.4390      12.7307     608.8500    1482.4379       0.1741       0.2786    2774.0000
    3502.0      12.2500    1141.1550    1141.1550     105.5413     166.8402      83.7388      12.8172      12.8158      12.3907      12.7307     609.0305    1482.8710       0.1741       0.2934    2743.0000
    3501.5      12.2500    1141.1550    1141.1550     112.5276     160.4153      80.9917      12.7884      12.7942      12.4509      12.7423     609.2121    1483.3052       0.1742       0.3140    2752.0000
    3501.0      12.2500    1141.1550    1141.1550     111.0503     171.1812      81.5129      12.7884      12.7836      12.4628      12.7544     609.3941    1483.7399       0.1742       0.3098    2750.0000
    3500.5      12.2500    1141.1550    1141.1550     102.1300     160.5038      80.3421      12.7990      12.8048      12.4991      12.7664     609.5778    1484.1761       0.1743       0.2823    2736.0000
    3500.0      12.2500    1153.5975    1153.5975     103.0052     164.8327      86.6246      12.7674      12.7511      12.6076      12.8963     609.7641    1484.6151       0.1743       0.2852    2781.0000
    3499.5      12.2500    1153.5975    1153.5975     102.5551     164.2067      79.3344      12.7461      12.7511      12.6073      12.8847     609.9497    1485.0533       0.1744       0.2837    2820.0000
    3499.0      12.2500    1141.1550    1141.1550     100.3451     164.9286      78.6015      12.8172      12.8048      12.5593      12.8490     610.1361    1485.4923       0.1744       0.2762    2751.0000
    3498.5      12.2500    1129.6013    1129.6013      96.3816     160.7120      79.5928      12.8203      12.8154      12.4631      12.7544     610.3192    1485.9281       0.1745       0.2619    2735.0000
    3498.0      12.2500    1141.1550    1141.1550      95.7659     161.7039      84.4857      12.7674      12.8048      12.4509      12.7070     610.5001    1486.3617       0.1745       0.2595    2747.0000
    3497.5      12.2500    1141.1550    1141.1550      92.7349     158.7188      85.0671      12.7766      12.7942      12.4631      12.7669     610.6818    1486.7960       0.1746       0.2476    2784.0000
    3497.0      12.2500    1141.1550    1141.1550      92.8232     157.6907      84.7971      12.7993      12.8048      12.4631      12.7544     610.8642    1487.2311       0.1746       0.2479    2761.0000
    3496.5      12.2500    1129.6013    1129.6013      91.4579     153.5687      89.1794      12.7570      12.7942      12.4509      12.7428     611.0447    1487.6643       0.1747       0.2423    2781.0000
    3496.0      12.2500    1117.1588    1117.1588     104.4979     153.1484      91.5883      12.7887      12.7942      12.4753      12.7901     611.2272    1488.0994       0.1747       0.2901    2713.0000
    3495.5      12.2500    1153.5975    1153.5975     101.5625     147.9234      90.6688      12.7887      12.8048      12.4753      12.7785     611.4097    1488.5344       0.1748       0.2804    2737.0000
    3495.0      12.2500    1117.1588    1117.1588     102.4726     148.2785      88.9782      12.8096      12.7942      12.3665      12.6479     611.5891    1488.9664       0.1748       0.2834    2744.0000
    3494.5      12.2500    1117.1588    1117.1588     101.5462     154.7920      93.3913      12.7674      12.8048      12.4148      12.7186     611.7687    1489.3987       0.1749       0.2803    2680.0000
    3494.0      12.2500    1129.6013    1129.6013      90.5821     125.2861      92.6187      12.8203      12.8048      12.4268      12.7428     611.9506    1489.8331       0.1749       0.2386    2800.0000
    3493.5      12.2500    1129.6013    1129.6013      81.1347     107.4645      92.8300      12.7990      12.8048      12.5232      12.7901     612.1351    1490.2703       0.1750       0.1936    2802.0000
    3493.0      12.2500    1117.1588    1117.1588      79.9843     102.6095      88.5994      12.8067      12.8048      12.5234      12.7901     612.3199    1490.7076       0.1750       0.1874    2757.0000
    3492.5      12.2500    1129.6013    1129.6013      79.5635     106.5879      87.7533      12.7781      12.7942      12.5110      12.7901     612.5032    1491.1437       0.1751       0.1851    2752.0000
    3492.0      12.2500    1153.5975    1153.5975      80.0011     104.4948      87.4459      12.7887      12.8264      12.4991      12.7781     612.6865    1491.5796       0.1751       0.1875    2784.0000
    3491.5      12.2500    1117.1588    1117.1588      82.5574     110.3720      86.5998      12.7781      12.7617      12.4753      12.7901     612.8687    1492.0143       0.1751       0.2011    2742.0000
    3491.0      12.2500    1104.7163    1104.7163      82.9669     109.2523      89.3496      12.8518      12.7942      12.4631      12.7544     613.0529    1492.4510       0.1752       0.2031    2679.0000
    3490.5      12.2500    1104.7163    1104.7163      83.4930     108.5930      88.8416      12.8203      12.8048      12.4270      12.7428     613.2347    1492.8855       0.1752       0.2058    2681.0000
    3490.0      12.2500    1117.1588    1117.1588      84.2333     128.9632      93.8849      12.8488      12.8264      12.4389      12.7307     613.4180    1493.3214       0.1753       0.2095    2755.0000
    3489.5      12.2500    1129.6013    1129.6013      89.4087     130.7298      93.8849      12.8096      12.8048      12.4509      12.7428     613.6003    1493.7563       0.1753       0.2335    2695.0000
    3489.0      12.2500    1129.6013    1129.6013      92.6730     132.9809      92.3759      12.7674      12.8048      12.4268      12.7191     613.7803    1494.1891       0.1753       0.2473    2698.0000
    3488.5      12.2500    1153.5975    1153.5975      91.1114     131.6241      86.0634      12.7992      12.8048      12.4148      12.7186     613.9611    1494.6224       0.1754       0.2409    2810.0000
    3488.0      12.2500    1129.6013    1129.6013      87.3691     124.8918      81.6214      12.7990      12.7836      12.4148      12.7428     614.1418    1495.0558       0.1754       0.2244    2796.0000
    3487.5      12.2500    1129.6013    1129.6013      85.8243     120.7326      81.0610      12.8096      12.7836      12.4148      12.6833     614.3229    1495.4895       0.1755       0.2172    2748.0000
    3487.0      12.2500    1153.5975    1153.5975      81.9431     119.3244      82.0906      12.7645      12.7726      12.4026      12.6833     614.5020    1495.9213       0.1755       0.1979    2855.0000
    3486.5      12.2500    1104.7163    1104.7163      78.0396     114.3271      80.6346      12.7887      12.8048      12.4148      12.6716     614.6824    1496.3542       0.1756       0.1765    2692.0000
