~Version Information
VERS  .          2.0                              :CWLS Log Ascii Standard - Version 2.0
WRAP  .          NO                               :One line per depth step
~Well Information Block
#MNEM.UNIT       Data Type                        Information
#---------       ---------                        -------------------------------
STRT  .F         5219.99583                       :START DEPTH
STOP  .F         1629.99583                       :STOP DEPTH
STEP  .F         -0.00000                         :INCREMENT
NULL  .          -999.25                          :NULL DATA VALUE
COMP  .          VENOCO, INC.                     :COMPANY
WELL  .          HAMES VALLEY 1-35                :WELL
FLD   .          SOUTH SALINAS                    :FIELD
LOC   .                                           :LOCATION
PROV  .          CALIFORNIA                       :PROVINCE
STAT  .          CALIFORNIA                       :STATE
CNTY  .          MONTEREY                         :COUNTY
CTRY  .          U.S.A                            :COUNTRY
DATE  .          2-Jan-2011                       :DATE
UWI   .          040532205900                     :UNIQUE WELL UWI
LIC   .                                           :LICENSE NUMBER
API   .          040532205900                                                                                                                      :API NUMBER
SRVC  .                                           :SERVICE COMPANY
~Parameter Information Block
#MNEM.UNIT       Value                            Description
#---------       ---------                        -------------
LONG  .DEG       -120.859398                      :Well Surface Location
LATI  .DEG       35.889400                        :Well Surface Location
XWELL .DEG       -120.859398                      :X-coordinate of Well Head
YWELL .DEG       35.889400                        :Y-coordinate of Well Head
~Curve Information Block
#MNEM.UNIT       API Code            Curve    Description
#--------        --------------      -----    -------------------
DEPT  .F                             :0       Index
DIP_HEIGHT.F                         :1       Height of Dip Plane Intersection with Borehole
DPAA_NAZ.DEG                         :2       Apparent Dip Azimuth - North  
DPAA_TOH.DEG                         :3       Apparent Dip Azimuth - Top of Hole
DPAP  .DEG                           :4       Apparent Dip Angle - Tool     
DPAZ  .DEG                           :5       True Dip Azimuth              
DPTR  .DEG                           :6       True Dip Angle                
QUAF  .                              :7       Dip Quality Factor            
~Ascii Data Section
# ...
   4497.99583       0.24237     190.88072     292.05048      12.46587     167.63605      11.54370      15.00000 
   4495.99583       0.22657     222.59810     323.76785      11.68764     201.78185       8.19959      10.00000 
   4493.99583       0.33368     195.85997     295.34280      16.69828     179.91374      15.25926      17.00000 
   4491.99583       0.32770     196.54985     296.03268      16.23102     180.11354      14.75539      17.00000 
   4489.99583       0.31188     198.52153     296.92319      15.72070     181.74431      14.20534      18.00000 
   4487.99583       0.31726     197.56516     294.82529      15.90804     181.14911      14.56357      18.00000 
   4485.99583       0.31806     195.51950     291.87424      15.93279     179.29791      14.83177      17.00000 
   4483.99583       0.34546     205.23045     301.58517      17.37572     191.05426      15.46087      14.00000 
   4481.99583       0.28122     195.82069     290.59589      14.28987     178.01707      13.37501      17.00000 
   4479.99583       0.25304     198.45346     292.39780      12.95208     178.90494      11.97482      17.00000 
   4477.99583       0.27044     195.44470     288.64728      13.54441     176.97569      12.82099      17.00000 
   4475.99583       0.22032     195.70639     287.45123      11.21640     173.58702      10.72999      16.00000 
   4473.99583       0.21350     196.04463     286.67178      10.97952     173.90565      10.56123      15.00000 
   4471.99583       0.30462     204.10332     293.24460      15.53358     189.20912      14.40078      17.00000 
   4469.99583       0.30613     198.14690     285.66501      15.63772     183.54729      15.04557      17.00000 
   4467.99583       0.29552     194.60114     280.63123      15.08872     179.71417      14.86547      17.00000 
   4465.99583       0.28187     193.81207     278.01236      14.43892     178.52374      14.41305      17.00000 
   4463.99583       0.28768     195.25876     278.65533      14.52236     180.23793      14.44394      17.00000 
   4461.99583       0.46432     192.00798     275.40454      22.60466     182.68716      22.55378      15.00000 
   4459.99583       1.30584     217.29305     299.68634      49.37907     214.32024      47.58751      14.00000 
   4457.99583       1.00542      40.63962     122.99477      42.30215      43.91065      44.44829      15.00000 
   4455.99583       0.53022      40.16959     122.52473      25.62061      46.25503      27.81948      12.00000 
   4453.99583       0.26651     184.85132     267.41187      13.56313     169.69322      14.23857      16.00000 
   4451.99583       0.25532     192.38657     275.21875      12.99943     175.95299      13.20037      17.00000 
   4449.99583       0.28574     196.56718     279.51959      14.47320     181.64333      14.33434      17.00000 
   4447.99583       0.29075     196.71576     279.85303      14.75721     182.05022      14.58694      17.00000 
   4445.99583       0.28721     195.98683     279.03015      14.59593     181.21407      14.48496      17.00000 
   4443.99583       0.29606     195.08293     278.26239      14.88284     180.65268      14.81211      17.00000 
   4441.99583       0.71848     117.48212     200.98843      32.96577     115.59000      36.53478       9.00000 
   4439.99583       0.69153     116.06188     199.56819      32.10267     114.23817      35.70208      10.00000 
   4437.99583       0.83614     109.39929     192.90561      37.03447     108.37349      40.74465      10.00000 
   4435.99583       0.28685     194.51773     277.52399      14.58276     179.88832      14.56829      17.00000 
   4433.99583       0.29219     192.51131     275.51758      14.80475     178.18095      14.91406      17.00000 
   4431.99583       0.41240     186.82790     269.12433      20.34096     176.57925      20.74443      12.00000 
   4429.99583       0.41197     185.64130     267.91833      20.34481     175.29861      20.83924      11.00000 
   4427.99583       0.26023     198.34859     280.85117      13.21571     181.43704      13.04902      16.00000 
   4425.99583       0.26058     207.18936     290.05106      13.28709     190.20766      12.48673      16.00000 
   4423.99583       0.24481     190.68262     274.11740      12.49134     173.18399      12.81126      17.00000 
   4421.99583       0.24132     186.43355     270.09854      12.32895     169.22398      12.90855      17.00000 
   4419.99583       0.24855     186.66467     270.46701      12.68319     170.06271      13.21110      17.00000 
   4417.99583       0.22036     184.32280     268.43225      11.19536     165.94467      11.91440      17.00000 
   4415.99583       0.22102     186.35918     270.67749      11.23545     167.93839      11.80281      17.00000 
   4413.99583       0.24428     192.28178     276.76126      12.47917     175.25545      12.59535      17.00000 
   4411.99583       0.26142     188.78864     273.26086      13.30680     173.01033      13.61383      17.00000 
   4409.99583       0.39200     154.42123     238.94086      19.09773     146.01266      21.28430      14.00000 
   4407.99583       0.38084     150.80856     235.97701      18.76845     142.61765      21.09946      14.00000 
   4405.99583       0.28632     179.50072     265.14551      14.62251     165.76283      15.38954      17.00000 
   4403.99583       0.22388     167.22263     252.86743      11.52272     151.59886      13.11844      13.00000 
   4401.99583       0.29347     182.89928     270.97836      14.97707     169.42674      15.34665      17.00000 
   4399.99583       0.28891     182.10905     270.77530      14.62539     168.49091      15.00780      17.00000 
   4397.99583       0.29921     174.52754     263.25351      15.06061     161.89841      15.87437      13.00000 
   4395.99583       0.28689     181.14450     269.87045      14.26545     167.35773      14.70620      15.00000 
   4393.99583       0.34406     188.05598     276.78195      17.20382     176.45262      17.14218      13.00000 
   4391.99583       0.68385     196.67203     284.92719      31.59291     190.76401      30.83341       9.00000 
   4389.99583       0.32244     206.72102     294.97620      16.20897     194.31094      15.02561      10.00000 
   4387.99583       0.95271     178.85310     267.26740      40.57774     174.57208      40.89186      11.00000 
   4385.99583       0.34927     175.35335     263.39877      17.50923     163.99506      18.31046      17.00000 
   4383.99583       0.29875     194.00766     282.01892      15.06763     179.71991      14.74154      12.00000 
   4381.99583       0.28489     186.01199     273.29044      14.30999     170.97368      14.59793      17.00000 
   4379.99583       0.28177     183.79572     270.72641      14.36090     168.79417      14.82707      17.00000 
   4377.99583       0.28321     186.63737     273.40106      14.35282     171.30261      14.65005      17.00000 
   4375.99583       0.29366     184.44740     271.17508      14.67221     169.45341      15.11605      15.00000 
   4373.99583       0.29351     185.61974     272.34869      14.74919     170.51328      15.11783      15.00000 
   4371.99583       0.29754     185.39197     272.23325      15.08459     170.52719      15.45545      17.00000 
   4369.99583       0.29582     187.27617     274.47226      14.98358     172.13405      15.20562      17.00000 
   4367.99583       0.30768     188.49402     276.41348      15.36455     173.68797      15.43517      17.00000 
   4365.99583       0.31790     199.42741     288.83371      15.83858     185.07091      15.01706      17.00000 
   4363.99583       0.29509     190.58679     281.42337      14.91739     175.41353      14.64732      17.00000 
   4361.99583       0.32834     183.94614     276.25171      16.42940     170.54614      16.46070      18.00000 
   4359.99583       0.33275     185.21790     278.79828      16.46149     171.95653      16.31342      17.00000 
   4357.99583       0.31503     187.44209     281.02246      15.84809     173.59760      15.56774      15.00000 
