~Version Information
VERS  .          2.0                              :CWLS Log Ascii Standard - Version 2.0
WRAP  .          NO                               :One line per depth step
~Well Information Block
#MNEM.UNIT       Data Type                        Information
#---------       ---------                        -------------------------------
STRT  .F         5219.99583                       :START DEPTH
STOP  .F         1629.99583                       :STOP DEPTH
STEP  .F         -0.00000                         :INCREMENT
NULL  .          -999.25                          :NULL DATA VALUE
COMP  .          VENOCO, INC.                     :COMPANY
WELL  .          HAMES VALLEY 1-35                :WELL
FLD   .          SOUTH SALINAS                    :FIELD
LOC   .                                           :LOCATION
PROV  .          CALIFORNIA                       :PROVINCE
STAT  .          CALIFORNIA                       :STATE
CNTY  .          MONTEREY                         :COUNTY
CTRY  .          U.S.A                            :COUNTRY
DATE  .          2-Jan-2011                       :DATE
UWI   .          040532205900                     :UNIQUE WELL UWI
LIC   .                                           :LICENSE NUMBER
API   .          040532205900                                                                                                                      :API NUMBER
SRVC  .                                           :SERVICE COMPANY
~Parameter Information Block
#MNEM.UNIT       Value                            Description
#---------       ---------                        -------------
LONG  .DEG       -120.859398                      :Well Surface Location
LATI  .DEG       35.889400                        :Well Surface Location
XWELL .DEG       -120.859398                      :X-coordinate of Well Head
YWELL .DEG       35.889400                        :Y-coordinate of Well Head
~Curve Information Block
#MNEM.UNIT       API Code            Curve    Description
#--------        --------------      -----    -------------------
DEPT  .F                             :0       Index
DIP_HEIGHT.F                         :1       Height of Dip Plane Intersection with Borehole
DPAA_NAZ.DEG                         :2       Apparent Dip Azimuth - North  
DPAA_TOH.DEG                         :3       Apparent Dip Azimuth - Top of Hole
DPAP  .DEG                           :4       Apparent Dip Angle - Tool     
DPAZ  .DEG                           :5       True Dip Azimuth              
DPTR  .DEG                           :6       True Dip Angle                
QUAF  .                              :7       Dip Quality Factor            
~Ascii Data Section
# ...
   3639.99583       0.27108     175.69588      54.37804      14.05327     179.17809      13.47959      17.00000 
   3637.99583       0.27992     174.52327      60.12545      14.55901     178.06281      14.07598      17.00000 
   3635.99583       0.26514     170.36967      60.19897      13.72806     173.89767      13.27648      17.00000 
   3633.99583       0.26219     171.85033      65.69853      13.54373     175.13612      13.21720      17.00000 
   3631.99583       0.28745     169.69954      65.81546      14.69719     172.26442      14.41568      17.00000 
   3629.99583       0.28700     173.23950      68.81119      14.59000     175.61653      14.36649      17.00000 
   3627.99583       0.28012     174.37163      70.08968      14.33961     176.82770      14.12883      17.00000 
   3625.99583       0.27670     176.32385      71.32721      14.16864     179.16907      13.94728      17.00000 
   3623.99583       0.27483     175.10225      69.96054      14.07959     178.32649      13.81264      17.00000 
   3621.99583       0.27566     173.05252      70.29208      14.19158     176.54112      13.90833      17.00000 
   3619.99583       0.28968     175.54041      77.31614      14.95552     178.65376      14.79280      17.00000 
   3617.99583       0.18375     184.84129      86.61705       9.58291     189.83731       9.56988      12.00000 
   3615.99583       0.26621     170.78508      87.70270      13.71430     172.83517      13.70319      17.00000 
   3613.99583       0.26394     161.78688      94.53404      13.67338     163.31895      13.70799      17.00000 
   3611.99583       0.28129     159.78586     112.73056      14.51890     160.96034      14.65057      17.00000 
   3609.99583       0.27058     162.73985     124.65124      14.04020     163.91231      14.24883      17.00000 
   3607.99583       0.31000     174.31914     143.01208      15.95718     175.24825      16.31990      14.00000 
   3605.99583       0.26126     175.30615     153.01431      13.54495     176.30954      14.03885      17.00000 
   3603.99583       0.27477     174.55119     161.37753      14.19496     175.37569      14.84327      17.00000 
   3601.99583       0.28764     175.78389     167.98685      14.84507     176.39049      15.64155      17.00000 
   3599.99583       0.28118     176.02698     172.40910      14.51873     176.47275      15.44009      17.00000 
   3597.99583       0.25228     181.97476     180.03841      13.06687     181.97232      14.09651      17.00000 
   3595.99583       0.23532     194.27736     191.67940      12.17442     193.32222      13.26358      17.00000 
   3593.99583       0.23145     194.51941     190.95312      11.88439     193.51967      13.08521      17.00000 
   3591.99583       0.26039     180.01112     176.01225      13.19651     180.38493      14.58326      17.00000 
   3589.99583       0.26990     179.61293     175.50677      13.32327     180.06480      14.83703      17.00000 
   3587.99583       0.23751     185.57524     182.68021      12.17911     185.26070      13.83477      17.00000 
   3585.99583       0.24185     185.99939     185.12338      12.47127     185.39287      14.17568      17.00000 
   3583.99583       0.18473     175.80746     177.77271       9.56082     176.13940      11.25977      15.00000 
   3581.99583       0.26668     175.05153     180.04898      13.64568     175.04453      15.25129      17.00000 
   3579.99583       0.24837     171.63806     180.79436      12.77313     171.55495      14.23587      17.00000 
   3577.99583       0.24615     167.60388     180.65320      12.71573     167.54140      14.00911      17.00000 
   3575.99583       0.24182     168.60234     185.01575      12.51482     168.19701      13.62389      17.00000 
   3573.99583       0.23965     169.82275     189.47838      12.41573     169.17220      13.33508      17.00000 
   3571.99583       0.24658     163.58589     185.51965      12.75076     163.26189      13.55296      17.00000 
   3569.99583       0.24406     160.15561     184.13321      12.63670     159.92656      13.38386      17.00000 
   3567.99583       0.23945     165.67032     192.54842      12.40430     164.99506      13.10876      17.00000 
   3565.99583       0.23205     152.57884     181.59380      12.01390     152.48940      12.72343      17.00000 
   3563.99583       0.23276     134.75349     163.28001      12.05447     135.58533      12.67923      17.00000 
   3561.99583       0.24303     121.01318     144.85295      12.56242     122.30875      12.99020      17.00000 
   3559.99583       0.24504     112.53218     126.90718      12.66064     113.90379      12.90025      17.00000 
   3557.99583       0.51781      99.17155     113.54655      24.99538      99.93844      25.15469      13.00000 
   3555.99583       0.51024     181.99936     196.37437      25.05688     181.76588      25.43391       8.00000 
   3553.99583       1.30958      73.74024      51.91356      50.32138      74.01315      50.06647      15.00000 
   3551.99583       1.29607      69.26691      47.44023      50.04598      69.52499      49.76630      17.00000 
   3549.99583       1.22002      66.43326      44.60657      48.38338      66.69429      48.08894      14.00000 
   3547.99583       0.44747     112.57110      86.36115      22.42996     114.11123      22.39815      12.00000 
   3545.99583       0.24442     146.82562     118.71881      12.73668     149.57401      13.10182      17.00000 
   3543.99583       0.22957     147.85953     117.32172      11.90089     151.17862      12.29472      17.00000 
   3541.99583       0.24473     155.52101     123.42390      12.60759     158.64034      13.10541      17.00000 
   3539.99583       0.26032     152.95436     120.85723      13.39662     155.98128      13.86147      16.00000 
   3537.99583       0.43043     211.45111     177.27074      21.42801     211.56393      22.36786       8.00000 
   3535.99583       0.24788     171.19734     137.71437      12.82571     173.85971      13.54343      17.00000 
   3533.99583       0.41841     203.91360     173.21953      20.99857     204.19366      21.93277      11.00000 
   3531.99583       0.35871     202.91472     175.24263      18.25514     203.13924      19.17820      11.00000 
   3529.99583       0.25480     166.86540     139.19331      13.18922     169.31792      13.90314      14.00000 
   3527.99583       0.17397     159.35854     133.45343       9.05880     163.46112       9.75009      17.00000 
   3525.99583       0.17768     177.22522     149.80064       9.23794     180.06392      10.11825      17.00000 
   3523.99583       0.23280     180.13869     151.16628      12.07817     182.32111      12.99935      17.00000 
   3521.99583       0.23918     177.96397     148.89557      12.37070     180.27440      13.28209      17.00000 
   3519.99583       0.24272     178.27107     150.57224      12.56106     180.45117      13.49470      17.00000 
   3517.99583       0.24780     179.74687     153.67152      12.74361     181.71181      13.71687      17.00000 
   3515.99583       0.23738     181.48024     155.67128      12.18945     183.44403      13.21258      17.00000 
   3513.99583       0.21622     185.88138     158.90009      11.19104     187.81331      12.28308      17.00000 
   3511.99583       0.21426     180.42914     151.85231      11.11555     183.13095      12.21786      17.00000 
   3509.99583       0.23400     167.12053     138.61868      12.09668     170.88924      13.11780      17.00000 
   3507.99583       0.23008     170.05695     141.83304      11.92300     173.75027      13.03292      17.00000 
   3505.99583       0.22864     166.30595     138.42087      11.84006     170.45284      12.94346      16.00000 
   3503.99583       0.21888     155.84767     127.96259      11.36888     161.03955      12.29909      16.00000 
   3501.99583       0.24806     154.39626     127.52641      12.80060     159.06430      13.71799      17.00000 
   3499.99583       0.26736     159.78246     132.65536      13.64917     163.76573      14.63919      17.00000 
