~VERSION INFORMATION
VERS.           2.0   :CWLS Log ASCII Standard - VERSION 2.0
WRAP.           YES   :Multiple lines per depth step
PROD.  Schlumberger   :LAS Producer
PROG.  DLIS to ASCII 19C0-187                          :LAS Program name and version
CREA.        2011/01/03 01:37                          :LAS Creation date {YYYY/MM/DD hh:mm}
DLIS_CREA.  2011-Jan-03 01:12                          :DLIS Creation date and time {YYYY-MMM-DD hh:mm}
SOURCE.     BC0W-00120_VENOCO_HAMES_VALLEY_1-35_FPEX_HRLA_HNGS_068PUP.DLIS  :DLIS File Name
FILE-ID.     TLD_MCFL_CNL_NGS_068PUP                   :File Identification Number
#--------------------------------------------------
~WELL INFORMATION
#MNEM.UNIT      DATA             DESCRIPTION
#---- ------ --------------   -----------------------------
STRT .F         5235.0       :START DEPTH     
STOP .F           78.5       :STOP DEPTH     
STEP .F           -0.5       :STEP     
NULL .          -999.25      :NULL VALUE
COMP .        VENOCO, INC.                             :COMPANY
WELL .        HAMES VALLEY 1-35                        :WELL
FLD  .        HAMES VALLEY                             :FIELD
LOC  .        LAT: 35.889467                           :LOCATION
CNTY .        MONTEREY                                 :COUNTY
STAT .        CALIFORNIA                               :STATE
CTRY .                                                 :COUNTRY
API  .        040532205900                             :API NUMBER
UWI  .        040532205900                             :UNIQUE WELL ID
DATE .        02-Jan-2011                              :LOG DATE {DD-MMM-YYYY}
SRVC .        Schlumberger                             :SERVICE COMPANY
LATI .DEG                                              :LATITUDE
LONG .DEG                                              :LONGITUDE
GDAT .                                                 :GeoDetic Datum
SECT .        35                                       :Section
RANG .        10E                                      :Range
TOWN .        23S                                      :Township
#-----------------------------------------------------------------------------
~PARAMETER INFORMATION
#MNEM.UNIT    VALUE                      DESCRIPTION
#---- -----   --------------------       ------------------------
RUN  .          ONE                      :RUN NUMBER
PDAT .        GROUND LEVEL               :Permanent Datum
EPD  .F         1002.000000              :Elevation of Permanent Datum above Mean Sea Level
LMF  .          KELLY BUSHING            :Logging Measured From (Name of Logging Elevation Reference)
APD  .F          23.000000               :Elevation of Depth Reference (LMF) above Permanent Datum
#-----------------------------------------------------------------------------
~CURVE INFORMATION
#MNEM.UNIT   API CODE                                  DESCRIPTION
#---- -----  --------                                  -----------------------
DEPT .F                                                :DEPTH (BOREHOLE) {F10.1}
BS   .IN                                               :Bit Size {F13.4}
CDF  .LBF                                              :Calibrated Downhole Force {F13.4}
DF   .LBF                                              :Uncalibrated Downhole Force {F13.4}
GR   .GAPI                                             :Gamma Ray {F13.4}
HBHK .CFCF                                             :HNGS Borehole Potassium Concentration {F13.4}
HCAL .IN                                               :HRCC Cal. Caliper {F13.4}
HCGR .GAPI                                             :HNGS Computed Gamma Ray {F13.4}
HDRA .G/C3                                             :HRDD Density Correction {F13.4}
HFK  .CFCF                                             :HNGS Formation Potassium Concentration {F13.4}
HMIN .OHMM                                             :MCFL Micro Inverse Resistivity {F13.4}
HMNO .OHMM                                             :MCFL Micro Normal Resistivity {F13.4}
HSGR .GAPI                                             :HNGS Standard Gamma Ray {F13.4}
HTHO .PPM                                              :HNGS Formation Thorium Concentration {F13.4}
HTPR .                                                 :HNGS Thorium/Potassium Ratio {F13.4}
HTUR .                                                 :HNGS Thorium/Uranium Ratio {F13.4}
HURA .PPM                                              :HNGS Formation Uranium Concentration {F13.4}
ICV  .F3                                               :Integrated Cement Volume {F13.4}
IHV  .F3                                               :Integrated Hole Volume {F13.4}
PEFZ .                                                 :HRDD Standard Resolution Formation Photoelectric Factor {F13.4}
RHOZ .G/C3                                             :HRDD Standard Resolution Formation Density {F13.4}
RLA1 .OHMM                                             :HRLT Borehole Corrected Resistivity 1 {F13.4}
RLA2 .OHMM                                             :HRLT Borehole Corrected Resistivity 2 {F13.4}
RLA3 .OHMM                                             :HRLT Borehole Corrected Resistivity 3 {F13.4}
RLA4 .OHMM                                             :HRLT Borehole Corrected Resistivity 4 {F13.4}
RLA5 .OHMM                                             :HRLT Borehole Corrected Resistivity 5 {F13.4}
RXOZ .OHMM                                             :MCFL Standard Resolution Invaded Zone Resistivity {F13.4}
SP   .MV                                               :SP Shifted {F13.4}
TENS .LBF                                              :Cable Tension {F13.4}
TNPH .CFCF                                             :Thermal Neutron Porosity {F13.4}
#-----------------------------------------------------------------------------
# DEPT       
#     BS           CDF          DF           GR_EDTC      HBHK         HCAL         
#     HCGR         HDRA         HFK          HMIN         HMNO         HSGR         
#     HTHO         HTPR         HTUR         HURA         ICV          IHV          
#     PEFZ         RHOZ         RLA1         RLA2         RLA3         RLA4         
#     RLA5         RXOZ         SP           TENS         TNPH         
~A  
# ...
436.5
     17.5000     958.9612     958.9612      55.1455       0.0074       3.3772
     69.3114       0.1398       0.0296       0.0694       0.0536      76.9830
      4.8845       1.6483       4.0282       1.2126    1430.7537    3304.0020
      2.8925       1.6247       0.0243       0.0204       0.0184       0.0170
      0.0205       0.0616     -31.6250    1521.0000       0.4291
436.0
     17.5000     958.9612     958.9612      54.3753       0.0074       3.3534
     64.1213       0.1351       0.0276       0.0658       0.0526      72.6764
      4.4370       1.6103       3.7684       1.1774    1430.7537    3304.0020
      2.8585       1.6143       0.0298       0.0238       0.0213       0.0196
      0.0229       0.0619     -31.5625    1527.0000       0.3741
435.5
     17.5000     947.4075     947.4075      51.2157       0.0074       3.3534
     59.5097       0.1337       0.0255       0.0699       0.0536      69.0271
      4.1625       1.6326       3.6826       1.1303    1430.7537    3304.0020
      2.8566       1.6079       0.0243       0.0198       0.0178       0.0164
      0.0200       0.0615     -31.1250    1523.0000       0.3432
435.0
     17.5000     971.4037     971.4037      53.9112       0.0074       3.3772
     58.5554       0.1343       0.0250       0.0703       0.0534      69.1478
      4.1233       1.6467       3.0994       1.3304    1430.7537    3304.0020
      2.8773       1.6051       0.0281       0.0229       0.0205       0.0189
      0.0221       0.0611     -30.6250    1545.0000       0.3271
434.5
     17.5000     958.9612     958.9612      55.6218       0.0074       3.3534
     59.5525       0.1322       0.0253       0.0723       0.0543      70.1212
      4.2778       1.6894       3.0128       1.4199    1430.7537    3304.0020
      2.8928       1.6015       0.0291       0.0237       0.0213       0.0197
      0.0228       0.0614     -31.2500    1521.0000       0.3131
434.0
     17.5000     958.9612     958.9612      58.6664       0.0074       3.3772
     63.7229       0.1312       0.0265       0.0713       0.0544      73.1250
      4.9482       1.8699       3.9397       1.2560    1430.7537    3304.0020
      2.8953       1.6011       0.0254       0.0209       0.0187       0.0173
      0.0208       0.0619     -31.1875    1505.0000       0.3178
433.5
     17.5000     958.9612     958.9612      57.5408       0.0074       3.3772
     63.4575       0.1267       0.0270       0.0686       0.0537      75.5643
      4.5278       1.6748       2.7284       1.6595    1430.7537    3304.0020
      2.8635       1.5972       0.0247       0.0203       0.0182       0.0168
      0.0205       0.0623     -30.5000    1535.0000       0.2915
433.0
     17.5000     971.4037     971.4037      55.4070       0.0074       3.3534
     68.9025       0.1249       0.0302       0.0665       0.0527      81.6212
      4.4219       1.4642       2.6868       1.6458    1430.7537    3304.0020
      2.8282       1.5924       0.0244       0.0202       0.0181       0.0167
      0.0203       0.0624     -29.8125    1535.0000       0.3068
432.5
     17.5000     958.9612     958.9612      51.2353       0.0074       3.3534
     70.2217       0.1243       0.0322       0.0676       0.0533      84.4207
      3.6485       1.1316       1.9950       1.8289    1430.7537    3304.0020
      2.7892       1.5850       0.0266       0.0217       0.0196       0.0180
      0.0214       0.0626     -29.1250    1515.0000       0.2808
432.0
     17.5000     958.9612     958.9612      52.1141       0.0074       3.3534
     69.9926       0.1277       0.0310       0.0667       0.0532      82.2032
      4.2751       1.3769       2.8246       1.5135    1430.7537    3304.0020
      2.7667       1.5791       0.0267       0.0218       0.0195       0.0180
      0.0213       0.0633     -28.3125    1527.0000       0.2686
431.5
     17.5000     958.9612     958.9612      46.3760       0.0074       3.3534
     60.3634       0.1311       0.0277       0.0679       0.0538      74.3564
      3.1437       1.1348       1.8302       1.7177    1430.7537    3304.0020
      2.7598       1.5754       0.0225       0.0187       0.0168       0.0155
      0.0192       0.0633     -28.1875    1535.0000       0.2496
431.0
     17.5000     971.4037     971.4037      47.1180       0.0074       3.3653
     53.3743       0.1352       0.0245       0.0683       0.0537      68.0879
      2.7524       1.1215       1.5376       1.7901    1430.7537    3304.0020
      2.7631       1.5821       0.0222       0.0183       0.0164       0.0152
      0.0193       0.0631     -27.8125    1517.0000       0.2440
430.5
     17.5000     958.9612     958.9612      44.6693       0.0074       3.3534
     53.5468       0.1397       0.0239       0.0694       0.0541      65.0504
      3.1801       1.3302       2.1757       1.4617    1430.7537    3304.0020
      2.7784       1.5998       0.0271       0.0221       0.0198       0.0182
      0.0214       0.0630     -27.0000    1528.0000       0.2436
430.0
     17.5000     971.4037     971.4037      48.9299       0.0074       3.3534
     54.4267       0.1422       0.0237       0.0689       0.0537      64.3837
      3.5660       1.5027       2.6672       1.3370    1430.7537    3304.0020
      2.7925       1.6186       0.0263       0.0216       0.0195       0.0179
      0.0214       0.0626     -26.1250    1565.0000       0.2312
429.5
     17.5000     958.9612     958.9612      48.9299       0.0074       3.3534
     56.7701       0.1401       0.0242       0.0703       0.0541      65.7617
      4.0654       1.6826       3.0744       1.3223    1430.7537    3304.0020
      2.8055       1.6199       0.0241       0.0203       0.0183       0.0170
      0.0207       0.0624     -24.5625    1520.0000       0.2883
429.0
     17.5000     947.4075     947.4075      52.3956       0.0074       3.3534
     57.3247       0.1375       0.0239       0.0709       0.0542      65.5040
      4.4057       1.8447       3.7148       1.1860    1430.7537    3304.0020
      2.7920       1.6109       0.0278       0.0228       0.0204       0.0188
      0.0219       0.0619     -22.1250    1526.0000       0.3547
428.5
     17.5000     947.4075     947.4075      51.9858       0.0074       3.3534
     60.5842       0.1358       0.0254       0.0717       0.0543      72.3847
      4.5457       1.7875       2.8124       1.6163    1430.7537    3304.0020
      2.7618       1.5953       0.0216       0.0182       0.0163       0.0151
      0.0189       0.0622     -22.8750    1554.0000       0.3850
428.0
     17.5000     958.9612     958.9612      54.2963       0.0074       3.3534
     65.3336       0.1324       0.0269       0.0694       0.0539      76.3998
      5.2367       1.9502       3.5305       1.4833    1430.7537    3304.0020
      2.6932       1.5839       0.0257       0.0208       0.0187       0.0172
      0.0206       0.0625     -22.6875    1512.0000       0.3660
427.5
     17.5000     958.9612     958.9612      54.6360       0.0074       3.3772
     66.1144       0.1267       0.0268       0.0696       0.0543      77.8581
      5.5377       2.0690       3.6238       1.5282    1430.7537    3304.0020
      2.6324       1.5676       0.0286       0.0229       0.0206       0.0189
      0.0218       0.0633     -22.2500    1531.0000       0.3198
427.0
     17.5000     971.4037     971.4037      55.7913       0.0074       3.3534
     63.6755       0.1224       0.0253       0.0690       0.0548      74.7167
      5.5998       2.2113       3.8095       1.4700    1430.7537    3304.0020
      2.5872       1.5547       0.0221       0.0184       0.0166       0.0153
      0.0190       0.0640     -21.6875    1498.0000       0.3280
426.5
     17.5000     947.4075     947.4075      55.0211       0.0074       3.3534
     60.1240       0.1197       0.0244       0.0648       0.0534      71.0769
      4.9948       2.0461       3.4861       1.4328    1430.7537    3304.0020
      2.5731       1.5456       0.0282       0.0225       0.0202       0.0187
      0.0215       0.0645     -21.0625    1496.0000       0.3573
