~VERSION INFORMATION
VERS.           2.0   :CWLS Log ASCII Standard - VERSION 2.0
WRAP.           YES   :Multiple lines per depth step
PROD.  Schlumberger   :LAS Producer
PROG.  DLIS to ASCII 19C0-187                          :LAS Program name and version
CREA.        2011/01/03 01:37                          :LAS Creation date {YYYY/MM/DD hh:mm}
DLIS_CREA.  2011-Jan-03 01:12                          :DLIS Creation date and time {YYYY-MMM-DD hh:mm}
SOURCE.     BC0W-00120_VENOCO_HAMES_VALLEY_1-35_FPEX_HRLA_HNGS_068PUP.DLIS  :DLIS File Name
FILE-ID.     TLD_MCFL_CNL_NGS_068PUP                   :File Identification Number
#--------------------------------------------------
~WELL INFORMATION
#MNEM.UNIT      DATA             DESCRIPTION
#---- ------ --------------   -----------------------------
STRT .F         5235.0       :START DEPTH     
STOP .F           78.5       :STOP DEPTH     
STEP .F           -0.5       :STEP     
NULL .          -999.25      :NULL VALUE
COMP .        VENOCO, INC.                             :COMPANY
WELL .        HAMES VALLEY 1-35                        :WELL
FLD  .        HAMES VALLEY                             :FIELD
LOC  .        LAT: 35.889467                           :LOCATION
CNTY .        MONTEREY                                 :COUNTY
STAT .        CALIFORNIA                               :STATE
CTRY .                                                 :COUNTRY
API  .        040532205900                             :API NUMBER
UWI  .        040532205900                             :UNIQUE WELL ID
DATE .        02-Jan-2011                              :LOG DATE {DD-MMM-YYYY}
SRVC .        Schlumberger                             :SERVICE COMPANY
LATI .DEG                                              :LATITUDE
LONG .DEG                                              :LONGITUDE
GDAT .                                                 :GeoDetic Datum
SECT .        35                                       :Section
RANG .        10E                                      :Range
TOWN .        23S                                      :Township
#-----------------------------------------------------------------------------
~PARAMETER INFORMATION
#MNEM.UNIT    VALUE                      DESCRIPTION
#---- -----   --------------------       ------------------------
RUN  .          ONE                      :RUN NUMBER
PDAT .        GROUND LEVEL               :Permanent Datum
EPD  .F         1002.000000              :Elevation of Permanent Datum above Mean Sea Level
LMF  .          KELLY BUSHING            :Logging Measured From (Name of Logging Elevation Reference)
APD  .F          23.000000               :Elevation of Depth Reference (LMF) above Permanent Datum
#-----------------------------------------------------------------------------
~CURVE INFORMATION
#MNEM.UNIT   API CODE                                  DESCRIPTION
#---- -----  --------                                  -----------------------
DEPT .F                                                :DEPTH (BOREHOLE) {F10.1}
BS   .IN                                               :Bit Size {F13.4}
CDF  .LBF                                              :Calibrated Downhole Force {F13.4}
DF   .LBF                                              :Uncalibrated Downhole Force {F13.4}
GR   .GAPI                                             :Gamma Ray {F13.4}
HBHK .CFCF                                             :HNGS Borehole Potassium Concentration {F13.4}
HCAL .IN                                               :HRCC Cal. Caliper {F13.4}
HCGR .GAPI                                             :HNGS Computed Gamma Ray {F13.4}
HDRA .G/C3                                             :HRDD Density Correction {F13.4}
HFK  .CFCF                                             :HNGS Formation Potassium Concentration {F13.4}
HMIN .OHMM                                             :MCFL Micro Inverse Resistivity {F13.4}
HMNO .OHMM                                             :MCFL Micro Normal Resistivity {F13.4}
HSGR .GAPI                                             :HNGS Standard Gamma Ray {F13.4}
HTHO .PPM                                              :HNGS Formation Thorium Concentration {F13.4}
HTPR .                                                 :HNGS Thorium/Potassium Ratio {F13.4}
HTUR .                                                 :HNGS Thorium/Uranium Ratio {F13.4}
HURA .PPM                                              :HNGS Formation Uranium Concentration {F13.4}
ICV  .F3                                               :Integrated Cement Volume {F13.4}
IHV  .F3                                               :Integrated Hole Volume {F13.4}
PEFZ .                                                 :HRDD Standard Resolution Formation Photoelectric Factor {F13.4}
RHOZ .G/C3                                             :HRDD Standard Resolution Formation Density {F13.4}
RLA1 .OHMM                                             :HRLT Borehole Corrected Resistivity 1 {F13.4}
RLA2 .OHMM                                             :HRLT Borehole Corrected Resistivity 2 {F13.4}
RLA3 .OHMM                                             :HRLT Borehole Corrected Resistivity 3 {F13.4}
RLA4 .OHMM                                             :HRLT Borehole Corrected Resistivity 4 {F13.4}
RLA5 .OHMM                                             :HRLT Borehole Corrected Resistivity 5 {F13.4}
RXOZ .OHMM                                             :MCFL Standard Resolution Invaded Zone Resistivity {F13.4}
SP   .MV                                               :SP Shifted {F13.4}
TENS .LBF                                              :Cable Tension {F13.4}
TNPH .CFCF                                             :Thermal Neutron Porosity {F13.4}
#-----------------------------------------------------------------------------
# DEPT       
#     BS           CDF          DF           GR_EDTC      HBHK         HCAL         
#     HCGR         HDRA         HFK          HMIN         HMNO         HSGR         
#     HTHO         HTPR         HTUR         HURA         ICV          IHV          
#     PEFZ         RHOZ         RLA1         RLA2         RLA3         RLA4         
#     RLA5         RXOZ         SP           TENS         TNPH         
~A  
# ...
4206.0
     12.2500     958.9612     958.9612     106.9025       0.0092      12.5078
     73.3480       0.0022       0.0270       0.9255       0.8996     113.6245
      7.6826       2.8403       1.4658       5.2412     369.7711     887.9102
      2.1268       2.1341       2.0866       2.8452       3.2787       3.3714
      3.6321       1.4525      -7.4375    2779.0000       0.4455
4205.5
     12.2500     971.4037     971.4037     105.9398       0.0092      12.5952
     74.9105       0.0025       0.0276       0.7942       0.8024     114.4562
      7.8470       2.8407       1.4950       5.2490     369.9510     888.3428
      2.1127       2.1292       2.0544       2.8502       3.3186       3.4129
      3.6723       1.4278      -8.3125    2785.0000       0.4455
4205.0
     12.2500     971.4037     971.4037     100.1636       0.0092      12.8095
     74.7545       0.0010       0.0278       0.8394       0.8004     111.8149
      7.7166       2.7797       1.5476       4.9862     370.1459     888.7903
      2.0764       2.1183       1.9250       2.6366       3.0318       3.0977
      3.3404       1.4528      -6.4375    2787.0000       0.4303
4204.5
     12.2500     958.9612     958.9612      96.6552       0.0092      12.7778
     73.0107      -0.0006       0.0270       0.8364       0.8447     108.1059
      7.5879       2.8077       1.6425       4.6197     370.3385     889.2355
      2.0591       2.1090       2.0081       2.8310       3.3021       3.3783
      3.6491       1.3733      -7.6250    2768.0000       0.4206
4204.0
     12.2500     958.9612     958.9612      96.6121       0.0092      12.7619
     73.4153      -0.0038       0.0270       0.7989       0.7638     104.8082
      7.7597       2.8789       1.8725       4.1441     370.5300     889.6797
      2.0227       2.0998       1.9459       2.7502       3.1533       3.2311
      3.4871       1.2886      -7.3125    2745.0000       0.4278
4203.5
     12.2500     983.8463     983.8463      96.4195       0.0092      12.7857
     70.9667      -0.0055       0.0266       0.7718       0.7343     102.8871
      7.1969       2.7082       1.7787       4.0461     370.7231     890.1255
      2.0107       2.0959       1.8739       2.6174       2.9936       3.0622
      3.3154       1.1718      -7.5000    2783.0000       0.4181
4203.0
     12.2500     983.8463     983.8463      98.5375       0.0092      12.6746
     72.9252      -0.0047       0.0274       0.9156       0.8272     104.2659
      7.3223       2.6692       1.8650       3.9262     370.9086     890.5635
      1.9959       2.0982       1.9003       2.6907       3.0849       3.1669
      3.4196       1.2779      -6.9375    2766.0000       0.4303
4202.5
     12.2500     971.4037     971.4037      97.2328       0.0092      12.5555
     73.1698      -0.0017       0.0279       1.0663       0.9737     106.0608
      7.1531       2.5679       1.7344       4.1244     371.0858     890.9934
      2.0078       2.1035       1.9858       2.8036       3.2490       3.3394
      3.6119       1.3770      -6.9375    2755.0000       0.4205
4202.0
     12.2500     947.4075     947.4075      95.8850       0.0092      12.4999
     77.2648      -0.0005       0.0299       0.7761       0.7907     111.9272
      7.2404       2.4176       1.6625       4.3550     371.2593     891.4195
      2.0377       2.1029       2.0040       2.8196       3.2844       3.3791
      3.6441       1.5328      -8.6875    2729.0000       0.4305
4201.5
     12.2500     958.9612     958.9612      96.6552       0.0092      12.5475
     76.9570      -0.0007       0.0304       0.8666       0.8669     115.0723
      6.8752       2.2613       1.4445       4.7596     371.4360     891.8488
      2.0905       2.1030       2.0300       2.8386       3.3184       3.4296
      3.6994       1.4777      -7.6250    2796.0000       0.4163
4201.0
     12.2500     958.9612     958.9612     101.6759       0.0092      12.5475
     83.8945      -0.0034       0.0323       0.8923       0.8722     122.3103
      8.0058       2.4807       1.6945       4.7247     371.6127     892.2781
      2.1538       2.0992       2.0608       2.8777       3.3641       3.4745
      3.7490       1.6602      -7.8750    2792.0000       0.4206
4200.5
     12.2500     971.4037     971.4037     108.4149       0.0092      12.6428
     82.3400      -0.0064       0.0320       1.3551       1.2408     123.8188
      7.6725       2.3984       1.5315       5.0097     371.7960     892.7140
      2.1859       2.0992       2.1104       2.9863       3.5178       3.6303
      3.9192       1.7346      -7.9375    2802.0000       0.4187
4200.0
     12.2500     971.4037     971.4037     117.0792       0.0092      12.6547
     83.0490      -0.0076       0.0317       1.0763       1.0355     126.2282
      8.0637       2.5429       1.5901       5.0711     371.9800     893.1507
      2.1792       2.1031       2.1935       3.2648       3.9047       4.0576
      4.3945       1.7639      -7.1250    2791.0000       0.3959
4199.5
     12.2500     958.9612     958.9612     122.6482       0.0092      12.5793
     81.6895      -0.0058       0.0308       1.1427       1.0460     124.2095
      8.1586       2.6485       1.6409       4.9720     372.1589     893.5822
      2.1333       2.1120       2.0965       3.1152       3.6571       3.7838
      4.1032       1.7416      -8.1250    2750.0000       0.3892
4199.0
     12.2500     958.9612     958.9612     122.0429       0.0092      12.4364
     82.2678      -0.0031       0.0315       1.1750       1.1353     124.8985
      7.9244       2.5140       1.5784       5.0207     372.3281     894.0040
      2.0828       2.1176       2.1375       3.2155       3.8441       4.0048
      4.3521       1.8332      -7.4375    2779.0000       0.3743
4198.5
     12.2500     958.9612     958.9612     117.8070       0.0092      12.3967
     80.6240      -0.0021       0.0306       1.0069       1.0420     126.4038
      7.9146       2.5833       1.4629       5.4103     372.4945     894.4230
      2.0600       2.1123       2.2111       3.2613       3.8536       3.9956
      4.3410       1.9413      -7.4375    2777.0000       0.4242
4198.0
     12.2500     958.9612     958.9612     115.1114       0.0092      12.4364
     77.6793      -0.0019       0.0297       0.9766       0.9853     124.3712
      7.4964       2.5207       1.3203       5.6779     372.6636     894.8448
      2.0483       2.1088       2.2365       3.2224       3.7922       3.9068
      4.2494       1.8424      -8.3750    2763.0000       0.4452
4197.5
     12.2500     971.4037     971.4037     116.1018       0.0092      12.5793
     72.7551      -0.0027       0.0287       1.0425       0.9996     121.4463
      6.5366       2.2790       1.0793       6.0563     372.8425     895.2763
      2.0548       2.1062       2.1746       3.1005       3.6103       3.7097
      4.0500       1.7674      -6.5625    2783.0000       0.4505
4197.0
     12.2500     971.4037     971.4037     116.6794       0.0092      12.7381
     71.2121      -0.0049       0.0279       1.1487       1.1141     118.5725
      6.4788       2.3192       1.0853       5.9696     373.0324     895.7188
      2.0670       2.1034       2.1852       3.1610       3.6821       3.7812
      4.1384       1.7559      -7.3125    2749.0000       0.4191
4196.5
     12.2500     971.4037     971.4037     108.4308       0.0092      12.7381
     70.6494      -0.0073       0.0272       1.3989       1.2421     118.9851
      6.7156       2.4669       1.0896       6.1632     373.2222     896.1612
      2.0929       2.0996       2.2598       3.3794       3.9750       4.0926
      4.5057       1.7557      -8.3125    2759.0000       0.3920
4196.0
     12.2500     971.4037     971.4037     105.5427       0.0092      12.7143
     69.1300      -0.0087       0.0269       1.4155       1.2541     117.6625
      6.4181       2.3861       1.0398       6.1725     373.4104     896.6020
      2.1017       2.1004       2.2024       3.3407       3.9540       4.0622
      4.4894       1.7217      -5.8750    2794.0000       0.4007
