~VERSION INFORMATION
VERS.           2.0   :CWLS Log ASCII Standard - VERSION 2.0
WRAP.           NO    :One Line per depth step
PROD.  Schlumberger   :LAS Producer
PROG.  DLIS to ASCII 19C0-187                          :LAS Program name and version
CREA.        2011/01/03 01:40                          :LAS Creation date {YYYY/MM/DD hh:mm}
DLIS_CREA.  2011-Jan-02 17:53                          :DLIS Creation date and time {YYYY-MMM-DD hh:mm}
SOURCE.     BC0W-00120_VENOCO_HAMES_VALLEY_HAMES_VALLEY_1-35_FMI_DSST_MAIN.DLIS  :DLIS File Name
FILE-ID.     FMI_CAL_DSI_028PUP                        :File Identification Number
#--------------------------------------------------
~WELL INFORMATION
#MNEM.UNIT      DATA             DESCRIPTION
#---- ------ --------------   -----------------------------
STRT .F         5241.0       :START DEPTH     
STOP .F         1500.5       :STOP DEPTH     
STEP .F           -0.5       :STEP     
NULL .          -999.25      :NULL VALUE
COMP .        VENOCO, INC.                             :COMPANY
WELL .        HAMES VALLEY 1-35                        :WELL
FLD  .        HAMES VALLEY                             :FIELD
LOC  .        LAT: 35.889467                           :LOCATION
CNTY .        MONTEREY                                 :COUNTY
STAT .        CALIFORNIA                               :STATE
CTRY .                                                 :COUNTRY
API  .        040532205900                             :API NUMBER
UWI  .        040532205900                             :UNIQUE WELL ID
DATE .        02-Jan-2011                              :LOG DATE {DD-MMM-YYYY}
SRVC .        Schlumberger                             :SERVICE COMPANY
LATI .DEG                                              :LATITUDE
LONG .DEG                                              :LONGITUDE
GDAT .                                                 :GeoDetic Datum
SECT .        35                                       :Section
RANG .        10E                                      :Range
TOWN .        23S                                      :Township
#-----------------------------------------------------------------------------
~PARAMETER INFORMATION
#MNEM.UNIT    VALUE                      DESCRIPTION
#---- -----   --------------------       ------------------------
RUN  .          ONE                      :RUN NUMBER
PDAT .        GROUND LEVEL               :Permanent Datum
EPD  .F         1002.000000              :Elevation of Permanent Datum above Mean Sea Level
LMF  .          KELLY BUSHING            :Logging Measured From (Name of Logging Elevation Reference)
APD  .F          23.000000               :Elevation of Depth Reference (LMF) above Permanent Datum
#-----------------------------------------------------------------------------
~CURVE INFORMATION
#MNEM.UNIT   API CODE                                  DESCRIPTION
#---- -----  --------                                  -----------------------
DEPT .F                                                :DEPTH (BOREHOLE) {F10.1}
BS   .IN                                               :Bit Size {F13.4}
CDF  .LBF                                              :Calibrated Downhole Force {F13.4}
DF   .LBF                                              :Uncalibrated Downhole Force {F13.4}
DTCO .US/F                                             :Delta-T Compressional {F13.4}
DTSM .US/F                                             :Delta-T Shear {F13.4}
GR_EDTC.GAPI                                           :EDTC Gamma Ray {F13.4}
HD1_PPC1.IN                                            :PPC1 Hole Diameter 1 {F13.4}
HD1_PPC2.IN                                            :PPC2 Hole Diameter 1 {F13.4}
HD2_PPC1.IN                                            :PPC1 Hole Diameter 2 {F13.4}
HD2_PPC2.IN                                            :PPC2 Hole Diameter 2 {F13.4}
ICV  .F3                                               :Integrated Cement Volume {F13.4}
IHV  .F3                                               :Integrated Hole Volume {F13.4}
ITT  .S                                                :Integrated Transit Time {F13.4}
SPHI .CFCF                                             :Sonic Porosity {F13.4}
TENS .LBF                                              :Cable Tension {F13.4}
#-----------------------------------------------------------------------------
# 
#     DEPT        BS           CDF          DF           DTCO         DTSM       GR_EDTC      HD1_PPC1     HD1_PPC2     HD2_PPC1     HD2_PPC2       ICV          IHV          ITT          SPHI         TENS
#
~A  
# ...
    2511.0      12.2500    1141.1550    1141.1550     107.9386      83.6349      83.1512      13.0454      13.0799      12.5832      12.8835    1021.5591    2396.1118       0.2854       0.3007    2495.0000
    2510.5      12.2500    1214.9213    1214.9213     105.3856      76.5659      87.2614      13.0350      13.0821      12.5708      12.8485    1021.7534    2396.5586       0.2854       0.2929    2746.0000
    2510.0      12.2500    1141.1550    1141.1550     107.9521    -999.2500      88.8475      13.0068      13.0181      12.5834      12.8481    1021.9471    2397.0049       0.2855       0.3008    2561.0000
    2509.5      12.2500    1190.0363    1190.0363     106.0542    -999.2500      81.4840      12.9931      13.0175      12.5470      12.8365    1022.1390    2397.4495       0.2855       0.2950    2603.0000
    2509.0      12.2500    1166.0400    1166.0400     109.8304    -999.2500      65.0286      12.8987      12.9752      12.4627      12.8244    1022.3248    2397.8879       0.2856       0.3063    2574.0000
    2508.5      12.2500    1177.5938    1177.5938     110.6866      99.4962      51.9437      12.8987      12.8654      12.4508      12.7297    1022.5102    2398.3259       0.2856       0.3088    2518.0000
    2508.0      12.2500    1202.4788    1202.4788      89.4372     105.2287      51.7454      12.8671      12.8674      12.4265      12.7298    1022.6937    2398.7620       0.2857       0.2337    2677.0000
    2507.5      12.2500    1166.0400    1166.0400      67.9275     126.7265      64.4339      13.0276      12.8869      12.4508      12.7414    1022.8834    2399.2043       0.2857       0.1097    2576.0000
    2507.0      12.2500    1177.5938    1177.5938      65.5992     122.2215      80.2945      12.9932      13.0476      12.5589      12.8475    1023.0759    2399.6494       0.2857       0.0915    2569.0000
    2506.5      12.2500    1166.0400    1166.0400      65.5166     122.0435      89.4143      13.0382      13.0716      12.5350      12.8244    1023.2690    2400.0952       0.2858       0.0908    2642.0000
    2506.0      12.2500    1166.0400    1166.0400      61.4195     103.8948      91.0003      13.0350      13.0393      12.5589      12.8244    1023.4628    2400.5417       0.2858       0.0551    2541.0000
    2505.5      12.2500    1202.4788    1202.4788      59.2767     103.5785      91.0003      13.0382      13.0501      12.5231      12.8365    1023.6555    2400.9871       0.2858       0.0345    2735.0000
    2505.0      12.2500    1141.1550    1141.1550      58.2234      98.6873      95.1638      13.0350      13.0371      12.5230      12.8239    1023.8481    2401.4324       0.2859       0.0239    2467.0000
    2504.5      12.2500    1190.0363    1190.0363      58.3583      98.9437      92.7847      13.0141      13.0160      12.5227      12.8123    1024.0399    2401.8770       0.2859       0.0253    2672.0000
    2504.0      12.2500    1153.5975    1153.5975      59.5441     111.4687      98.9306      13.0276      13.0265      12.5228      12.8239    1024.2322    2402.3218       0.2859       0.0372    2501.0000
    2503.5      12.2500    1177.5938    1177.5938      59.5402     111.4667      98.5887      12.9931      13.0265      12.5108      12.8003    1024.4229    2402.7651       0.2859       0.0372    2572.0000
    2503.0      12.2500    1153.5975    1153.5975      59.7838     111.9065     100.3730      13.0454      13.0265      12.5108      12.8123    1024.6154    2403.2102       0.2860       0.0396    2521.0000
    2502.5      12.2500    1166.0400    1166.0400      60.0205     112.3368      88.0979      13.1846      13.1122      12.5106      12.8364    1024.8126    2403.6602       0.2860       0.0419    2495.0000
    2502.0      12.2500    1177.5938    1177.5938      60.2911     112.8352      87.0413      13.0769      13.0716      12.5589      12.8365    1025.0079    2404.1082       0.2860       0.0445    2671.0000
    2501.5      12.2500    1153.5975    1153.5975      60.0300     115.0510      85.4972      13.0456      13.0712      12.5589      12.8601    1025.2021    2404.5549       0.2861       0.0420    2481.0000
    2501.0      12.2500    1202.4788    1202.4788      59.9265     117.4916      86.0954      13.0456      13.0607      12.6191      12.8721    1025.3984    2405.0039       0.2861       0.0410    2704.0000
    2500.5      12.2500    1129.6013    1129.6013      59.8961     118.1613      87.2956      13.0560      13.0393      12.6069      12.9073    1025.5947    2405.4529       0.2861       0.0407    2467.0000
    2500.0      12.2500    1214.9213    1214.9213      59.9937     120.0417      88.0467      13.0487      13.0501      12.6190      12.9073    1025.7911    2405.9019       0.2862       0.0416    2607.0000
    2499.5      12.2500    1177.5938    1177.5938      59.8426     120.1592      94.2026      13.0980      13.0694      12.6309      12.9067    1025.9897    2406.3530       0.2862       0.0401    2598.0000
    2499.0      12.2500    1202.4788    1202.4788      59.8269     121.0407      93.7755      13.0577      13.3239      12.6309      12.8831    1026.1869    2406.8027       0.2862       0.0400    2524.0000
    2498.5      12.2500    1190.0363    1190.0363      67.0222     158.4425      94.8368      13.0980      13.1013      12.6069      12.8951    1026.3846    2407.2532       0.2862       0.1028    2628.0000
    2498.0      12.2500    1141.1550    1141.1550      66.5565     156.5848      95.0049      13.4524      13.3898      12.5948      12.8827    1026.5941    2407.7153       0.2863       0.0991    2466.0000
    2497.5      12.2500    1202.4788    1202.4788      68.4933     155.7840      94.8373      13.2756      13.2851      12.5592      12.8601    1026.7963    2408.1702       0.2863       0.1140    2718.0000
    2497.0      12.2500    1166.0400    1166.0400      65.3556     155.7457      98.3359      13.0561      13.1039      12.5589      12.8360    1026.9908    2408.6174       0.2863       0.0895    2519.0000
    2496.5      12.2500    1190.0363    1190.0363      65.6107     155.5193      98.9306      13.1115      13.1144      12.5469      12.8360    1027.1869    2409.0662       0.2864       0.0916    2623.0000
    2496.0      12.2500    1190.0363    1190.0363      71.6866     155.0032      98.1376      13.4559      13.4558      12.5834      12.8596    1027.3960    2409.5278       0.2864       0.1368    2576.0000
    2495.5      12.2500    1177.5938    1177.5938      69.9011     154.9013      96.3743      13.4835      13.3043      12.5711      12.8595    1027.6056    2409.9900       0.2864       0.1243    2559.0000
    2495.0      12.2500    1202.4788    1202.4788      70.1036     154.9023      94.7384      13.0769      13.1013      12.5468      12.8475    1027.8004    2410.4375       0.2865       0.1257    2622.0000
    2494.5      12.2500    1177.5938    1177.5938      51.9713     155.0349      90.4023      13.1009      13.2424      12.5228      12.8360    1027.9952    2410.8850       0.2865      -0.0484    2621.0000
    2494.0      12.2500    1214.9213    1214.9213      52.5322    -999.2500      87.8313      13.1097      13.1141      12.5108      12.8601    1028.1899    2411.3323       0.2865      -0.0413    2621.0000
    2493.5      12.2500    1190.0363    1190.0363      54.1745    -999.2500      89.6345      13.1220      13.1250      12.5950      12.8717    1028.3881    2411.7830       0.2866      -0.0211    2695.0000
    2493.0      12.2500    1177.5938    1177.5938      52.5312    -999.2500      92.1582      13.1084      13.1437      12.5948      12.8827    1028.5857    2412.2332       0.2866      -0.0413    2497.0000
    2492.5      12.2500    1214.9213    1214.9213      55.6084     105.7024      97.2856      13.1188      13.0694      12.6428      12.8947    1028.7854    2412.6855       0.2866      -0.0044    2649.0000
    2492.0      12.2500    1190.0363    1190.0363      55.2114      93.3693      93.5497      13.0873      13.0393      12.6191      12.8601    1028.9832    2413.1360       0.2866      -0.0089    2625.0000
