~Version Information
VERS  .          2.0                              :CWLS Log Ascii Standard - Version 2.0
WRAP  .          NO                               :One line per depth step
~Well Information Block
#MNEM.UNIT       Data Type                        Information
#---------       ---------                        -------------------------------
STRT  .F         5219.99583                       :START DEPTH
STOP  .F         1629.99583                       :STOP DEPTH
STEP  .F         -0.00000                         :INCREMENT
NULL  .          -999.25                          :NULL DATA VALUE
COMP  .          VENOCO, INC.                     :COMPANY
WELL  .          HAMES VALLEY 1-35                :WELL
FLD   .          SOUTH SALINAS                    :FIELD
LOC   .                                           :LOCATION
PROV  .          CALIFORNIA                       :PROVINCE
STAT  .          CALIFORNIA                       :STATE
CNTY  .          MONTEREY                         :COUNTY
CTRY  .          U.S.A                            :COUNTRY
DATE  .          2-Jan-2011                       :DATE
UWI   .          040532205900                     :UNIQUE WELL UWI
LIC   .                                           :LICENSE NUMBER
API   .          040532205900                                                                                                                      :API NUMBER
SRVC  .                                           :SERVICE COMPANY
~Parameter Information Block
#MNEM.UNIT       Value                            Description
#---------       ---------                        -------------
LONG  .DEG       -120.859398                      :Well Surface Location
LATI  .DEG       35.889400                        :Well Surface Location
XWELL .DEG       -120.859398                      :X-coordinate of Well Head
YWELL .DEG       35.889400                        :Y-coordinate of Well Head
~Curve Information Block
#MNEM.UNIT       API Code            Curve    Description
#--------        --------------      -----    -------------------
DEPT  .F                             :0       Index
DIP_HEIGHT.F                         :1       Height of Dip Plane Intersection with Borehole
DPAA_NAZ.DEG                         :2       Apparent Dip Azimuth - North  
DPAA_TOH.DEG                         :3       Apparent Dip Azimuth - Top of Hole
DPAP  .DEG                           :4       Apparent Dip Angle - Tool     
DPAZ  .DEG                           :5       True Dip Azimuth              
DPTR  .DEG                           :6       True Dip Angle                
QUAF  .                              :7       Dip Quality Factor            
~Ascii Data Section
# ...
   1789.99583       0.23616     104.99027     197.45607      11.72959     104.03686      12.39702      17.00000 
   1787.99583       0.22477     106.58575     198.31497      11.30499     105.66720      11.89025      17.00000 
   1785.99583       0.21586     106.40490     195.89299      10.97486     105.67470      11.49690      17.00000 
   1783.99583       0.21831     109.35725     195.69577      11.14390     108.67813      11.64212      17.00000 
   1781.99583       0.22001     111.41302     195.58694      11.23550     110.73574      11.74023      17.00000 
   1779.99583       0.21606     108.47412     191.23276      10.96766     107.94871      11.50583      17.00000 
   1777.99583       0.21997     105.82555     187.31468      11.02179     105.48603      11.56200      17.00000 
   1775.99583       0.21985     107.63956     188.83870      11.08828     107.27043      11.57377      17.00000 
   1773.99583       0.22111     106.72800     187.78215      11.02535     106.43383      11.46118      17.00000 
   1771.99583       0.22125     103.38750     186.29076      11.23636     103.18187      11.61954      17.00000 
   1769.99583       0.24421     100.46402     188.22672      12.24407     100.22939      12.60674      17.00000 
   1767.99583       0.24696     100.78994     191.21800      12.53133     100.44505      12.93051      17.00000 
   1765.99583       0.24387     104.22559     195.99088      12.30856     103.63094      12.77950      17.00000 
   1763.99583       0.23408     111.69812     203.68436      11.81969     110.62631      12.35666      17.00000 
   1761.99583       0.21879     111.11699     204.09430      11.02614     109.76184      11.65377      17.00000 
   1759.99583       0.20917     106.70101     202.31244      10.52163     105.21426      11.24504      17.00000 
   1757.99583       0.21163     103.14475     201.81291      10.55674     101.53636      11.36853      17.00000 
   1755.99583       0.22198     104.72880     207.10141      11.01190     102.67578      11.86141      17.00000 
   1753.99583       0.22784     103.73067     209.31583      11.21800     101.39111      12.12231      17.00000 
   1751.99583       0.22857     102.88243     209.54536      11.19315     100.32755      12.17717      17.00000 
   1749.99583       0.23116     103.67996     211.06363      11.29793     100.78249      12.36754      17.00000 
   1747.99583       0.22578     103.86656     211.51765      10.97946     100.56489      12.15848      17.00000 
   1745.99583       0.22166     104.00790     211.71335      10.78106     100.33216      12.07716      17.00000 
   1743.99583       0.21715     104.52197     212.66322      10.45718     100.42030      11.82525      17.00000 
   1741.99583       0.23331     106.30470     214.77116      10.95435     101.91455      12.37614      17.00000 
   1739.99583       0.23186     102.79661     211.29456      10.97917      98.73890      12.48671      17.00000 
   1737.99583       0.22241     100.56117     208.27385      10.64718      96.72142      12.21855      17.00000 
   1735.99583       0.22117     107.60755     214.44824      10.64810     102.94406      12.14938      17.00000 
   1733.99583       0.20926     107.64577     214.37189      10.15302     102.75034      11.67131      17.00000 
   1731.99583       0.20526     107.99296     214.92859      10.02512     102.89404      11.56165      17.00000 
   1729.99583       0.20808     107.63548     215.24518      10.19746     102.49692      11.75510      17.00000 
   1727.99583       0.18880     113.54682     221.53429       9.34383     107.03558      10.81421      17.00000 
   1725.99583       0.19180     110.09369     217.52248       9.55024     104.24352      11.09913      17.00000 
   1723.99583       0.19620     106.09489     212.84810       9.80796     101.03293      11.43535      17.00000 
   1721.99583       0.19441     108.14806     214.86440       9.73052     102.78379      11.31791      17.00000 
   1719.99583       0.18597     107.84184     214.73421       9.30699     102.34383      10.87768      17.00000 
   1717.99583       0.19044     107.82669     215.34595       9.55263     102.40954      11.09727      17.00000 
   1715.99583       0.20909     106.30357     214.10225      10.49942     101.50423      12.05243      17.00000 
   1713.99583       0.20597     104.63835     212.33684      10.35445     100.02390      11.93068      17.00000 
   1711.99583       0.20146      99.79953     207.12056      10.15232      95.74943      11.83688      17.00000 
   1709.99583       0.19784     104.27145     211.47121      10.00738      99.43030      11.68124      17.00000 
   1707.99583       0.18173     101.55909     210.30956       9.27446      96.49346      10.99867      17.00000 
   1705.99583       0.15611     111.88522     222.60904       8.00065     103.98739       9.52733      17.00000 
   1703.99583       0.15221     117.25205     229.57242       7.84855     108.18291       9.21178      17.00000 
   1701.99583       0.15426     110.84843     224.32275       7.98538     102.98261       9.40366      17.00000 
   1699.99583       0.14596     105.66365     218.38589       7.57696      98.59236       9.06662      17.00000 
   1697.99583       0.11861     114.35705     226.29434       6.12340     104.36162       7.48619      17.00000 
   1695.99583       0.18636     113.78924     225.45810       9.59634     107.09652      10.94138      17.00000 
   1693.99583       0.19568     106.76419     219.50572      10.00352     101.06420      11.45912      17.00000 
   1691.99583       0.15473     101.12416     215.11783       7.94839      94.90658       9.47700      17.00000 
   1689.99583       0.15564     101.29168     216.00972       8.00236      95.06887       9.48609      17.00000 
   1687.99583       0.15745     102.15932     216.84731       8.12184      95.98293       9.56326      17.00000 
   1685.99583       0.15231     107.33858     221.32225       7.87636     100.38007       9.22690      17.00000 
   1683.99583       0.14687     110.58282     224.07622       7.54512     102.96407       8.84398      17.00000 
   1681.99583       0.15169     101.97837     216.04095       7.79194      95.85590       9.20545      17.00000 
   1679.99583       0.16564     104.44332     219.41673       8.24361      98.13708       9.59637      17.00000 
   1677.99583       0.18946     108.28851     223.39233       9.34626     102.21151      10.60764      17.00000 
   1675.99583       0.18184     102.32424     216.42850       9.05836      97.05515      10.41239      17.00000 
   1673.99583       0.16699     101.73101     214.15750       8.57974      96.57221       9.95215      17.00000 
   1671.99583       0.16254     104.10561     214.59586       8.39315      98.78368       9.76025      17.00000 
   1669.99583       0.15956     101.56216     211.55141       8.18954      96.57857       9.59590      17.00000 
   1667.99583       0.16720      99.88713     211.22537       8.50769      95.10957       9.91834      17.00000 
   1665.99583       0.18357     101.54029     214.02182       9.31433      96.74670      10.69049      17.00000 
   1663.99583       0.18742     100.85470     213.60440       9.44760      96.22054      10.81334      17.00000 
   1661.99583       0.17745     100.67398     212.91710       9.06802      95.98634      10.43482      17.00000 
   1659.99583       0.17253      97.75362     208.78178       8.84475      93.60688      10.23279      17.00000 
   1657.99583       0.17222     100.05389     209.62018       8.84470      95.93066      10.17060      17.00000 
   1655.99583       0.18945      96.96426     205.47015       9.60346      93.76794      10.91321      17.00000 
   1653.99583       0.17174      97.82305     204.49765       8.75911      94.66223       9.99589      17.00000 
   1651.99583       0.17303      96.55447     199.58546       8.89205      94.20190      10.07450      17.00000 
   1649.99583       0.17613      93.24688     193.17934       9.09574      91.75340      10.25227      17.00000 
