~Version Information
VERS  .          2.0                              :CWLS Log Ascii Standard - Version 2.0
WRAP  .          NO                               :One line per depth step
~Well Information Block
#MNEM.UNIT       Data Type                        Information
#---------       ---------                        -------------------------------
STRT  .F         5219.99583                       :START DEPTH
STOP  .F         1629.99583                       :STOP DEPTH
STEP  .F         -0.00000                         :INCREMENT
NULL  .          -999.25                          :NULL DATA VALUE
COMP  .          VENOCO, INC.                     :COMPANY
WELL  .          HAMES VALLEY 1-35                :WELL
FLD   .          SOUTH SALINAS                    :FIELD
LOC   .                                           :LOCATION
PROV  .          CALIFORNIA                       :PROVINCE
STAT  .          CALIFORNIA                       :STATE
CNTY  .          MONTEREY                         :COUNTY
CTRY  .          U.S.A                            :COUNTRY
DATE  .          2-Jan-2011                       :DATE
UWI   .          040532205900                     :UNIQUE WELL UWI
LIC   .                                           :LICENSE NUMBER
API   .          040532205900                                                                                                                      :API NUMBER
SRVC  .                                           :SERVICE COMPANY
~Parameter Information Block
#MNEM.UNIT       Value                            Description
#---------       ---------                        -------------
LONG  .DEG       -120.859398                      :Well Surface Location
LATI  .DEG       35.889400                        :Well Surface Location
XWELL .DEG       -120.859398                      :X-coordinate of Well Head
YWELL .DEG       35.889400                        :Y-coordinate of Well Head
~Curve Information Block
#MNEM.UNIT       API Code            Curve    Description
#--------        --------------      -----    -------------------
DEPT  .F                             :0       Index
DIP_HEIGHT.F                         :1       Height of Dip Plane Intersection with Borehole
DPAA_NAZ.DEG                         :2       Apparent Dip Azimuth - North  
DPAA_TOH.DEG                         :3       Apparent Dip Azimuth - Top of Hole
DPAP  .DEG                           :4       Apparent Dip Angle - Tool     
DPAZ  .DEG                           :5       True Dip Azimuth              
DPTR  .DEG                           :6       True Dip Angle                
QUAF  .                              :7       Dip Quality Factor            
~Ascii Data Section
# ...
   4933.99583       0.44168     232.52882     338.15201      21.52304     208.55031      10.90778      17.00000 
   4931.99583       0.42928     234.23178     339.85526      21.25413     210.85564      10.37700      17.00000 
   4929.99583       0.42510     234.40198     339.86636      20.92524     210.18275      10.06445      17.00000 
   4927.99583       0.43010     233.99586     339.34561      21.26270     210.30283      10.47864      17.00000 
   4925.99583       0.44537     235.55280     340.76675      21.96996     214.56073      10.92301      17.00000 
   4923.99583       0.41175     240.91675     345.64999      20.49967     221.92422       9.00664      17.00000 
   4921.99583       0.38857     242.03059     346.41531      19.54967     221.94626       8.08260      17.00000 
   4919.99583       0.39136     239.97020     344.07101      19.61685     217.54906       8.48172      16.00000 
   4917.99583       0.40829     241.78700     345.78101      20.26516     223.10287       8.93681      17.00000 
   4915.99583       0.40054     241.70351     345.52539      19.76162     221.83963       8.55118      17.00000 
   4913.99583       0.38332     245.25696     349.01584      19.19798     228.64407       7.69760      18.00000 
   4911.99583       0.39233     248.13411     351.65601      19.65613     236.23647       8.00287      17.00000 
   4909.99583       0.35349     257.80341       1.07301      17.91030     260.15143       6.02350      12.00000 
   4907.99583       0.41088     250.53773     353.80731      20.47832     242.63367       8.74544      14.00000 
   4905.99583       0.39493     247.72383     350.21463      19.47113     234.07840       8.10717      17.00000 
   4903.99583       0.33225     246.26022     348.43430      16.84411     222.61613       5.74723      17.00000 
   4901.99583       0.36506     247.37000     349.54089      18.15685     229.77800       6.85250      17.00000 
   4899.99583       0.37959     253.42274     355.43686      18.94366     246.25427       7.14629      17.00000 
   4897.99583       0.40232     256.71536     358.72733      20.00314     255.15355       8.11539      17.00000 
   4895.99583       0.56272     278.59634      20.66852      26.81733     292.86987      16.24648      13.00000 
   4893.99583       0.81295     282.81393      24.88610      36.35892     292.81494      26.03522      13.00000 
   4887.99583       0.87557     282.57803      24.03624      38.19250     291.20908      27.99988       9.00000 
   4885.99583       0.55581     257.01260     358.47083      26.71869     256.14346      15.19570      13.00000 
   4883.99583       0.54565     260.44321       1.80862      26.13054     262.00751      14.64859      17.00000 
   4881.99583       0.52114     265.33389       6.48702      25.09369     270.69391      13.75011      16.00000 
   4879.99583       0.51299     261.71930       2.77716      24.65165     264.24780      13.17011      18.00000 
   4877.99583       0.53911     257.80090     358.80786      26.11862     257.13202      14.64700      17.00000 
   4875.99583       0.54240     259.75864       0.75966      26.26994     260.52658      14.82659      17.00000 
   4873.99583       0.57353     262.47424       3.46035      27.52097     264.97617      16.16073      17.00000 
   4871.99583       0.56894     257.43283     358.42883      27.19805     256.58310      15.84141      17.00000 
   4869.99583       0.58684     255.30206     356.14569      27.59496     252.99138      16.29377      17.00000 
   4867.99583       0.57408     254.17508     354.79752      27.24745     250.90263      15.97030      18.00000 
   4865.99583       0.54613     254.78676     355.43909      26.08898     251.68640      14.80683      18.00000 
   4863.99583       0.55210     252.18315     352.78546      26.40690     247.34908      15.26290      17.00000 
   4861.99583       0.58829     250.16565     350.69556      27.62342     244.43668      16.57790      17.00000 
   4859.99583       0.57740     251.47878     352.13620      27.47063     246.63223      16.40879      17.00000 
   4857.99583       0.49238     273.93774      14.58129      24.00791     285.68805      13.44724      11.00000 
   4855.99583       0.50254     289.42435      30.05894      24.35144     309.54214      15.64594      11.00000 
   4853.99583       0.48661     250.35326     351.00348      23.35217     242.86508      12.47085      17.00000 
   4851.99583       0.50088     244.34491     344.77316      24.08769     232.77269      13.66180      17.00000 
   4849.99583       0.52254     244.13637     344.54559      25.36591     233.58290      14.98635      17.00000 
   4847.99583       0.53062     243.28058     343.43069      25.46651     232.18591      15.21891      17.00000 
   4845.99583       0.52672     245.04893     345.22171      25.04587     234.86392      14.72299      18.00000 
   4843.99583       0.50876     242.51149     342.59274      24.67797     230.56068      14.67799      18.00000 
   4841.99583       0.51801     240.59169     340.63351      25.24046     227.98332      15.41001      17.00000 
   4839.99583       0.64719     238.73784     338.97003      29.67673     228.45465      19.88364      13.00000 
   4837.99583       0.50573     234.88742     335.12836      24.30620     218.23505      15.08270      17.00000 
   4835.99583       0.54414     240.57703     340.73627      25.07743     227.56982      15.10449      15.00000 
   4833.99583       0.49529     232.33025     332.48950      23.67225     213.32143      14.76301      17.00000 
   4831.99583       0.50773     226.84941     326.63101      24.45146     206.58755      16.38632      13.00000 
   4829.99583       0.55832     230.16841     329.95001      26.65205     213.67717      17.97286      17.00000 
   4827.99583       0.59171     226.08145     325.86307      27.67849     209.16516      19.53279      18.00000 
   4825.99583       0.66050     224.25308     323.93698      29.89008     208.86572      21.97627      16.00000 
   4823.99583       0.68695     211.15517     310.83908      31.20406     194.13487      25.33388      13.00000 
   4821.99583       0.41938     240.77171     340.52249      20.61576     222.55116      11.02648      13.00000 
   4819.99583       0.48120     246.21718     345.86401      22.11635     234.17424      11.95778      17.00000 
   4817.99583       0.42839     242.54636     342.14090      21.05399     226.37172      11.30405      18.00000 
   4815.99583       0.40568     242.05437     341.64890      19.76100     223.32201      10.12903       9.00000 
   4811.99583       0.46146     239.98091     339.16327      22.80681     224.33662      13.35922      17.00000 
   4809.99583       0.45165     237.27170     336.32901      22.17571     219.35063      13.15619      17.00000 
   4807.99583       0.48416     232.49959     331.33902      23.65094     214.25301      15.23966      18.00000 
   4805.99583       0.50445     235.32401     334.14252      24.41206     219.38010      15.64454      18.00000 
   4803.99583       0.47171     232.45497     331.23999      22.64601     213.02486      14.35886      17.00000 
   4801.99583       0.46944     230.86275     329.60022      22.59656     210.56683      14.52289      17.00000 
   4799.99583       0.51038     229.80281     328.61591      24.71125     211.80876      16.63095      17.00000 
   4797.99583       0.48925     228.98019     327.86728      23.82042     209.54968      15.88381      13.00000 
   4795.99583       0.55760     227.88954     326.75055      26.71856     211.24248      18.75954      17.00000 
   4793.99583       0.51263     232.62805     331.58121      24.85597     215.89635      16.34640      17.00000 
   4791.99583       0.51203     234.04201     332.98169      24.82853     217.90608      16.14858      17.00000 
   4789.99583       0.53825     227.52115     326.41122      25.85965     209.94630      18.00771      17.00000 
   4787.99583       0.54008     228.26279     327.21786      26.00884     211.12102      18.03622      17.00000 
