~VERSION INFORMATION
VERS.           2.0   :CWLS Log ASCII Standard - VERSION 2.0
WRAP.           YES   :Multiple lines per depth step
PROD.  Schlumberger   :LAS Producer
PROG.  DLIS to ASCII 19C0-187                          :LAS Program name and version
CREA.        2011/01/03 01:37                          :LAS Creation date {YYYY/MM/DD hh:mm}
DLIS_CREA.  2011-Jan-03 01:12                          :DLIS Creation date and time {YYYY-MMM-DD hh:mm}
SOURCE.     BC0W-00120_VENOCO_HAMES_VALLEY_1-35_FPEX_HRLA_HNGS_068PUP.DLIS  :DLIS File Name
FILE-ID.     TLD_MCFL_CNL_NGS_068PUP                   :File Identification Number
#--------------------------------------------------
~WELL INFORMATION
#MNEM.UNIT      DATA             DESCRIPTION
#---- ------ --------------   -----------------------------
STRT .F         5235.0       :START DEPTH     
STOP .F           78.5       :STOP DEPTH     
STEP .F           -0.5       :STEP     
NULL .          -999.25      :NULL VALUE
COMP .        VENOCO, INC.                             :COMPANY
WELL .        HAMES VALLEY 1-35                        :WELL
FLD  .        HAMES VALLEY                             :FIELD
LOC  .        LAT: 35.889467                           :LOCATION
CNTY .        MONTEREY                                 :COUNTY
STAT .        CALIFORNIA                               :STATE
CTRY .                                                 :COUNTRY
API  .        040532205900                             :API NUMBER
UWI  .        040532205900                             :UNIQUE WELL ID
DATE .        02-Jan-2011                              :LOG DATE {DD-MMM-YYYY}
SRVC .        Schlumberger                             :SERVICE COMPANY
LATI .DEG                                              :LATITUDE
LONG .DEG                                              :LONGITUDE
GDAT .                                                 :GeoDetic Datum
SECT .        35                                       :Section
RANG .        10E                                      :Range
TOWN .        23S                                      :Township
#-----------------------------------------------------------------------------
~PARAMETER INFORMATION
#MNEM.UNIT    VALUE                      DESCRIPTION
#---- -----   --------------------       ------------------------
RUN  .          ONE                      :RUN NUMBER
PDAT .        GROUND LEVEL               :Permanent Datum
EPD  .F         1002.000000              :Elevation of Permanent Datum above Mean Sea Level
LMF  .          KELLY BUSHING            :Logging Measured From (Name of Logging Elevation Reference)
APD  .F          23.000000               :Elevation of Depth Reference (LMF) above Permanent Datum
#-----------------------------------------------------------------------------
~CURVE INFORMATION
#MNEM.UNIT   API CODE                                  DESCRIPTION
#---- -----  --------                                  -----------------------
DEPT .F                                                :DEPTH (BOREHOLE) {F10.1}
BS   .IN                                               :Bit Size {F13.4}
CDF  .LBF                                              :Calibrated Downhole Force {F13.4}
DF   .LBF                                              :Uncalibrated Downhole Force {F13.4}
GR   .GAPI                                             :Gamma Ray {F13.4}
HBHK .CFCF                                             :HNGS Borehole Potassium Concentration {F13.4}
HCAL .IN                                               :HRCC Cal. Caliper {F13.4}
HCGR .GAPI                                             :HNGS Computed Gamma Ray {F13.4}
HDRA .G/C3                                             :HRDD Density Correction {F13.4}
HFK  .CFCF                                             :HNGS Formation Potassium Concentration {F13.4}
HMIN .OHMM                                             :MCFL Micro Inverse Resistivity {F13.4}
HMNO .OHMM                                             :MCFL Micro Normal Resistivity {F13.4}
HSGR .GAPI                                             :HNGS Standard Gamma Ray {F13.4}
HTHO .PPM                                              :HNGS Formation Thorium Concentration {F13.4}
HTPR .                                                 :HNGS Thorium/Potassium Ratio {F13.4}
HTUR .                                                 :HNGS Thorium/Uranium Ratio {F13.4}
HURA .PPM                                              :HNGS Formation Uranium Concentration {F13.4}
ICV  .F3                                               :Integrated Cement Volume {F13.4}
IHV  .F3                                               :Integrated Hole Volume {F13.4}
PEFZ .                                                 :HRDD Standard Resolution Formation Photoelectric Factor {F13.4}
RHOZ .G/C3                                             :HRDD Standard Resolution Formation Density {F13.4}
RLA1 .OHMM                                             :HRLT Borehole Corrected Resistivity 1 {F13.4}
RLA2 .OHMM                                             :HRLT Borehole Corrected Resistivity 2 {F13.4}
RLA3 .OHMM                                             :HRLT Borehole Corrected Resistivity 3 {F13.4}
RLA4 .OHMM                                             :HRLT Borehole Corrected Resistivity 4 {F13.4}
RLA5 .OHMM                                             :HRLT Borehole Corrected Resistivity 5 {F13.4}
RXOZ .OHMM                                             :MCFL Standard Resolution Invaded Zone Resistivity {F13.4}
SP   .MV                                               :SP Shifted {F13.4}
TENS .LBF                                              :Cable Tension {F13.4}
TNPH .CFCF                                             :Thermal Neutron Porosity {F13.4}
#-----------------------------------------------------------------------------
# DEPT       
#     BS           CDF          DF           GR_EDTC      HBHK         HCAL         
#     HCGR         HDRA         HFK          HMIN         HMNO         HSGR         
#     HTHO         HTPR         HTUR         HURA         ICV          IHV          
#     PEFZ         RHOZ         RLA1         RLA2         RLA3         RLA4         
#     RLA5         RXOZ         SP           TENS         TNPH         
~A  
# ...
1119.0
     17.5000     922.5225     922.5225      62.8868       0.0112       3.3296
     58.6560      -0.0006       0.0249       0.0452       0.0336      85.5381
      4.2330       1.6991       1.1780       3.5934    1430.7537    3304.0020
     10.0000       2.1846       0.0267       0.0218       0.0197       0.0184
      0.0230       0.0376     -42.6250    1847.0000       0.6023
1118.5
     17.5000     910.9688     910.9688      61.7316       0.0112       3.3534
     57.8471      -0.0005       0.0250       0.0447       0.0334      88.5215
      3.9253       1.5704       0.9644       4.0700    1430.7537    3304.0020
     10.0000       2.1821       0.0214       0.0176       0.0160       0.0150
      0.0201       0.0377     -42.6250    1901.0000       0.5121
1118.0
     17.5000     910.9688     910.9688      60.9614       0.0112       3.3296
     61.1910      -0.0034       0.0262       0.0451       0.0335      88.9786
      4.2878       1.6360       1.1938       3.5917    1430.7537    3304.0020
     10.0000       2.1872       0.0234       0.0192       0.0173       0.0162
      0.0211       0.0377     -42.6875    1871.0000       0.6274
1117.5
     17.5000     934.9650     934.9650      65.4636       0.0112       3.3415
     68.6797      -0.0033       0.0293       0.0451       0.0335      91.9444
      4.8702       1.6612       1.6561       2.9408    1430.7537    3304.0020
     10.0000       2.1940       0.0203       0.0167       0.0152       0.0143
      0.0196       0.0376     -42.5625    1839.0000       0.5089
1117.0
     17.5000     910.9688     910.9688      62.3830       0.0112       3.3534
     68.3434      -0.0016       0.0286       0.0446       0.0334      89.4458
      5.1561       1.8000       1.9136       2.6944    1430.7537    3304.0020
     10.0000       2.1969       0.0257       0.0208       0.0187       0.0174
      0.0220       0.0376     -42.2500    1893.0000       0.4306
1116.5
     17.5000     910.9688     910.9688      64.3084       0.0112       3.3296
     66.1832      -0.0011       0.0282       0.0454       0.0336      88.4245
      4.7185       1.6727       1.6389       2.8791    1430.7537    3304.0020
     10.0000       2.1941       0.0224       0.0184       0.0167       0.0156
      0.0202       0.0376     -42.3125    1867.0000       0.3764
1116.0
     17.5000     922.5225     922.5225      60.8103       0.0112       3.3534
     61.1538      -0.0040       0.0268       0.0448       0.0334      85.1845
      3.9481       1.4749       1.2723       3.1032    1430.7537    3304.0020
     10.0000       2.1830       0.0243       0.0197       0.0179       0.0167
      0.0216       0.0376     -42.6875    1897.0000       0.3740
1115.5
     17.5000     922.5225     922.5225      59.7046       0.0112       3.3534
     57.1516      -0.0056       0.0261       0.0438       0.0331      81.8340
      3.0309       1.1594       0.9635       3.1457    1430.7537    3304.0020
     10.0000       2.1747       0.0257       0.0209       0.0189       0.0177
      0.0224       0.0376     -43.1875    1831.0000       0.4612
1115.0
     17.5000     922.5225     922.5225      63.1703       0.0112       3.3296
     60.5183      -0.0051       0.0266       0.0449       0.0335      81.7083
      3.8305       1.4389       1.4758       2.5956    1430.7537    3304.0020
     10.0000       2.1689       0.0278       0.0221       0.0199       0.0185
      0.0228       0.0376     -43.3125    1873.0000       0.4948
1114.5
     17.5000     934.9650     934.9650      66.6685       0.0112       3.3534
     58.8432       0.0018       0.0259       0.0445       0.0333      77.2668
      3.6950       1.4248       1.6657       2.2182    1430.7537    3304.0020
     10.0000       2.1728       0.0194       0.0159       0.0146       0.0138
      0.0192       0.0376     -42.8125    1882.0000       0.6174
1114.0
     17.5000     922.5225     922.5225      70.0846       0.0112       3.3296
     55.7308       0.0065       0.0249       0.0453       0.0336      76.8644
      3.3287       1.3393       1.3320       2.4989    1430.7537    3304.0020
     10.0000       2.1793       0.0270       0.0216       0.0195       0.0183
      0.0229       0.0376     -43.0625    1857.0000       0.5984
1113.5
     17.5000     934.9650     934.9650      62.7681       0.0112       3.3534
     54.0180       0.0075       0.0241       0.0456       0.0337      73.7103
      3.2031       1.3275       1.3708       2.3368    1430.7537    3304.0020
     10.0000       2.1867       0.0248       0.0201       0.0181       0.0170
      0.0219       0.0376     -42.6875    1841.0000       0.5698
1113.0
     17.5000     922.5225     922.5225      60.0725       0.0112       3.3296
     55.6884      -0.0001       0.0248       0.0437       0.0331      74.9545
      3.3199       1.3362       1.4002       2.3711    1430.7537    3304.0020
     10.0000       2.1900       0.0225       0.0183       0.0166       0.0156
      0.0204       0.0376     -42.8125    1847.0000       0.6010
1112.5
     17.5000     922.5225     922.5225      59.6874       0.0112       3.3296
     55.9226      -0.0059       0.0245       0.0446       0.0334      73.9074
      3.6065       1.4730       1.6232       2.2219    1430.7537    3304.0020
     10.0000       2.1850       0.0227       0.0186       0.0169       0.0159
      0.0211       0.0376     -42.7500    1864.0000       0.5725
1112.0
     17.5000     934.9650     934.9650      61.2277       0.0112       3.3534
     56.1604      -0.0078       0.0230       0.0459       0.0338      74.4806
      4.5809       1.9959       1.9906       2.3013    1430.7537    3304.0020
     10.0000       2.1787       0.0253       0.0206       0.0186       0.0173
      0.0217       0.0376     -42.6875    1829.0000       0.5513
1111.5
     17.5000     910.9688     910.9688      60.7044       0.0112       3.3534
     56.6365      -0.0038       0.0243       0.0470       0.0341      74.7728
      3.9704       1.6370       1.7226       2.3050    1430.7537    3304.0020
     10.0000       2.1691       0.0235       0.0190       0.0172       0.0161
      0.0212       0.0376     -42.3750    1892.0000       0.4698
1111.0
     17.5000     910.9688     910.9688      58.3939       0.0112       3.3534
     59.1966      -0.0002       0.0238       0.0461       0.0339      74.5984
      5.0312       2.1099       2.4497       2.0538    1430.7537    3304.0020
     10.0000       2.1645       0.0250       0.0204       0.0184       0.0172
      0.0220       0.0376     -42.6250    1839.0000       0.4498
1110.5
     17.5000     922.5225     922.5225      57.2387       0.0112       3.3296
     64.9785       0.0019       0.0261       0.0464       0.0339      78.7358
      5.5733       2.1363       2.7372       2.0361    1430.7537    3304.0020
     10.0000       2.1614       0.0231       0.0189       0.0171       0.0160
      0.0210       0.0376     -43.0625    1944.0000       0.4035
1110.0
     17.5000     922.5225     922.5225      60.0725       0.0112       3.3296
     66.5778       0.0125       0.0266       0.0455       0.0337      79.6469
      5.7603       2.1619       3.0378       1.8962    1430.7537    3304.0020
     10.0000       2.1652       0.0223       0.0185       0.0167       0.0156
      0.0204       0.0376     -43.4375    1825.0000       0.4807
1109.5
     17.5000     910.9688     910.9688      58.5322       0.0112       3.3534
     67.4119       0.0126       0.0267       0.0471       0.0342      83.4822
      6.0087       2.2523       2.3598       2.5463    1430.7537    3304.0020
     10.0000       2.1561       0.0230       0.0185       0.0169       0.0159
      0.0211       0.0376     -43.5625    1848.0000       0.5522
1109.0
     17.5000     934.9650     934.9650      61.9516       0.0112       3.3296
     62.1197       0.0121       0.0246       0.0460       0.0338      79.0224
      5.5048       2.2343       2.0531       2.6813    1430.7537    3304.0020
     10.0000       2.1455       0.0232       0.0187       0.0170       0.0159
      0.0207       0.0377     -43.6250    1825.0000       0.6571
