~VERSION INFORMATION
VERS.           2.0   :CWLS Log ASCII Standard - VERSION 2.0
WRAP.           NO    :One Line per depth step
PROD.  Schlumberger   :LAS Producer
PROG.  DLIS to ASCII 19C0-187                          :LAS Program name and version
CREA.        2011/01/03 01:40                          :LAS Creation date {YYYY/MM/DD hh:mm}
DLIS_CREA.  2011-Jan-02 17:53                          :DLIS Creation date and time {YYYY-MMM-DD hh:mm}
SOURCE.     BC0W-00120_VENOCO_HAMES_VALLEY_HAMES_VALLEY_1-35_FMI_DSST_MAIN.DLIS  :DLIS File Name
FILE-ID.     FMI_CAL_DSI_028PUP                        :File Identification Number
#--------------------------------------------------
~WELL INFORMATION
#MNEM.UNIT      DATA             DESCRIPTION
#---- ------ --------------   -----------------------------
STRT .F         5241.0       :START DEPTH     
STOP .F         1500.5       :STOP DEPTH     
STEP .F           -0.5       :STEP     
NULL .          -999.25      :NULL VALUE
COMP .        VENOCO, INC.                             :COMPANY
WELL .        HAMES VALLEY 1-35                        :WELL
FLD  .        HAMES VALLEY                             :FIELD
LOC  .        LAT: 35.889467                           :LOCATION
CNTY .        MONTEREY                                 :COUNTY
STAT .        CALIFORNIA                               :STATE
CTRY .                                                 :COUNTRY
API  .        040532205900                             :API NUMBER
UWI  .        040532205900                             :UNIQUE WELL ID
DATE .        02-Jan-2011                              :LOG DATE {DD-MMM-YYYY}
SRVC .        Schlumberger                             :SERVICE COMPANY
LATI .DEG                                              :LATITUDE
LONG .DEG                                              :LONGITUDE
GDAT .                                                 :GeoDetic Datum
SECT .        35                                       :Section
RANG .        10E                                      :Range
TOWN .        23S                                      :Township
#-----------------------------------------------------------------------------
~PARAMETER INFORMATION
#MNEM.UNIT    VALUE                      DESCRIPTION
#---- -----   --------------------       ------------------------
RUN  .          ONE                      :RUN NUMBER
PDAT .        GROUND LEVEL               :Permanent Datum
EPD  .F         1002.000000              :Elevation of Permanent Datum above Mean Sea Level
LMF  .          KELLY BUSHING            :Logging Measured From (Name of Logging Elevation Reference)
APD  .F          23.000000               :Elevation of Depth Reference (LMF) above Permanent Datum
#-----------------------------------------------------------------------------
~CURVE INFORMATION
#MNEM.UNIT   API CODE                                  DESCRIPTION
#---- -----  --------                                  -----------------------
DEPT .F                                                :DEPTH (BOREHOLE) {F10.1}
BS   .IN                                               :Bit Size {F13.4}
CDF  .LBF                                              :Calibrated Downhole Force {F13.4}
DF   .LBF                                              :Uncalibrated Downhole Force {F13.4}
DTCO .US/F                                             :Delta-T Compressional {F13.4}
DTSM .US/F                                             :Delta-T Shear {F13.4}
GR_EDTC.GAPI                                           :EDTC Gamma Ray {F13.4}
HD1_PPC1.IN                                            :PPC1 Hole Diameter 1 {F13.4}
HD1_PPC2.IN                                            :PPC2 Hole Diameter 1 {F13.4}
HD2_PPC1.IN                                            :PPC1 Hole Diameter 2 {F13.4}
HD2_PPC2.IN                                            :PPC2 Hole Diameter 2 {F13.4}
ICV  .F3                                               :Integrated Cement Volume {F13.4}
IHV  .F3                                               :Integrated Hole Volume {F13.4}
ITT  .S                                                :Integrated Transit Time {F13.4}
SPHI .CFCF                                             :Sonic Porosity {F13.4}
TENS .LBF                                              :Cable Tension {F13.4}
#-----------------------------------------------------------------------------
# 
#     DEPT        BS           CDF          DF           DTCO         DTSM       GR_EDTC      HD1_PPC1     HD1_PPC2     HD2_PPC1     HD2_PPC2       ICV          IHV          ITT          SPHI         TENS
#
~A  
# ...
    4500.0      12.2500    1262.9138    1262.9138     111.6797    -999.2500     154.4922      12.8235      12.8479      12.4270      12.7307     226.6036     596.1983       0.0764       0.3116    3362.0000
    4499.5      12.2500    1190.0363    1190.0363     110.9901    -999.2500     173.1476      12.8523      12.8373      12.3787      12.6954     226.7849     596.6322       0.0764       0.3097    3109.0000
    4499.0      12.2500    1226.4750    1226.4750     111.9666    -999.2500     164.7274      12.8448      12.8373      12.3787      12.6841     226.9659     597.0659       0.0765       0.3124    3217.0000
    4498.5      12.2500    1238.9175    1238.9175     113.1777    -999.2500     162.2101      12.7784      12.8365      12.5356      12.8026     227.1502     597.5027       0.0765       0.3158    3346.0000
    4498.0      12.2500    1214.9213    1214.9213     112.4887    -999.2500     144.4875      12.8130      12.8264      12.5360      12.7901     227.3356     597.9409       0.0766       0.3139    3196.0000
    4497.5      12.2500    1226.4750    1226.4750     113.0662    -999.2500     140.2164      12.8206      12.8695      12.5235      12.7664     227.5209     598.3788       0.0767       0.3154    3177.0000
    4497.0      12.2500    1251.3600    1251.3600     111.6839    -999.2500     133.7791      12.8206      12.8373      12.4994      12.7664     227.7053     598.8159       0.0767       0.3116    3341.0000
    4496.5      12.2500    1226.4750    1226.4750     110.0938    -999.2500     134.1522      12.8207      12.8264      12.4509      12.8017     227.8881     599.2512       0.0768       0.3071    3336.0000
    4496.0      12.2500    1226.4750    1226.4750     109.9883    -999.2500     133.7692      12.8130      12.8161      12.4509      12.7544     228.0706     599.6863       0.0768       0.3068    3151.0000
    4495.5      12.2500    1251.3600    1251.3600     110.0586    -999.2500     129.5422      12.7919      12.8141      12.4509      12.7539     228.2523     600.1207       0.0769       0.3070    3253.0000
    4495.0      12.2500    1226.4750    1226.4750     110.1064    -999.2500     129.0853      12.7889      12.8052      12.4509      12.7544     228.4340     600.5550       0.0769       0.3071    3281.0000
    4494.5      12.2500    1226.4750    1226.4750     109.9504    -999.2500     124.0385      12.8552      12.8804      12.4753      12.7664     228.6188     600.9924       0.0770       0.3067    3162.0000
    4494.0      12.2500    1262.9138    1262.9138     109.1249    -999.2500     122.1268      12.8523      12.8784      12.4753      12.7419     228.8034     601.4297       0.0770       0.3043    3277.0000
    4493.5      12.2500    1275.3563    1275.3563     110.5310    -999.2500     119.4123      13.0240      13.0738      12.4875      12.8142     228.9944     601.8733       0.0771       0.3083    3352.0000
    4493.0      12.2500    1262.9138    1262.9138     110.5361    -999.2500     123.9090      13.1601      13.2023      12.8479      13.1439     229.2029     602.3344       0.0772       0.3084    3233.0000
    4492.5      12.2500    1262.9138    1262.9138     111.4853    -999.2500     121.3293      13.1811      13.1167      12.8479      13.0968     229.4121     602.7963       0.0772       0.3111    3267.0000
    4492.0      12.2500    1262.9138    1262.9138     112.3080    -999.2500     118.0960      13.0972      13.0414      12.8239      13.0613     229.6176     603.2543       0.0773       0.3134    3272.0000
    4491.5      12.2500    1299.3525    1299.3525     111.6632    -999.2500     114.0477      13.0342      13.1700      12.8239      13.1439     229.8208     603.7102       0.0773       0.3116    3407.0000
    4491.0      12.2500    1275.3563    1275.3563     111.6937    -999.2500     116.0674      13.2094      13.0952      12.9431      13.1447     230.0345     604.1765       0.0774       0.3116    3456.0000
    4490.5      12.2500    1190.0363    1190.0363     110.8219    -999.2500     118.7584      13.2022      13.3540      12.9555      13.3668     230.2484     604.6430       0.0774       0.3092    3073.0000
    4490.0      12.2500    1238.9175    1238.9175     110.9435    -999.2500     116.8178      13.1255      13.1476      12.7759      13.1088     230.4531     605.1003       0.0775       0.3095    3201.0000
    4489.5      12.2500    1262.9138    1262.9138     111.9452    -999.2500     116.6139      12.9291      12.9344      12.6194      12.9902     230.6455     605.5453       0.0775       0.3123    3338.0000
    4489.0      12.2500    1226.4750    1226.4750     111.4250    -999.2500     119.9733      12.9712      12.9661      12.5593      12.8490     230.8372     605.9897       0.0776       0.3109    3288.0000
    4488.5      12.2500    1214.9213    1214.9213     111.4157    -999.2500     125.7565      12.9500      13.0094      12.5474      12.9315     231.0277     606.4329       0.0777       0.3109    3109.0000
    4488.0      12.2500    1251.3600    1251.3600     111.5037    -999.2500     124.4693      13.0102      12.9985      12.6197      12.9199     231.2229     606.8807       0.0777       0.3111    3226.0000
    4487.5      12.2500    1251.3600    1251.3600     110.2110    -999.2500     116.2573      12.9575      13.0200      12.6076      12.8967     231.4158     607.3262       0.0778       0.3074    3397.0000
    4487.0      12.2500    1238.9175    1238.9175     110.3318    -999.2500     114.4102      12.9921      13.1700      12.6802      13.0027     231.6125     607.7755       0.0778       0.3078    3258.0000
    4486.5      12.2500    1251.3600    1251.3600     109.6328    -999.2500     118.4957      13.1151      13.1618      12.6915      13.0034     231.8139     608.2295       0.0779       0.3058    3249.0000
    4486.0      12.2500    1299.3525    1299.3525     109.6609    -999.2500     122.0418      13.1289      13.1486      12.6918      13.0027     232.0157     608.6840       0.0779       0.3058    3362.0000
    4485.5      12.2500    1262.9138    1262.9138     112.5583    -999.2500     120.9610      13.1393      13.0523      12.6796      12.9435     232.2175     609.1384       0.0780       0.3140    3260.0000
    4485.0      12.2500    1238.9175    1238.9175     112.7820    -999.2500     120.0464      12.9921      13.0200      12.5955      12.8843     232.4112     609.5847       0.0780       0.3147    3162.0000
    4484.5      12.2500    1262.9138    1262.9138     111.9696    -999.2500     127.5834      13.0027      13.0200      12.5474      12.8490     232.6035     610.0296       0.0781       0.3124    3191.0000
    4484.0      12.2500    1262.9138    1262.9138     109.4745    -999.2500     137.2272      12.9786      13.0112      12.5473      12.8490     232.7950     610.4738       0.0782       0.3053    3348.0000
    4483.5      12.2500    1190.0363    1190.0363     106.6230    -999.2500     147.0973      13.0342      13.1058      12.6078      12.8731     232.9906     610.9219       0.0782       0.2967    3195.0000
    4483.0      12.2500    1214.9213    1214.9213     106.9758    -999.2500     152.6022      12.9394      13.0094      12.5718      12.8490     233.1816     611.3656       0.0783       0.2978    3148.0000
    4482.5      12.2500    1262.9138    1262.9138     107.5537     162.4753     147.4565      12.9079      12.9449      12.5236      12.8494     233.3699     611.8065       0.0783       0.2996    3307.0000
    4482.0      12.2500    1275.3563    1275.3563     108.9742     162.2966     146.2022      12.9259      12.9449      12.5235      12.8254     233.5587     612.2479       0.0784       0.3038    3432.0000
    4481.5      12.2500    1214.9213    1214.9213     108.7202     164.3359     136.1283      12.9184      12.9344      12.5236      12.8727     233.7474     612.6891       0.0784       0.3031    3191.0000
    4481.0      12.2500    1251.3600    1251.3600     111.0081     166.5271     128.5883      12.9155      12.9340      12.5235      12.8138     233.9359     613.1303       0.0785       0.3097    3148.0000
