~VERSION INFORMATION
VERS.           2.0   :CWLS Log ASCII Standard - VERSION 2.0
WRAP.           YES   :Multiple lines per depth step
PROD.  Schlumberger   :LAS Producer
PROG.  DLIS to ASCII 19C0-187                          :LAS Program name and version
CREA.        2011/01/03 01:37                          :LAS Creation date {YYYY/MM/DD hh:mm}
DLIS_CREA.  2011-Jan-03 01:12                          :DLIS Creation date and time {YYYY-MMM-DD hh:mm}
SOURCE.     BC0W-00120_VENOCO_HAMES_VALLEY_1-35_FPEX_HRLA_HNGS_068PUP.DLIS  :DLIS File Name
FILE-ID.     TLD_MCFL_CNL_NGS_068PUP                   :File Identification Number
#--------------------------------------------------
~WELL INFORMATION
#MNEM.UNIT      DATA             DESCRIPTION
#---- ------ --------------   -----------------------------
STRT .F         5235.0       :START DEPTH     
STOP .F           78.5       :STOP DEPTH     
STEP .F           -0.5       :STEP     
NULL .          -999.25      :NULL VALUE
COMP .        VENOCO, INC.                             :COMPANY
WELL .        HAMES VALLEY 1-35                        :WELL
FLD  .        HAMES VALLEY                             :FIELD
LOC  .        LAT: 35.889467                           :LOCATION
CNTY .        MONTEREY                                 :COUNTY
STAT .        CALIFORNIA                               :STATE
CTRY .                                                 :COUNTRY
API  .        040532205900                             :API NUMBER
UWI  .        040532205900                             :UNIQUE WELL ID
DATE .        02-Jan-2011                              :LOG DATE {DD-MMM-YYYY}
SRVC .        Schlumberger                             :SERVICE COMPANY
LATI .DEG                                              :LATITUDE
LONG .DEG                                              :LONGITUDE
GDAT .                                                 :GeoDetic Datum
SECT .        35                                       :Section
RANG .        10E                                      :Range
TOWN .        23S                                      :Township
#-----------------------------------------------------------------------------
~PARAMETER INFORMATION
#MNEM.UNIT    VALUE                      DESCRIPTION
#---- -----   --------------------       ------------------------
RUN  .          ONE                      :RUN NUMBER
PDAT .        GROUND LEVEL               :Permanent Datum
EPD  .F         1002.000000              :Elevation of Permanent Datum above Mean Sea Level
LMF  .          KELLY BUSHING            :Logging Measured From (Name of Logging Elevation Reference)
APD  .F          23.000000               :Elevation of Depth Reference (LMF) above Permanent Datum
#-----------------------------------------------------------------------------
~CURVE INFORMATION
#MNEM.UNIT   API CODE                                  DESCRIPTION
#---- -----  --------                                  -----------------------
DEPT .F                                                :DEPTH (BOREHOLE) {F10.1}
BS   .IN                                               :Bit Size {F13.4}
CDF  .LBF                                              :Calibrated Downhole Force {F13.4}
DF   .LBF                                              :Uncalibrated Downhole Force {F13.4}
GR   .GAPI                                             :Gamma Ray {F13.4}
HBHK .CFCF                                             :HNGS Borehole Potassium Concentration {F13.4}
HCAL .IN                                               :HRCC Cal. Caliper {F13.4}
HCGR .GAPI                                             :HNGS Computed Gamma Ray {F13.4}
HDRA .G/C3                                             :HRDD Density Correction {F13.4}
HFK  .CFCF                                             :HNGS Formation Potassium Concentration {F13.4}
HMIN .OHMM                                             :MCFL Micro Inverse Resistivity {F13.4}
HMNO .OHMM                                             :MCFL Micro Normal Resistivity {F13.4}
HSGR .GAPI                                             :HNGS Standard Gamma Ray {F13.4}
HTHO .PPM                                              :HNGS Formation Thorium Concentration {F13.4}
HTPR .                                                 :HNGS Thorium/Potassium Ratio {F13.4}
HTUR .                                                 :HNGS Thorium/Uranium Ratio {F13.4}
HURA .PPM                                              :HNGS Formation Uranium Concentration {F13.4}
ICV  .F3                                               :Integrated Cement Volume {F13.4}
IHV  .F3                                               :Integrated Hole Volume {F13.4}
PEFZ .                                                 :HRDD Standard Resolution Formation Photoelectric Factor {F13.4}
RHOZ .G/C3                                             :HRDD Standard Resolution Formation Density {F13.4}
RLA1 .OHMM                                             :HRLT Borehole Corrected Resistivity 1 {F13.4}
RLA2 .OHMM                                             :HRLT Borehole Corrected Resistivity 2 {F13.4}
RLA3 .OHMM                                             :HRLT Borehole Corrected Resistivity 3 {F13.4}
RLA4 .OHMM                                             :HRLT Borehole Corrected Resistivity 4 {F13.4}
RLA5 .OHMM                                             :HRLT Borehole Corrected Resistivity 5 {F13.4}
RXOZ .OHMM                                             :MCFL Standard Resolution Invaded Zone Resistivity {F13.4}
SP   .MV                                               :SP Shifted {F13.4}
TENS .LBF                                              :Cable Tension {F13.4}
TNPH .CFCF                                             :Thermal Neutron Porosity {F13.4}
#-----------------------------------------------------------------------------
# DEPT       
#     BS           CDF          DF           GR_EDTC      HBHK         HCAL         
#     HCGR         HDRA         HFK          HMIN         HMNO         HSGR         
#     HTHO         HTPR         HTUR         HURA         ICV          IHV          
#     PEFZ         RHOZ         RLA1         RLA2         RLA3         RLA4         
#     RLA5         RXOZ         SP           TENS         TNPH         
~A  
# ...
2830.5
     12.2500     983.8463     983.8463      78.6670       0.0124      12.5713
     53.1004      -0.0027       0.0233       0.6322       0.6125      81.1076
      3.3943       1.4578       0.9834       3.4517     857.0073    2070.1277
      1.6952       1.7883       2.9309       4.7995       5.8457       5.9173
      6.0310       0.9088     -50.2500    2389.0000       0.4229
2830.0
     12.2500     958.9612     958.9612      80.8100       0.0124      12.6190
     51.7665      -0.0019       0.0226       0.5110       0.5292      80.2196
      3.3810       1.4976       0.9887       3.4195     857.1890    2070.5620
      1.6766       1.7851       2.8126       4.5032       5.4072       5.4946
      5.5376       0.9987     -50.3125    2387.0000       0.4247
2829.5
     12.2500     958.9612     958.9612      73.8566       0.0124      12.7063
     50.7004      -0.0020       0.0217       0.6383       0.6332      79.8078
      3.5717       1.6485       1.0302       3.4671     857.3766    2071.0022
      1.6787       1.7839       2.8381       4.6523       5.6843       5.8685
      5.8842       0.8669     -50.2500    2354.0000       0.4282
2829.0
     12.2500     958.9612     958.9612      74.7086       0.0124      12.7381
     50.0347      -0.0027       0.0217       0.5224       0.5027      82.3232
      3.3166       1.5257       0.8723       3.8023     857.5664    2071.4446
      1.6970       1.7875       2.8482       4.5879       5.6052       5.7966
      5.7528       0.9272     -50.7500    2369.0000       0.4381
2828.5
     12.2500     958.9612     958.9612      70.0625       0.0124      12.7222
     48.6076      -0.0027       0.0215       0.5986       0.5852      81.6231
      2.9739       1.3806       0.7455       3.9891     857.7551    2071.8860
      1.7128       1.7970       2.7996       4.4699       5.5595       5.7267
      5.6739       1.0292     -51.2500    2333.0000       0.3907
2828.0
     12.2500     983.8463     983.8463      73.1652       0.0124      12.7143
     49.3872      -0.0023       0.0220       0.6305       0.6479      83.2056
      2.9373       1.3333       0.7259       4.0465     857.9433    2072.3269
      1.7340       1.8029       3.0247       5.0199       6.4242       6.7105
      6.6104       1.1701     -50.9375    2424.0000       0.3730
2827.5
     12.2500     958.9612     958.9612      76.8234       0.0124      12.8095
     47.8096      -0.0046       0.0211       0.5674       0.5863      84.2793
      2.9877       1.4173       0.6713       4.4509     858.1381    2072.7744
      1.7607       1.7912       2.9020       4.6842       5.7861       5.9888
      5.8906       1.1674     -49.6250    2314.0000       0.3780
2827.0
     12.2500     971.4037     971.4037      82.0220       0.0124      12.7143
     52.6285      -0.0048       0.0235       0.6637       0.6907      88.0988
      3.1294       1.3329       0.7268       4.3057     858.3263    2073.2153
      1.7817       1.7931       3.0251       4.8728       5.8885       6.0653
      5.9695       1.1975     -49.6250    2427.0000       0.3883
2826.5
     12.2500     958.9612     958.9612      80.3124       0.0124      12.6428
     53.7596      -0.0059       0.0235       0.7940       0.8018      88.3447
      3.4892       1.4858       0.8185       4.2629     858.5095    2073.6511
      1.7683       1.7980       3.1216       4.9501       5.9229       6.0241
      5.9465       1.2854     -49.7500    2309.0000       0.3966
2826.0
     12.2500     971.4037     971.4037      73.9790       0.0124      12.6309
     50.7900      -0.0041       0.0220       0.6202       0.6516      83.8606
      3.4282       1.5611       0.8429       4.0673     858.6920    2074.0862
      1.7369       1.8073       3.2969       5.3218       6.4458       6.5282
      6.4867       1.1655     -48.3750    2394.0000       0.3867
2825.5
     12.2500     971.4037     971.4037      72.3904       0.0124      12.5713
     49.3005      -0.0045       0.0214       0.5760       0.5768      80.1350
      3.2923       1.5401       0.8897       3.7004     858.8703    2074.5171
      1.6998       1.7943       3.1822       4.8383       5.6021       5.6237
      5.6216       1.0158     -50.1875    2334.0000       0.4215
2825.0
     12.2500     971.4037     971.4037      72.5597       0.0124      12.5634
     49.3950      -0.0046       0.0212       0.4889       0.5060      79.6540
      3.4148       1.6093       1.0029       3.4048     859.0481    2074.9475
      1.7010       1.7789       3.0742       4.5406       5.1539       5.1620
      5.1650       0.9499     -50.5000    2351.0000       0.4346
2824.5
     12.2500     958.9612     958.9612      77.6933       0.0124      12.5872
     52.0766      -0.0032       0.0223       0.4972       0.5028      82.8696
      3.6492       1.6374       1.0171       3.5881     859.2275    2075.3796
      1.7244       1.7861       3.1478       4.5095       5.0917       5.0550
      5.1367       0.8643     -50.8750    2360.0000       0.4516
2824.0
     12.2500     947.4075     947.4075      79.2818       0.0124      12.5634
     51.4698      -0.0028       0.0222       0.5153       0.5255      83.8742
      3.5347       1.5958       0.9240       3.8252     859.4053    2075.8101
      1.7617       1.8029       3.1703       4.4692       4.9658       4.9176
      5.0315       0.9128     -49.9375    2332.0000       0.4346
2823.5
     12.2500     947.4075     947.4075      84.8655       0.0124      12.6031
     51.9048      -0.0011       0.0217       0.3961       0.4404      87.2413
      3.9123       1.7993       0.9191       4.2565     859.5859    2076.2432
      1.7873       1.8284       3.3319       4.7199       5.2390       5.2087
      5.3794       0.8554     -49.3750    2370.0000       0.4305
2823.0
     12.2500     958.9612     958.9612      82.9847       0.0124      12.5952
     53.7092      -0.0025       0.0220       0.3911       0.4235      90.0150
      4.3593       1.9844       0.9994       4.3619     859.7659    2076.6758
      1.8271       1.8407       3.1866       4.3301       4.7406       4.7294
      4.9059       0.8669     -49.8750    2392.0000       0.4280
2822.5
     12.2500     971.4037     971.4037      81.2519       0.0124      12.6587
     58.2264      -0.0000       0.0237       0.5755       0.5611      98.0432
      4.7701       2.0093       0.9938       4.7998     859.9502    2077.1128
      1.8883       1.8869       3.3399       4.7317       5.2708       5.3051
      5.5796       0.8766     -48.7500    2406.0000       0.4008
2822.0
     12.2500     958.9612     958.9612      83.5624       0.0124      12.5396
     63.6344       0.0058       0.0263       0.7180       0.6642     104.7720
      4.9809       1.8909       0.9949       5.0065     860.1263    2077.5415
      2.0044       1.9667       3.1995       4.5433       5.0924       5.1193
      5.4358       1.2389     -49.1250    2356.0000       0.3994
2821.5
     12.2500     947.4075     947.4075      94.5859       0.0124      12.4284
     67.7042       0.0103       0.0265       0.9576       1.1164     113.7525
      6.2118       2.3468       1.1253       5.5201     860.2949    2077.9626
      2.1021       2.0672       3.4162       5.1607       6.0332       6.0600
      6.5433       1.6803     -49.3750    2316.0000       0.3804
2821.0
     12.2500     971.4037     971.4037     105.5441       0.0124      12.3927
     69.7159       0.0098       0.0274       1.8864       1.7272     116.8914
      6.3399       2.3179       1.1088       5.7178     860.4611    2078.3813
      2.1393       2.1337       3.7717       6.3441       7.7748       7.9947
      8.7308       2.9412     -49.0625    2352.0000       0.3899
2820.5
     12.2500     958.9612     958.9612     111.8980       0.0124      12.3649
     71.3210       0.0046       0.0283       2.0114       1.9003     120.5993
      6.3261       2.2390       1.0553       5.9947     860.6254    2078.7983
      2.1107       2.1517       3.9355       7.5650      10.1240      10.6245
     11.8050       2.5672     -47.8750    2360.0000       0.3889
