~Version Information
VERS  .          2.0                              :CWLS Log Ascii Standard - Version 2.0
WRAP  .          NO                               :One line per depth step
~Well Information Block
#MNEM.UNIT       Data Type                        Information
#---------       ---------                        -------------------------------
STRT  .F         5219.99583                       :START DEPTH
STOP  .F         1629.99583                       :STOP DEPTH
STEP  .F         -0.00000                         :INCREMENT
NULL  .          -999.25                          :NULL DATA VALUE
COMP  .          VENOCO, INC.                     :COMPANY
WELL  .          HAMES VALLEY 1-35                :WELL
FLD   .          SOUTH SALINAS                    :FIELD
LOC   .                                           :LOCATION
PROV  .          CALIFORNIA                       :PROVINCE
STAT  .          CALIFORNIA                       :STATE
CNTY  .          MONTEREY                         :COUNTY
CTRY  .          U.S.A                            :COUNTRY
DATE  .          2-Jan-2011                       :DATE
UWI   .          040532205900                     :UNIQUE WELL UWI
LIC   .                                           :LICENSE NUMBER
API   .          040532205900                                                                                                                      :API NUMBER
SRVC  .                                           :SERVICE COMPANY
~Parameter Information Block
#MNEM.UNIT       Value                            Description
#---------       ---------                        -------------
LONG  .DEG       -120.859398                      :Well Surface Location
LATI  .DEG       35.889400                        :Well Surface Location
XWELL .DEG       -120.859398                      :X-coordinate of Well Head
YWELL .DEG       35.889400                        :Y-coordinate of Well Head
~Curve Information Block
#MNEM.UNIT       API Code            Curve    Description
#--------        --------------      -----    -------------------
DEPT  .F                             :0       Index
DIP_HEIGHT.F                         :1       Height of Dip Plane Intersection with Borehole
DPAA_NAZ.DEG                         :2       Apparent Dip Azimuth - North  
DPAA_TOH.DEG                         :3       Apparent Dip Azimuth - Top of Hole
DPAP  .DEG                           :4       Apparent Dip Angle - Tool     
DPAZ  .DEG                           :5       True Dip Azimuth              
DPTR  .DEG                           :6       True Dip Angle                
QUAF  .                              :7       Dip Quality Factor            
~Ascii Data Section
# ...
   4355.99583       0.35128     187.39938     283.69556      17.76238     175.56001      17.25048      17.00000 
   4353.99583       0.35746     190.48969     289.20978      18.06355     179.14859      17.19216      17.00000 
   4351.99583       0.52567     137.99072     236.71080      25.68727     132.08499      27.88158      12.00000 
   4349.99583       0.57017     130.94962     232.83066      27.60956     125.87360      29.93716      14.00000 
   4347.99583       0.48758     159.44502     261.32605      23.99888     151.63101      24.79416      11.00000 
   4345.99583       0.29240     177.08203     281.64844      14.94754     163.51303      14.64140      17.00000 
   4343.99583       0.32332     173.32484     279.08371      16.44470     161.28568      16.25537      17.00000 
   4341.99583       0.31726     176.81757     283.99313      16.10893     164.67856      15.62661      18.00000 
   4339.99583       0.31676     180.15855     288.54663      15.89420     168.18793      15.14974      17.00000 
   4337.99583       0.31203     185.10683     293.49493      15.49265     172.95937      14.46729      17.00000 
   4335.99583       0.28839     178.81747     289.82956      14.35229     165.87613      13.58366      16.00000 
   4333.99583       0.35347     173.03770     286.37543      17.33249     162.62471      16.70047      16.00000 
   4331.99583       0.35869     179.61514     294.77347      17.88422     170.00264      16.78858      18.00000 
   4329.99583       0.33861     178.71571     295.83551      17.03081     168.82310      15.90895      17.00000 
   4327.99583       0.35847     184.63185     303.03967      17.45241     175.56508      15.96652      17.00000 
   4325.99583       0.34799     187.20798     307.47861      17.01702     178.38023      15.34082      17.00000 
   4323.99583       0.31649     189.72379     311.97226      15.92504     180.81923      14.08263      17.00000 
   4321.99583       0.31959     185.85532     310.93231      16.23801     177.18559      14.46124      17.00000 
   4319.99583       0.34443     183.49323     311.48907      17.27128     175.58655      15.47656      17.00000 
   4317.99583       0.33461     184.08401     314.68320      16.75773     176.35834      14.85797      17.00000 
   4315.99583       0.34421     184.49066     317.92169      17.34388     177.46751      15.31656      17.00000 
   4313.99583       0.36974     186.27525     321.74292      18.42201     180.24084      16.26195      17.00000 
   4311.99583       0.35958     183.29161     320.97562      17.87867     176.92296      15.74459      17.00000 
   4309.99583       0.35360     179.99159     319.57837      17.38988     173.28403      15.32358      17.00000 
   4307.99583       0.34939     175.80620     317.14691      16.86582     168.57832      14.90127      17.00000 
   4305.99583       0.35037     172.80652     315.75204      16.55173     165.37100      14.66916      17.00000 
   4303.99583       0.34490     176.17540     318.90289      16.85910     169.27344      14.85669      17.00000 
   4301.99583       0.35061     176.08504     319.12250      17.10633     169.42204      15.11727      17.00000 
   4299.99583       0.34289     179.09818     322.04764      16.96185     172.69669      14.86237      17.00000 
   4297.99583       0.35473     179.84572     322.94733      17.36355     173.77690      15.24296      17.00000 
   4295.99583       0.36342     178.72942     321.95386      17.86681     172.67693      15.75662      17.00000 
   4293.99583       0.47316     186.31015     328.96222      22.75323     182.47820      20.39652      14.00000 
   4291.99583       0.36911     178.05168     320.56454      18.14760     171.82304      16.04832      17.00000 
   4289.99583       0.34779     177.99884     320.10468      17.05676     171.23326      14.98244      17.00000 
   4287.99583       0.33802     178.71851     320.61307      16.91610     171.86641      14.80310      17.00000 
   4285.99583       0.34358     176.36215     318.20874      17.17641     169.34766      15.15312      17.00000 
   4283.99583       0.35037     171.71140     313.53754      17.31398     164.17650      15.45978      17.00000 
   4281.99583       0.37350     175.34079     316.66403      18.33136     168.59027      16.33529      15.00000 
   4279.99583       0.36426     168.22734     309.15933      18.19699     160.52643      16.48435      18.00000 
   4277.99583       0.38082     184.54950     324.43420      18.95602     178.74823      16.59901      17.00000 
   4275.99583       0.39063     188.66620     327.57547      19.15802     183.15959      16.61777      17.00000 
   4273.99583       0.38083     164.60406     302.88458      18.51128     155.99751      17.00089      11.00000 
   4271.99583       0.33343     191.80112     329.90274      16.39125     185.29999      13.71595      17.00000 
   4269.99583       0.35066     186.51656     325.06024      17.78420     179.87010      15.26676      17.00000 
   4267.99583       0.39210     175.50626     314.37961      19.50042     168.30734      17.41426      18.00000 
   4265.99583       0.48475     163.95052     303.35773      23.05834     157.28389      21.47042      13.00000 
   4263.99583       0.39664     172.68822     312.81015      19.02479     165.20465      17.03502      16.00000 
   4261.99583       0.39116     167.30505     307.83667      19.39084     159.63470      17.64722      17.00000 
   4259.99583       0.54697     181.36559     321.89722      26.31342     177.11751      23.93620      13.00000 
   4257.99583       0.61846     188.42046     330.16385      28.99483     185.45798      26.40664      10.00000 
   4255.99583       0.34616     173.57585     316.01718      16.95486     165.84781      14.94420      18.00000 
   4253.99583       0.32693     172.41548     315.39697      16.33411     164.39400      14.38209      17.00000 
   4251.99583       0.31878     171.04932     315.40881      16.22186     163.08791      14.29511      17.00000 
   4249.99583       0.34118     168.68015     314.15292      16.72222     160.99814      14.86893      17.00000 
   4247.99583       0.35285     177.32671     323.73697      16.96484     171.05081      14.78063      16.00000 
   4245.99583       0.33390     187.41287     333.82315      16.78261     182.58278      14.30209      16.00000 
   4243.99583       0.37024     151.01218     297.42245      18.15700     142.86301      17.03597       9.00000 
   4241.99583       0.32826     160.44339     307.94559      16.46034     152.01801      14.87456      16.00000 
   4239.99583       0.30081     154.96277     302.46500      15.12129     145.18767      13.79818      17.00000 
   4237.99583       0.30614     159.70398     307.16394      15.35745     150.49950      13.81999      17.00000 
   4235.99583       0.30641     172.96347     320.82803      15.34593     165.52110      13.29117      18.00000 
   4233.99583       0.55734     181.99036     331.38165      26.51661     179.10966      24.13833      11.00000 
   4231.99583       0.41690     169.15013     318.93658      20.34014     163.85919      18.38461      14.00000 
   4229.99583       0.35756     160.46312     311.33954      17.68524     153.56447      16.05015      17.00000 
   4227.99583       0.36985     158.12598     309.20786      18.34552     151.40123      16.80012      17.00000 
   4225.99583       0.39031     161.36145     313.33984      19.30141     155.38428      17.59939      17.00000 
   4223.99583       0.40094     168.45885     320.92255      19.82518     163.39668      17.86984      17.00000 
   4221.99583       0.40048     166.03462     319.66150      19.55257     160.79916      17.65119      17.00000 
   4219.99583       0.35854     166.15826     320.94751      18.15450     160.63913      16.23676      17.00000 
   4217.99583       0.35850     168.38400     325.48199      17.94368     163.39534      15.92071      17.00000 
   4215.99583       0.35725     163.54263     321.76361      17.88693     158.21167      16.00475      18.00000 
