~VERSION INFORMATION
VERS.           2.0   :CWLS Log ASCII Standard - VERSION 2.0
WRAP.           YES   :Multiple lines per depth step
PROD.  Schlumberger   :LAS Producer
PROG.  DLIS to ASCII 19C0-187                          :LAS Program name and version
CREA.        2011/01/03 01:37                          :LAS Creation date {YYYY/MM/DD hh:mm}
DLIS_CREA.  2011-Jan-03 01:12                          :DLIS Creation date and time {YYYY-MMM-DD hh:mm}
SOURCE.     BC0W-00120_VENOCO_HAMES_VALLEY_1-35_FPEX_HRLA_HNGS_068PUP.DLIS  :DLIS File Name
FILE-ID.     TLD_MCFL_CNL_NGS_068PUP                   :File Identification Number
#--------------------------------------------------
~WELL INFORMATION
#MNEM.UNIT      DATA             DESCRIPTION
#---- ------ --------------   -----------------------------
STRT .F         5235.0       :START DEPTH     
STOP .F           78.5       :STOP DEPTH     
STEP .F           -0.5       :STEP     
NULL .          -999.25      :NULL VALUE
COMP .        VENOCO, INC.                             :COMPANY
WELL .        HAMES VALLEY 1-35                        :WELL
FLD  .        HAMES VALLEY                             :FIELD
LOC  .        LAT: 35.889467                           :LOCATION
CNTY .        MONTEREY                                 :COUNTY
STAT .        CALIFORNIA                               :STATE
CTRY .                                                 :COUNTRY
API  .        040532205900                             :API NUMBER
UWI  .        040532205900                             :UNIQUE WELL ID
DATE .        02-Jan-2011                              :LOG DATE {DD-MMM-YYYY}
SRVC .        Schlumberger                             :SERVICE COMPANY
LATI .DEG                                              :LATITUDE
LONG .DEG                                              :LONGITUDE
GDAT .                                                 :GeoDetic Datum
SECT .        35                                       :Section
RANG .        10E                                      :Range
TOWN .        23S                                      :Township
#-----------------------------------------------------------------------------
~PARAMETER INFORMATION
#MNEM.UNIT    VALUE                      DESCRIPTION
#---- -----   --------------------       ------------------------
RUN  .          ONE                      :RUN NUMBER
PDAT .        GROUND LEVEL               :Permanent Datum
EPD  .F         1002.000000              :Elevation of Permanent Datum above Mean Sea Level
LMF  .          KELLY BUSHING            :Logging Measured From (Name of Logging Elevation Reference)
APD  .F          23.000000               :Elevation of Depth Reference (LMF) above Permanent Datum
#-----------------------------------------------------------------------------
~CURVE INFORMATION
#MNEM.UNIT   API CODE                                  DESCRIPTION
#---- -----  --------                                  -----------------------
DEPT .F                                                :DEPTH (BOREHOLE) {F10.1}
BS   .IN                                               :Bit Size {F13.4}
CDF  .LBF                                              :Calibrated Downhole Force {F13.4}
DF   .LBF                                              :Uncalibrated Downhole Force {F13.4}
GR   .GAPI                                             :Gamma Ray {F13.4}
HBHK .CFCF                                             :HNGS Borehole Potassium Concentration {F13.4}
HCAL .IN                                               :HRCC Cal. Caliper {F13.4}
HCGR .GAPI                                             :HNGS Computed Gamma Ray {F13.4}
HDRA .G/C3                                             :HRDD Density Correction {F13.4}
HFK  .CFCF                                             :HNGS Formation Potassium Concentration {F13.4}
HMIN .OHMM                                             :MCFL Micro Inverse Resistivity {F13.4}
HMNO .OHMM                                             :MCFL Micro Normal Resistivity {F13.4}
HSGR .GAPI                                             :HNGS Standard Gamma Ray {F13.4}
HTHO .PPM                                              :HNGS Formation Thorium Concentration {F13.4}
HTPR .                                                 :HNGS Thorium/Potassium Ratio {F13.4}
HTUR .                                                 :HNGS Thorium/Uranium Ratio {F13.4}
HURA .PPM                                              :HNGS Formation Uranium Concentration {F13.4}
ICV  .F3                                               :Integrated Cement Volume {F13.4}
IHV  .F3                                               :Integrated Hole Volume {F13.4}
PEFZ .                                                 :HRDD Standard Resolution Formation Photoelectric Factor {F13.4}
RHOZ .G/C3                                             :HRDD Standard Resolution Formation Density {F13.4}
RLA1 .OHMM                                             :HRLT Borehole Corrected Resistivity 1 {F13.4}
RLA2 .OHMM                                             :HRLT Borehole Corrected Resistivity 2 {F13.4}
RLA3 .OHMM                                             :HRLT Borehole Corrected Resistivity 3 {F13.4}
RLA4 .OHMM                                             :HRLT Borehole Corrected Resistivity 4 {F13.4}
RLA5 .OHMM                                             :HRLT Borehole Corrected Resistivity 5 {F13.4}
RXOZ .OHMM                                             :MCFL Standard Resolution Invaded Zone Resistivity {F13.4}
SP   .MV                                               :SP Shifted {F13.4}
TENS .LBF                                              :Cable Tension {F13.4}
TNPH .CFCF                                             :Thermal Neutron Porosity {F13.4}
#-----------------------------------------------------------------------------
# DEPT       
#     BS           CDF          DF           GR_EDTC      HBHK         HCAL         
#     HCGR         HDRA         HFK          HMIN         HMNO         HSGR         
#     HTHO         HTPR         HTUR         HURA         ICV          IHV          
#     PEFZ         RHOZ         RLA1         RLA2         RLA3         RLA4         
#     RLA5         RXOZ         SP           TENS         TNPH         
~A  
# ...
4552.5
     12.2500    1020.2850    1020.2850     104.6161       0.0123      12.5237
     68.7920      -0.0040       0.0220       1.4550       1.3350     101.4370
      9.1807       4.1738       2.0918       4.3889     251.2398     594.3089
      1.9979       2.1519       2.2094       2.9303       3.2563       3.2818
      3.5617       2.0118      -9.8750    2917.0000       0.3646
4552.0
     12.2500    1056.7238    1056.7238     117.6651       0.0123      12.4284
     72.4553      -0.0037       0.0225       1.1150       1.0916     109.0807
     10.0885       4.4934       2.1428       4.7080     251.4084     594.7301
      2.0293       2.1366       2.1557       2.7947       3.0620       3.0816
      3.3282       2.1146      -9.6875    3017.0000       0.3890
4551.5
     12.2500    1007.8425    1007.8425     135.5215       0.0123      12.4522
     92.4430      -0.0024       0.0281       1.7007       1.5381     135.8536
     13.1930       4.6956       2.3762       5.5523     251.5786     595.1530
      2.1490       2.1444       2.1406       2.7676       3.0505       3.0702
      3.3201       2.2024     -11.0000    2969.0000       0.4258
4551.0
     12.2500     995.4000     995.4000     156.2416       0.0123      12.3689
    105.0298      -0.0004       0.0320       1.6851       1.5040     161.7628
     14.9518       4.6745       2.0798       7.1890     251.7432     595.5701
      2.2772       2.1774       1.9766       2.4862       2.6712       2.6808
      2.8879       2.5254     -12.1250    2952.0000       0.4280
4550.5
     12.2500     995.4000     995.4000     157.0730       0.0123      12.4046
    112.9990      -0.0000       0.0345       1.9294       1.7199     169.8064
     16.0591       4.6603       2.2196       7.2352     251.9102     595.9897
      2.3533       2.2073       2.0178       2.4968       2.7184       2.7381
      2.9236       2.8184     -13.3750    3018.0000       0.4147
4550.0
     12.2500    1007.8425    1007.8425     150.1191       0.0123      12.4284
    106.5725      -0.0003       0.0327       2.2214       2.0464     159.4911
     15.0491       4.6072       2.2635       6.6485     252.0788     596.4109
      2.3424       2.2185       2.3714       3.1693       3.5243       3.5833
      3.8047       3.2245     -12.0625    2992.0000       0.3949
4549.5
     12.2500    1007.8425    1007.8425     138.6432       0.0123      12.5475
    100.9497       0.0000       0.0301       1.6120       1.5917     145.2690
     14.7747       4.9161       2.6556       5.5635     252.2555     596.8403
      2.2923       2.2163       2.4269       3.2119       3.5666       3.6300
      3.8118       3.2265     -13.0625    2989.0000       0.3920
4549.0
     12.2500    1007.8425    1007.8425     137.5430       0.0123      12.5793
     99.5743       0.0001       0.0296       1.9603       1.8400     141.7840
     14.6263       4.9490       2.8029       5.2183     252.4344     597.2718
      2.2608       2.2123       2.5660       3.5045       3.9348       4.0317
      4.2020       3.1457     -12.0625    2972.0000       0.3722
4548.5
     12.2500    1007.8425    1007.8425     142.2638       0.0123      12.4880
     97.3950      -0.0005       0.0294       2.1696       1.9746     142.1378
     14.0375       4.7802       2.5595       5.4844     252.6070     597.6971
      2.2693       2.2127       2.5266       3.5045       4.0051       4.1096
      4.2631       3.2047     -12.2500    2973.0000       0.3619
4548.0
     12.2500     995.4000     995.4000     140.0253       0.0123      12.4284
    100.7073      -0.0009       0.0311       1.9198       1.8520     146.9688
     14.1075       4.5419       2.5471       5.5387     252.7756     598.1183
      2.3028       2.2183       2.4161       3.4253       3.9669       4.1081
      4.2128       3.5100     -12.1250    2955.0000       0.3442
4547.5
     12.2500    1020.2850    1020.2850     138.0194       0.0123      12.4403
    104.4791      -0.0004       0.0336       2.7015       2.4891     150.3074
     13.8348       4.1184       2.5618       5.4005     252.9450     598.5403
      2.3352       2.2286       2.4735       3.5265       4.1258       4.2731
      4.3417       3.7984     -13.9375    2950.0000       0.3423
4547.0
     12.2500    1007.8425    1007.8425     136.7637       0.0123      12.4284
    107.2965      -0.0003       0.0343       2.5449       2.3359     153.0378
     14.3326       4.1804       2.6437       5.4214     253.1136     598.9615
      2.3674       2.2350       2.4906       3.5197       4.1230       4.2590
      4.2917       3.6732     -13.6875    2987.0000       0.3494
4546.5
     12.2500     995.4000     995.4000     138.4482       0.0123      12.3808
    106.0612      -0.0012       0.0338       2.0714       1.9399     150.3985
     14.2031       4.1984       2.6872       5.2855     253.2790     599.3796
      2.4075       2.2299       2.3913       3.3316       3.8720       3.9525
      3.9693       3.4059     -13.8125    2964.0000       0.3897
4546.0
     12.2500    1007.8425    1007.8425     137.8136       0.0123      12.4364
    100.1069      -0.0007       0.0326       1.9666       1.8344     147.5600
     12.9934       3.9814       2.3025       5.6431     253.4481     599.8013
      2.3979       2.2244       2.3487       3.3236       3.8260       3.8596
      3.8810       3.0211     -12.0625    2922.0000       0.3949
4545.5
     12.2500    1007.8425    1007.8425     125.9496       0.0123      12.5118
     99.3964      -0.0005       0.0325       1.3764       1.3679     143.6979
     12.8692       3.9649       2.4822       5.1846     253.6224     600.2282
      2.3748       2.2139       2.2831       3.2712       3.7335       3.7471
      3.7597       2.7229     -12.3750    2984.0000       0.3958
4545.0
     12.2500    1007.8425    1007.8425     126.6097       0.0123      12.5713
     95.4627      -0.0015       0.0309       1.9500       1.7507     144.8264
     12.5275       4.0559       2.1903       5.7196     253.8007     600.6592
      2.3440       2.2060       2.2540       3.2268       3.6441       3.6550
      3.6550       2.7810     -11.7500    3009.0000       0.3768
4544.5
     12.2500    1007.8425    1007.8425     130.7349       0.0123      12.4840
    100.8876      -0.0022       0.0325       2.2833       2.0638     154.3526
     13.2955       4.0851       2.1536       6.1735     253.9731     601.0842
      2.3354       2.2086       2.4203       3.5767       4.0498       4.0452
      4.0751       3.0104     -13.2500    2934.0000       0.3814
4544.0
     12.2500     995.4000     995.4000     143.4699       0.0123      12.4522
    105.2246       0.0003       0.0350       2.0046       1.9099     165.3658
     13.2555       3.7884       1.9069       6.9513     254.1433     601.5070
      2.3230       2.2269       2.3934       3.5128       3.9913       3.9718
      4.0113       2.5418     -12.1250    2934.0000       0.3544
4543.5
     12.2500     995.4000     995.4000     144.7556       0.0123      12.5475
    107.5650       0.0042       0.0368       0.8136       0.9046     169.9345
     12.9205       3.5067       1.7819       7.2510     254.3200     601.9363
      2.3050       2.2449       2.3195       3.2951       3.7091       3.6630
      3.7116       2.4954     -10.3750    2968.0000       0.3744
4543.0
     12.2500     995.4000     995.4000     148.9922       0.0123      12.4999
    105.0354       0.0079       0.0354       1.8218       1.6755     160.8073
     12.9269       3.6467       2.0108       6.4289     254.4935     602.3624
      2.3523       2.2594       2.4213       3.5542       4.0518       4.0343
      4.1167       2.4576     -10.0625    2973.0000       0.3637
4542.5
     12.2500     995.4000     995.4000     132.5418       0.0123      12.4284
     93.8287       0.0337       0.0319       0.9845       1.1978     145.3805
     11.3849       3.5640       1.8936       6.0122     254.6620     602.7836
      2.4857       2.3157       2.5475       3.8520       4.4074       4.4099
      4.5087       4.4298     -10.8750    2918.0000       0.3510
