~VERSION INFORMATION
VERS.           2.0   :CWLS Log ASCII Standard - VERSION 2.0
WRAP.           NO    :One Line per depth step
PROD.  Schlumberger   :LAS Producer
PROG.  DLIS to ASCII 19C0-187                          :LAS Program name and version
CREA.        2011/01/03 01:40                          :LAS Creation date {YYYY/MM/DD hh:mm}
DLIS_CREA.  2011-Jan-02 17:53                          :DLIS Creation date and time {YYYY-MMM-DD hh:mm}
SOURCE.     BC0W-00120_VENOCO_HAMES_VALLEY_HAMES_VALLEY_1-35_FMI_DSST_MAIN.DLIS  :DLIS File Name
FILE-ID.     FMI_CAL_DSI_028PUP                        :File Identification Number
#--------------------------------------------------
~WELL INFORMATION
#MNEM.UNIT      DATA             DESCRIPTION
#---- ------ --------------   -----------------------------
STRT .F         5241.0       :START DEPTH     
STOP .F         1500.5       :STOP DEPTH     
STEP .F           -0.5       :STEP     
NULL .          -999.25      :NULL VALUE
COMP .        VENOCO, INC.                             :COMPANY
WELL .        HAMES VALLEY 1-35                        :WELL
FLD  .        HAMES VALLEY                             :FIELD
LOC  .        LAT: 35.889467                           :LOCATION
CNTY .        MONTEREY                                 :COUNTY
STAT .        CALIFORNIA                               :STATE
CTRY .                                                 :COUNTRY
API  .        040532205900                             :API NUMBER
UWI  .        040532205900                             :UNIQUE WELL ID
DATE .        02-Jan-2011                              :LOG DATE {DD-MMM-YYYY}
SRVC .        Schlumberger                             :SERVICE COMPANY
LATI .DEG                                              :LATITUDE
LONG .DEG                                              :LONGITUDE
GDAT .                                                 :GeoDetic Datum
SECT .        35                                       :Section
RANG .        10E                                      :Range
TOWN .        23S                                      :Township
#-----------------------------------------------------------------------------
~PARAMETER INFORMATION
#MNEM.UNIT    VALUE                      DESCRIPTION
#---- -----   --------------------       ------------------------
RUN  .          ONE                      :RUN NUMBER
PDAT .        GROUND LEVEL               :Permanent Datum
EPD  .F         1002.000000              :Elevation of Permanent Datum above Mean Sea Level
LMF  .          KELLY BUSHING            :Logging Measured From (Name of Logging Elevation Reference)
APD  .F          23.000000               :Elevation of Depth Reference (LMF) above Permanent Datum
#-----------------------------------------------------------------------------
~CURVE INFORMATION
#MNEM.UNIT   API CODE                                  DESCRIPTION
#---- -----  --------                                  -----------------------
DEPT .F                                                :DEPTH (BOREHOLE) {F10.1}
BS   .IN                                               :Bit Size {F13.4}
CDF  .LBF                                              :Calibrated Downhole Force {F13.4}
DF   .LBF                                              :Uncalibrated Downhole Force {F13.4}
DTCO .US/F                                             :Delta-T Compressional {F13.4}
DTSM .US/F                                             :Delta-T Shear {F13.4}
GR_EDTC.GAPI                                           :EDTC Gamma Ray {F13.4}
HD1_PPC1.IN                                            :PPC1 Hole Diameter 1 {F13.4}
HD1_PPC2.IN                                            :PPC2 Hole Diameter 1 {F13.4}
HD2_PPC1.IN                                            :PPC1 Hole Diameter 2 {F13.4}
HD2_PPC2.IN                                            :PPC2 Hole Diameter 2 {F13.4}
ICV  .F3                                               :Integrated Cement Volume {F13.4}
IHV  .F3                                               :Integrated Hole Volume {F13.4}
ITT  .S                                                :Integrated Transit Time {F13.4}
SPHI .CFCF                                             :Sonic Porosity {F13.4}
TENS .LBF                                              :Cable Tension {F13.4}
#-----------------------------------------------------------------------------
# 
#     DEPT        BS           CDF          DF           DTCO         DTSM       GR_EDTC      HD1_PPC1     HD1_PPC2     HD2_PPC1     HD2_PPC2       ICV          IHV          ITT          SPHI         TENS
#
~A  
# ...
    4987.5      12.2500    1238.9175    1238.9175     106.5743    -999.2500      91.9059      12.8310      12.8598      12.5007      12.7673      36.7520     160.0345       0.0249       0.2966    3530.0000
    4987.0      12.2500    1262.9138    1262.9138     108.0917    -999.2500      88.7480      12.8657      12.8923      12.4767      12.7673      36.9372     160.4723       0.0249       0.3012    3601.0000
    4986.5      12.2500    1287.7988    1287.7988     108.0930    -999.2500      94.3582      12.8657      12.8707      12.5249      12.7793      37.1241     160.9118       0.0250       0.3012    3694.0000
    4986.0      12.2500    1190.0363    1190.0363     108.1824    -999.2500      91.2521      12.9468      12.9138      12.6701      12.8386      37.3189     161.3592       0.0250       0.3015    3451.0000
    4985.5      12.2500    1190.0363    1190.0363     108.4492    -999.2500      91.1313      12.9815      13.0101      12.5980      12.9451      37.5124     161.8053       0.0251       0.3023    3291.0000
    4985.0      12.2500    1226.4750    1226.4750     108.5540    -999.2500      93.9160      12.9815      13.0101      12.6219      12.9331      37.7067     162.2522       0.0251       0.3026    3459.0000
    4984.5      12.2500    1251.3600    1251.3600     108.3290    -999.2500      89.8232      12.9288      13.0185      12.6340      12.9209      37.8996     162.6978       0.0252       0.3019    3540.0000
    4984.0      12.2500    1202.4788    1202.4788     108.1619    -999.2500      85.9461      13.0550      13.0956      12.7186      12.9451      38.0999     163.1507       0.0253       0.3014    3429.0000
    4983.5      12.2500    1251.3600    1251.3600     108.0192    -999.2500      80.3619      12.9573      12.9998      12.7183      13.0745      38.2968     163.6003       0.0253       0.3010    3527.0000
    4983.0      12.2500    1262.9138    1262.9138     108.2724    -999.2500      83.3480      12.9497      13.0076      12.7186      13.0626      38.4935     164.0496       0.0254       0.3017    3653.0000
    4982.5      12.2500    1226.4750    1226.4750     108.4916    -999.2500      85.6661      12.8415      13.0013      12.6701      13.0869      38.6847     164.4934       0.0254       0.3024    3615.0000
    4982.0      12.2500    1214.9213    1214.9213     108.3681    -999.2500      87.4533      12.7492      12.8592      12.5735      12.9803      38.8693     164.9306       0.0255       0.3020    3448.0000
    4981.5      12.2500    1262.9138    1262.9138     107.7174    -999.2500      85.9482      12.7282      12.8141      12.6219      12.9796      39.0548     165.3688       0.0255       0.3001    3484.0000
    4981.0      12.2500    1262.9138    1262.9138     104.8670    -999.2500      80.8986      12.7781      12.8181      12.6821      12.9569      39.2443     165.8109       0.0256       0.2912    3585.0000
    4980.5      12.2500    1214.9213    1214.9213     104.1500    -999.2500      74.9948      12.7810      12.8055      12.6461      12.9331      39.4325     166.2517       0.0256       0.2889    3423.0000
    4980.0      12.2500    1202.4788    1202.4788      98.7354    -999.2500      73.4766      12.7676      12.8055      12.6942      12.9803      39.6220     166.6938       0.0257       0.2705    3358.0000
    4979.5      12.2500    1238.9175    1238.9175      95.7983    -999.2500      67.7014      12.7492      12.7427      12.4280      12.7565      39.8015     167.1260       0.0257       0.2596    3527.0000
    4979.0      12.2500    1251.3600    1251.3600      93.5353    -999.2500      68.6342      12.8339      12.8161      12.5015      12.7793      39.9865     167.5636       0.0258       0.2508    3613.0000
    4978.5      12.2500    1214.9213    1214.9213      94.0368    -999.2500      68.8579      12.7385      12.7929      12.7310      12.7793      40.1764     168.0061       0.0258       0.2528    3439.0000
    4978.0      12.2500    1226.4750    1226.4750      95.9783    -999.2500      83.9608      12.7373      12.7747      12.6949      12.8989      40.3649     168.4473       0.0259       0.2603    3486.0000
    4977.5      12.2500    1262.9138    1262.9138     101.9574    -999.2500      86.2997      12.7705      12.7733      12.4527      12.7677      40.5460     168.8810       0.0259       0.2817    3590.0000
    4977.0      12.2500    1251.3600    1251.3600     104.4944    -999.2500      89.1045      12.7810      12.7730      12.4527      12.7560      40.7274     169.3151       0.0260       0.2901    3598.0000
    4976.5      12.2500    1226.4750    1226.4750     107.9275    -999.2500      84.7994      12.7810      12.8055      12.4649      12.7793      40.9093     169.7496       0.0260       0.3007    3457.0000
    4976.0      12.2500    1226.4750    1226.4750     108.4000    -999.2500      84.8858      12.8654      12.7646      12.5377      12.8979      41.0967     170.1896       0.0261       0.3021    3408.0000
    4975.5      12.2500    1262.9138    1262.9138     108.5753    -999.2500      87.4934      12.7494      12.7624      12.5860      12.9331      41.2817     170.6273       0.0261       0.3026    3507.0000
    4975.0      12.2500    1226.4750    1226.4750     108.3011    -999.2500      91.9850      12.7253      12.7624      12.5253      12.9567      41.4638     171.0620       0.0262       0.3018    3456.0000
    4974.5      12.2500    1251.3600    1251.3600     107.3545    -999.2500      98.7603      12.7282      12.7408      12.5131      12.9095      41.6456     171.4964       0.0262       0.2990    3492.0000
    4974.0      12.2500    1251.3600    1251.3600     106.9554    -999.2500      97.6405      12.7571      12.7945      12.4158      12.7319      41.8249     171.9284       0.0263       0.2978    3631.0000
    4973.5      12.2500    1238.9175    1238.9175     107.0264    -999.2500      95.4018      12.7705      12.7945      12.5013      12.7435      42.0078     172.3638       0.0264       0.2980    3535.0000
    4973.0      12.2500    1251.3600    1251.3600     106.5857    -999.2500      93.6778      12.7782      12.7949      12.4768      12.7440      42.1900     172.7986       0.0264       0.2966    3484.0000
    4972.5      12.2500    1275.3563    1275.3563     106.8452    -999.2500     100.1938      12.8023      12.7842      12.4284      12.8150      42.3713     173.2326       0.0265       0.2974    3637.0000
    4972.0      12.2500    1238.9175    1238.9175     107.4953    -999.2500     105.8711      12.8096      12.7733      12.3916      12.8859      42.5516     173.6655       0.0265       0.2994    3468.0000
    4971.5      12.2500    1251.3600    1251.3600     108.5995    -999.2500     104.7513      12.7282      12.7842      12.4767      12.8859      42.7320     174.0986       0.0266       0.3027    3506.0000
    4971.0      12.2500    1287.7988    1287.7988     108.7042    -999.2500      96.9160      12.7358      12.7517      12.4647      12.8979      42.9124     174.5316       0.0266       0.3030    3599.0000
    4970.5      12.2500    1251.3600    1251.3600     108.7625    -999.2500      94.6251      12.7466      12.7076      12.7284      13.2386      43.1022     174.9740       0.0267       0.3032    3603.0000
    4970.0      12.2500    1214.9213    1214.9213     107.1350    -999.2500      94.8117      12.7390      12.6969      12.8486      13.3680      43.2960     175.4205       0.0267       0.2983    3451.0000
    4969.5      12.2500    1275.3563    1275.3563     106.4590    -999.2500      97.2369      12.7151      12.6973      12.7044      13.3561      43.4840     175.8610       0.0268       0.2962    3553.0000
    4969.0      12.2500    1251.3600    1251.3600     102.8793    -999.2500      94.5935      12.7498      12.7502      12.6566      12.9447      43.6715     176.3012       0.0268       0.2848    3679.0000
    4968.5      12.2500    1226.4750    1226.4750     102.6435    -999.2500      91.4352      12.9394      12.7833      12.8496      12.9811      43.8723     176.7547       0.0269       0.2840    3572.0000
