~VERSION INFORMATION
VERS.           2.0   :CWLS Log ASCII Standard - VERSION 2.0
WRAP.           YES   :Multiple lines per depth step
PROD.  Schlumberger   :LAS Producer
PROG.  DLIS to ASCII 19C0-187                          :LAS Program name and version
CREA.        2011/01/03 01:37                          :LAS Creation date {YYYY/MM/DD hh:mm}
DLIS_CREA.  2011-Jan-03 01:12                          :DLIS Creation date and time {YYYY-MMM-DD hh:mm}
SOURCE.     BC0W-00120_VENOCO_HAMES_VALLEY_1-35_FPEX_HRLA_HNGS_068PUP.DLIS  :DLIS File Name
FILE-ID.     TLD_MCFL_CNL_NGS_068PUP                   :File Identification Number
#--------------------------------------------------
~WELL INFORMATION
#MNEM.UNIT      DATA             DESCRIPTION
#---- ------ --------------   -----------------------------
STRT .F         5235.0       :START DEPTH     
STOP .F           78.5       :STOP DEPTH     
STEP .F           -0.5       :STEP     
NULL .          -999.25      :NULL VALUE
COMP .        VENOCO, INC.                             :COMPANY
WELL .        HAMES VALLEY 1-35                        :WELL
FLD  .        HAMES VALLEY                             :FIELD
LOC  .        LAT: 35.889467                           :LOCATION
CNTY .        MONTEREY                                 :COUNTY
STAT .        CALIFORNIA                               :STATE
CTRY .                                                 :COUNTRY
API  .        040532205900                             :API NUMBER
UWI  .        040532205900                             :UNIQUE WELL ID
DATE .        02-Jan-2011                              :LOG DATE {DD-MMM-YYYY}
SRVC .        Schlumberger                             :SERVICE COMPANY
LATI .DEG                                              :LATITUDE
LONG .DEG                                              :LONGITUDE
GDAT .                                                 :GeoDetic Datum
SECT .        35                                       :Section
RANG .        10E                                      :Range
TOWN .        23S                                      :Township
#-----------------------------------------------------------------------------
~PARAMETER INFORMATION
#MNEM.UNIT    VALUE                      DESCRIPTION
#---- -----   --------------------       ------------------------
RUN  .          ONE                      :RUN NUMBER
PDAT .        GROUND LEVEL               :Permanent Datum
EPD  .F         1002.000000              :Elevation of Permanent Datum above Mean Sea Level
LMF  .          KELLY BUSHING            :Logging Measured From (Name of Logging Elevation Reference)
APD  .F          23.000000               :Elevation of Depth Reference (LMF) above Permanent Datum
#-----------------------------------------------------------------------------
~CURVE INFORMATION
#MNEM.UNIT   API CODE                                  DESCRIPTION
#---- -----  --------                                  -----------------------
DEPT .F                                                :DEPTH (BOREHOLE) {F10.1}
BS   .IN                                               :Bit Size {F13.4}
CDF  .LBF                                              :Calibrated Downhole Force {F13.4}
DF   .LBF                                              :Uncalibrated Downhole Force {F13.4}
GR   .GAPI                                             :Gamma Ray {F13.4}
HBHK .CFCF                                             :HNGS Borehole Potassium Concentration {F13.4}
HCAL .IN                                               :HRCC Cal. Caliper {F13.4}
HCGR .GAPI                                             :HNGS Computed Gamma Ray {F13.4}
HDRA .G/C3                                             :HRDD Density Correction {F13.4}
HFK  .CFCF                                             :HNGS Formation Potassium Concentration {F13.4}
HMIN .OHMM                                             :MCFL Micro Inverse Resistivity {F13.4}
HMNO .OHMM                                             :MCFL Micro Normal Resistivity {F13.4}
HSGR .GAPI                                             :HNGS Standard Gamma Ray {F13.4}
HTHO .PPM                                              :HNGS Formation Thorium Concentration {F13.4}
HTPR .                                                 :HNGS Thorium/Potassium Ratio {F13.4}
HTUR .                                                 :HNGS Thorium/Uranium Ratio {F13.4}
HURA .PPM                                              :HNGS Formation Uranium Concentration {F13.4}
ICV  .F3                                               :Integrated Cement Volume {F13.4}
IHV  .F3                                               :Integrated Hole Volume {F13.4}
PEFZ .                                                 :HRDD Standard Resolution Formation Photoelectric Factor {F13.4}
RHOZ .G/C3                                             :HRDD Standard Resolution Formation Density {F13.4}
RLA1 .OHMM                                             :HRLT Borehole Corrected Resistivity 1 {F13.4}
RLA2 .OHMM                                             :HRLT Borehole Corrected Resistivity 2 {F13.4}
RLA3 .OHMM                                             :HRLT Borehole Corrected Resistivity 3 {F13.4}
RLA4 .OHMM                                             :HRLT Borehole Corrected Resistivity 4 {F13.4}
RLA5 .OHMM                                             :HRLT Borehole Corrected Resistivity 5 {F13.4}
RXOZ .OHMM                                             :MCFL Standard Resolution Invaded Zone Resistivity {F13.4}
SP   .MV                                               :SP Shifted {F13.4}
TENS .LBF                                              :Cable Tension {F13.4}
TNPH .CFCF                                             :Thermal Neutron Porosity {F13.4}
#-----------------------------------------------------------------------------
# DEPT       
#     BS           CDF          DF           GR_EDTC      HBHK         HCAL         
#     HCGR         HDRA         HFK          HMIN         HMNO         HSGR         
#     HTHO         HTPR         HTUR         HURA         ICV          IHV          
#     PEFZ         RHOZ         RLA1         RLA2         RLA3         RLA4         
#     RLA5         RXOZ         SP           TENS         TNPH         
~A  
# ...
772.5
     17.5000     947.4075     947.4075      55.3725       0.0074       3.3534
     57.6377       0.1283       0.0241       0.0621       0.0455      67.3198
      4.3668       1.8104       3.2384       1.3484    1430.7537    3304.0020
      4.5677       1.8169       0.0267       0.0220       0.0201       0.0187
      0.0229       0.0504      -6.7500    1690.0000       0.8286
772.0
     17.5000     947.4075     947.4075      56.2852       0.0074       3.3296
     55.5339       0.1296       0.0232       0.0636       0.0459      64.6695
      4.2125       1.8132       3.4309       1.2278    1430.7537    3304.0020
      4.5623       1.8162       0.0276       0.0227       0.0207       0.0193
      0.0235       0.0504      -6.6250    1720.0000       0.5969
771.5
     17.5000     947.4075     947.4075      57.0553       0.0074       3.3534
     52.4673       0.1274       0.0225       0.0640       0.0463      62.4715
      3.6351       1.6129       3.0753       1.1820    1430.7537    3304.0020
      4.5321       1.8124       0.0242       0.0201       0.0184       0.0173
      0.0222       0.0507      -7.6250    1718.0000       0.5544
771.0
     17.5000     958.9612     958.9612      52.4344       0.0074       3.3534
     55.7303       0.1261       0.0230       0.0647       0.0468      61.4421
      4.3949       1.9085       7.8582       0.5593    1430.7537    3304.0020
      4.4985       1.8097       0.0259       0.0216       0.0196       0.0184
      0.0231       0.0513      -7.6250    1724.0000       0.5978
770.5
     17.5000     947.4075     947.4075      48.0066       0.0074       3.3534
     58.6473       0.1291       0.0243       0.0624       0.0459      65.2649
      4.5796       1.8837       6.8521       0.6683    1430.7537    3304.0020
      4.4736       1.8109       0.0300       0.0246       0.0223       0.0208
      0.0248       0.0511      -6.6875    1685.0000       0.6233
770.0
     17.5000     947.4075     947.4075      44.1558       0.0074       3.3296
     64.1433       0.1337       0.0270       0.0622       0.0457      67.9148
      4.7835       1.7734       9.5671       0.2940    1430.7537    3304.0020
      4.4629       1.8141       0.0290       0.0238       0.0216       0.0201
      0.0244       0.0511      -6.4375    1693.0000       0.7226
769.5
     17.5000     934.9650     934.9650      46.1870       0.0074       3.3296
     62.2374       0.1395       0.0272       0.0642       0.0469      66.3279
      4.0676       1.4980       8.1353       0.2814    1430.7537    3304.0020
      4.4741       1.8175       0.0234       0.0195       0.0178       0.0167
      0.0214       0.0516      -6.0625    1722.0000       0.6302
769.0
     17.5000     958.9612     958.9612      52.4436       0.0074       3.3534
     59.5098       0.1456       0.0261       0.0649       0.0477      66.0040
      3.7863       1.4485       5.0964       0.7429    1430.7537    3304.0020
      4.4985       1.8221       0.0251       0.0207       0.0189       0.0176
      0.0221       0.0522      -4.9375    1652.0000       0.8818
768.5
     17.5000     947.4075     947.4075      52.9474       0.0074       3.3534
     58.1781       0.1501       0.0251       0.0651       0.0474      65.4246
      3.9434       1.5685       5.2722       0.7480    1430.7537    3304.0020
      4.5304       1.8253       0.0277       0.0227       0.0208       0.0194
      0.0238       0.0526      -5.1250    1644.0000       0.8825
768.0
     17.5000     947.4075     947.4075      45.9101       0.0074       3.3534
     57.3704       0.1490       0.0249       0.0644       0.0472      65.8652
      3.8026       1.5248       3.9779       0.9559    1430.7537    3304.0020
      4.5289       1.8287       0.0237       0.0198       0.0182       0.0169
      0.0218       0.0524      -5.1250    1713.0000       1.1004
767.5
     17.5000     947.4075     947.4075      43.2477       0.0074       3.3534
     56.4784       0.1452       0.0237       0.0653       0.0475      63.3571
      4.2552       1.7972       5.0158       0.8483    1430.7537    3304.0020
      4.5062       1.8326       0.0235       0.0192       0.0177       0.0165
      0.0211       0.0523      -4.9375    1564.0000       0.7692
767.0
     17.5000     958.9612     958.9612      44.6693       0.0074       3.3534
     58.0140       0.1452       0.0247       0.0630       0.0464      64.3233
      4.1732       1.6924       5.7039       0.7316    1430.7537    3304.0020
      4.4979       1.8371       0.0261       0.0214       0.0194       0.0180
      0.0216       0.0517      -4.8125    1703.0000       0.6524
766.5
     17.5000     934.9650     934.9650      47.6709       0.0074       3.3534
     62.6368       0.1469       0.0265       0.0630       0.0462      68.7515
      4.5756       1.7264       6.4818       0.7059    1430.7537    3304.0020
      4.5149       1.8376       0.0278       0.0226       0.0204       0.0189
      0.0221       0.0516      -4.6250    1721.0000       0.5606
766.0
     17.5000     958.9612     958.9612      49.9814       0.0074       3.3534
     63.5848       0.1477       0.0265       0.0664       0.0477      69.6357
      4.8956       1.8490       6.3785       0.7675    1430.7537    3304.0020
      4.5487       1.8362       0.0252       0.0207       0.0187       0.0174
      0.0213       0.0520      -4.6250    1729.0000       0.4710
765.5
     17.5000     958.9612     958.9612      49.8808       0.0074       3.3534
     56.1159       0.1478       0.0250       0.0665       0.0479      65.7009
      3.3664       1.3467       2.6373       1.2764    1430.7537    3304.0020
      4.5697       1.8372       0.0253       0.0206       0.0187       0.0174
      0.0216       0.0520      -4.4375    1708.0000       0.5116
765.0
     17.5000     947.4075     947.4075      53.0405       0.0074       3.3296
     56.8353       0.1480       0.0243       0.0629       0.0462      64.7016
      3.9863       1.6383       3.7486       1.0634    1430.7537    3304.0020
      4.5922       1.8383       0.0283       0.0229       0.0208       0.0194
      0.0239       0.0517      -4.9375    1702.0000       0.4244
764.5
     17.5000     934.9650     934.9650      49.8023       0.0074       3.3296
     57.2697       0.1462       0.0244       0.0617       0.0456      64.8999
      4.0649       1.6635       3.9751       1.0226    1430.7537    3304.0020
      4.6201       1.8366       0.0231       0.0191       0.0173       0.0161
      0.0206       0.0511      -4.8750    1718.0000       0.5870
764.0
     17.5000     958.9612     958.9612      44.5118       0.0074       3.3415
     56.5944       0.1420       0.0236       0.0625       0.0461      64.6847
      4.3148       1.8253       3.6296       1.1888    1430.7537    3304.0020
      4.6553       1.8359       0.0260       0.0215       0.0195       0.0182
      0.0229       0.0515      -4.8750    1710.0000       0.4430
763.5
     17.5000     934.9650     934.9650      44.8969       0.0074       3.3534
     54.5993       0.1346       0.0235       0.0634       0.0467      62.2319
      3.7851       1.6141       3.5898       1.0544    1430.7537    3304.0020
      4.6744       1.8393       0.0269       0.0222       0.0200       0.0187
      0.0230       0.0516      -5.1875    1668.0000       0.5785
763.0
     17.5000     947.4075     947.4075      43.6033       0.0074       3.3534
     53.9660       0.1355       0.0231       0.0638       0.0466      61.3092
      3.7594       1.6241       3.4370       1.0938    1430.7537    3304.0020
      4.7118       1.8510       0.0244       0.0203       0.0184       0.0172
      0.0218       0.0516      -5.9375    1695.0000       0.6469
762.5
     17.5000     947.4075     947.4075      45.8592       0.0074       3.3296
     56.2802       0.1372       0.0247       0.0601       0.0450      64.7176
      3.5655       1.4408       2.6918       1.3246    1430.7537    3304.0020
      4.7506       1.8561       0.0284       0.0231       0.0209       0.0195
      0.0236       0.0510      -6.4375    1725.0000       1.3202
