~VERSION INFORMATION
VERS.           2.0   :CWLS Log ASCII Standard - VERSION 2.0
WRAP.           NO    :One Line per depth step
PROD.  Schlumberger   :LAS Producer
PROG.  DLIS to ASCII 19C0-187                          :LAS Program name and version
CREA.        2011/01/03 01:40                          :LAS Creation date {YYYY/MM/DD hh:mm}
DLIS_CREA.  2011-Jan-02 17:53                          :DLIS Creation date and time {YYYY-MMM-DD hh:mm}
SOURCE.     BC0W-00120_VENOCO_HAMES_VALLEY_HAMES_VALLEY_1-35_FMI_DSST_MAIN.DLIS  :DLIS File Name
FILE-ID.     FMI_CAL_DSI_028PUP                        :File Identification Number
#--------------------------------------------------
~WELL INFORMATION
#MNEM.UNIT      DATA             DESCRIPTION
#---- ------ --------------   -----------------------------
STRT .F         5241.0       :START DEPTH     
STOP .F         1500.5       :STOP DEPTH     
STEP .F           -0.5       :STEP     
NULL .          -999.25      :NULL VALUE
COMP .        VENOCO, INC.                             :COMPANY
WELL .        HAMES VALLEY 1-35                        :WELL
FLD  .        HAMES VALLEY                             :FIELD
LOC  .        LAT: 35.889467                           :LOCATION
CNTY .        MONTEREY                                 :COUNTY
STAT .        CALIFORNIA                               :STATE
CTRY .                                                 :COUNTRY
API  .        040532205900                             :API NUMBER
UWI  .        040532205900                             :UNIQUE WELL ID
DATE .        02-Jan-2011                              :LOG DATE {DD-MMM-YYYY}
SRVC .        Schlumberger                             :SERVICE COMPANY
LATI .DEG                                              :LATITUDE
LONG .DEG                                              :LONGITUDE
GDAT .                                                 :GeoDetic Datum
SECT .        35                                       :Section
RANG .        10E                                      :Range
TOWN .        23S                                      :Township
#-----------------------------------------------------------------------------
~PARAMETER INFORMATION
#MNEM.UNIT    VALUE                      DESCRIPTION
#---- -----   --------------------       ------------------------
RUN  .          ONE                      :RUN NUMBER
PDAT .        GROUND LEVEL               :Permanent Datum
EPD  .F         1002.000000              :Elevation of Permanent Datum above Mean Sea Level
LMF  .          KELLY BUSHING            :Logging Measured From (Name of Logging Elevation Reference)
APD  .F          23.000000               :Elevation of Depth Reference (LMF) above Permanent Datum
#-----------------------------------------------------------------------------
~CURVE INFORMATION
#MNEM.UNIT   API CODE                                  DESCRIPTION
#---- -----  --------                                  -----------------------
DEPT .F                                                :DEPTH (BOREHOLE) {F10.1}
BS   .IN                                               :Bit Size {F13.4}
CDF  .LBF                                              :Calibrated Downhole Force {F13.4}
DF   .LBF                                              :Uncalibrated Downhole Force {F13.4}
DTCO .US/F                                             :Delta-T Compressional {F13.4}
DTSM .US/F                                             :Delta-T Shear {F13.4}
GR_EDTC.GAPI                                           :EDTC Gamma Ray {F13.4}
HD1_PPC1.IN                                            :PPC1 Hole Diameter 1 {F13.4}
HD1_PPC2.IN                                            :PPC2 Hole Diameter 1 {F13.4}
HD2_PPC1.IN                                            :PPC1 Hole Diameter 2 {F13.4}
HD2_PPC2.IN                                            :PPC2 Hole Diameter 2 {F13.4}
ICV  .F3                                               :Integrated Cement Volume {F13.4}
IHV  .F3                                               :Integrated Hole Volume {F13.4}
ITT  .S                                                :Integrated Transit Time {F13.4}
SPHI .CFCF                                             :Sonic Porosity {F13.4}
TENS .LBF                                              :Cable Tension {F13.4}
#-----------------------------------------------------------------------------
# 
#     DEPT        BS           CDF          DF           DTCO         DTSM       GR_EDTC      HD1_PPC1     HD1_PPC2     HD2_PPC1     HD2_PPC2       ICV          IHV          ITT          SPHI         TENS
#
~A  
# ...
    3993.0      12.2500    1141.1550    1141.1550      98.0907     178.4922     106.1562      12.8968      12.8913      12.6791      12.8843     427.3828    1053.1418       0.1318       0.2682    2917.0000
    3992.5      12.2500    1129.6013    1129.6013      96.4079     170.7858     104.0668      12.9571      12.9108      12.6073      12.8601     427.5757    1053.5874       0.1318       0.2620    2929.0000
    3992.0      12.2500    1117.1588    1117.1588      94.8699     173.9542     106.3936      12.9253      12.9883      12.6070      12.8963     427.7675    1054.0317       0.1319       0.2561    2892.0000
    3991.5      12.2500    1117.1588    1117.1588      95.0078     171.7409     113.7291      12.8832      12.9453      12.5711      12.8490     427.9565    1054.4734       0.1319       0.2566    2887.0000
    3991.0      12.2500    1141.1550    1141.1550      96.3962     170.4665     112.7082      12.9073      12.8592      12.5831      12.8129     428.1468    1054.9163       0.1320       0.2619    2962.0000
    3990.5      12.2500    1117.1588    1117.1588      96.2124     174.3608     116.2408      12.8517      12.8055      12.4747      12.7781     428.3314    1055.3535       0.1320       0.2612    2946.0000
    3990.0      12.2500    1117.1588    1117.1588      95.2929     173.4908     113.5627      12.8546      12.8377      12.5111      12.7897     428.5174    1055.7921       0.1321       0.2577    2883.0000
    3989.5      12.2500    1153.5975    1153.5975      98.3520     175.5561     115.2852      12.9359      12.9344      12.5589      12.8250     428.7078    1056.2352       0.1321       0.2691    2999.0000
    3989.0      12.2500    1129.6013    1129.6013     100.4557     166.0131     109.6011      12.8231      12.8483      12.4748      12.7776     428.8914    1056.6715       0.1322       0.2766    2944.0000
    3988.5      12.2500    1104.7163    1104.7163     104.1852     168.5350     107.6278      12.8938      12.9128      12.5351      12.8133     429.0796    1057.1123       0.1322       0.2891    2876.0000
    3988.0      12.2500    1129.6013    1129.6013     105.5867     168.5702     105.2707      12.9568      12.9777      12.5589      12.8486     429.2707    1057.5560       0.1323       0.2935    2942.0000
    3987.5      12.2500    1117.1588    1117.1588     103.0777     170.9947     102.4298      13.0412      13.1384      12.5589      12.8963     429.4648    1058.0027       0.1323       0.2855    2921.0000
    3987.0      12.2500    1141.1550    1141.1550     101.1282     170.5341     105.8480      13.0620      12.9449      12.6073      12.7897     429.6613    1058.4518       0.1324       0.2789    2904.0000
    3986.5      12.2500    1141.1550    1141.1550      96.4973     166.6932     102.2206      12.9780      13.0206      12.5470      12.7070     429.8527    1058.8959       0.1324       0.2623    2970.0000
    3986.0      12.2500    1129.6013    1129.6013      92.9696     162.3736      96.0294      12.9147      12.8913      12.4387      12.7307     430.0382    1059.3340       0.1325       0.2485    2937.0000
    3985.5      12.2500    1117.1588    1117.1588      92.3355     160.2003      89.3322      12.8337      12.8592      12.4751      12.7660     430.2222    1059.7706       0.1325       0.2459    2836.0000
    3985.0      12.2500    1129.6013    1129.6013      90.8756     163.9150      88.9725      12.8520      12.8592      12.4869      12.7186     430.4072    1060.2083       0.1326       0.2399    2915.0000
    3984.5      12.2500    1129.6013    1129.6013      95.1662     162.8981      92.0877      12.9361      12.8698      12.4143      12.7423     430.5926    1060.6462       0.1326       0.2572    2893.0000
    3984.0      12.2500    1153.5975    1153.5975      96.7686     167.7584      93.7083      12.9044      12.8807      12.4143      12.7066     430.7768    1061.0831       0.1326       0.2633    2925.0000
    3983.5      12.2500    1166.0400    1166.0400      99.3668     169.3898      90.7150      12.9074      12.9023      12.4143      12.6945     430.9612    1061.5201       0.1327       0.2728    3003.0000
    3983.0      12.2500    1166.0400    1166.0400     100.2617     172.6340      87.4467      12.8517      12.7949      12.4265      12.7897     431.1441    1061.9557       0.1327       0.2759    3022.0000
    3982.5      12.2500    1141.1550    1141.1550      98.2378     176.2095      83.6109      12.7782      12.8161      12.5592      12.7897     431.3292    1062.3934       0.1328       0.2687    2875.0000
    3982.0      12.2500    1153.5975    1153.5975      97.6827     175.2618      84.4234      12.8095      12.8055      12.4869      12.7540     431.5128    1062.8296       0.1328       0.2667    2957.0000
    3981.5      12.2500    1166.0400    1166.0400      98.3463     171.7327      82.0356      12.7882      12.8055      12.5232      12.7776     431.6969    1063.2664       0.1329       0.2691    3000.0000
    3981.0      12.2500    1166.0400    1166.0400      97.4325     168.3829      82.4582      12.9355      12.9453      12.5954      12.8490     431.8886    1063.7107       0.1329       0.2658    2950.0000
    3980.5      12.2500    1141.1550    1141.1550      98.8831     173.9996      79.2932      12.8725      12.8483      12.4509      12.7423     432.0730    1064.1478       0.1330       0.2710    2960.0000
    3980.0      12.2500    1141.1550    1141.1550      98.1665     171.5032      85.4479      12.8725      12.8907      12.5351      12.8013     432.2604    1064.5879       0.1330       0.2685    2999.0000
    3979.5      12.2500    1141.1550    1141.1550      99.5909     174.4746      90.1636      12.8515      12.8377      12.4750      12.7776     432.4450    1065.0251       0.1331       0.2736    2930.0000
    3979.0      12.2500    1141.1550    1141.1550     100.6179     174.8638      96.3025      13.1699      13.2559      12.7876      13.0618     432.6517    1065.4844       0.1331       0.2771    2945.0000
    3978.5      12.2500    1117.1588    1117.1588     100.2682     172.7285      95.5926      13.2818      13.3413      12.8472      13.0729     432.8644    1065.9497       0.1332       0.2759    2966.0000
    3978.0      12.2500    1153.5975    1153.5975     102.3381     170.5932     100.4625      13.2118      13.2776      12.7636      13.0385     433.0717    1066.4095       0.1332       0.2830    2971.0000
    3977.5      12.2500    1166.0400    1166.0400     106.8316     172.5849     110.3837      13.1036      13.1253      12.7635      13.0490     433.2751    1066.8656       0.1333       0.2974    3003.0000
    3977.0      12.2500    1153.5975    1153.5975     103.6014     171.0400     118.6274      13.3578      13.3525      12.7158      13.0142     433.4857    1067.3289       0.1333       0.2872    2987.0000
    3976.5      12.2500    1141.1550    1141.1550     103.0067     169.4951     118.1283      13.4380      13.3837      12.7395      13.0258     433.6999    1067.7957       0.1334       0.2852    2876.0000
    3976.0      12.2500    1129.6013    1129.6013     102.3946     167.4847     108.0089      13.4831      13.4056      12.9673      13.2493     433.9241    1068.2725       0.1335       0.2832    2941.0000
    3975.5      12.2500    1129.6013    1129.6013      98.6311     165.4743     104.4838      13.4794      13.4908      12.8714      13.2616     434.1446    1068.7456       0.1335       0.2701    2940.0000
    3975.0      12.2500    1141.1550    1141.1550      97.7677     166.8957      97.9330      13.4208      13.4698      12.8597      13.2616     434.3627    1069.2163       0.1335       0.2670    2960.0000
    3974.5      12.2500    1153.5975    1153.5975      92.7140     168.3172      97.1400      13.0196      12.9777      12.5351      12.8017     434.5551    1069.6614       0.1336       0.2475    2986.0000
    3974.0      12.2500    1129.6013    1129.6013      92.6317     167.5398      90.5539      12.8619      12.8592      12.4869      12.7423     434.7405    1070.0994       0.1336       0.2472    2927.0000
