~VERSION INFORMATION
VERS.           2.0   :CWLS Log ASCII Standard - VERSION 2.0
WRAP.           NO    :One Line per depth step
PROD.  Schlumberger   :LAS Producer
PROG.  DLIS to ASCII 19C0-187                          :LAS Program name and version
CREA.        2011/01/03 01:40                          :LAS Creation date {YYYY/MM/DD hh:mm}
DLIS_CREA.  2011-Jan-02 17:53                          :DLIS Creation date and time {YYYY-MMM-DD hh:mm}
SOURCE.     BC0W-00120_VENOCO_HAMES_VALLEY_HAMES_VALLEY_1-35_FMI_DSST_MAIN.DLIS  :DLIS File Name
FILE-ID.     FMI_CAL_DSI_028PUP                        :File Identification Number
#--------------------------------------------------
~WELL INFORMATION
#MNEM.UNIT      DATA             DESCRIPTION
#---- ------ --------------   -----------------------------
STRT .F         5241.0       :START DEPTH     
STOP .F         1500.5       :STOP DEPTH     
STEP .F           -0.5       :STEP     
NULL .          -999.25      :NULL VALUE
COMP .        VENOCO, INC.                             :COMPANY
WELL .        HAMES VALLEY 1-35                        :WELL
FLD  .        HAMES VALLEY                             :FIELD
LOC  .        LAT: 35.889467                           :LOCATION
CNTY .        MONTEREY                                 :COUNTY
STAT .        CALIFORNIA                               :STATE
CTRY .                                                 :COUNTRY
API  .        040532205900                             :API NUMBER
UWI  .        040532205900                             :UNIQUE WELL ID
DATE .        02-Jan-2011                              :LOG DATE {DD-MMM-YYYY}
SRVC .        Schlumberger                             :SERVICE COMPANY
LATI .DEG                                              :LATITUDE
LONG .DEG                                              :LONGITUDE
GDAT .                                                 :GeoDetic Datum
SECT .        35                                       :Section
RANG .        10E                                      :Range
TOWN .        23S                                      :Township
#-----------------------------------------------------------------------------
~PARAMETER INFORMATION
#MNEM.UNIT    VALUE                      DESCRIPTION
#---- -----   --------------------       ------------------------
RUN  .          ONE                      :RUN NUMBER
PDAT .        GROUND LEVEL               :Permanent Datum
EPD  .F         1002.000000              :Elevation of Permanent Datum above Mean Sea Level
LMF  .          KELLY BUSHING            :Logging Measured From (Name of Logging Elevation Reference)
APD  .F          23.000000               :Elevation of Depth Reference (LMF) above Permanent Datum
#-----------------------------------------------------------------------------
~CURVE INFORMATION
#MNEM.UNIT   API CODE                                  DESCRIPTION
#---- -----  --------                                  -----------------------
DEPT .F                                                :DEPTH (BOREHOLE) {F10.1}
BS   .IN                                               :Bit Size {F13.4}
CDF  .LBF                                              :Calibrated Downhole Force {F13.4}
DF   .LBF                                              :Uncalibrated Downhole Force {F13.4}
DTCO .US/F                                             :Delta-T Compressional {F13.4}
DTSM .US/F                                             :Delta-T Shear {F13.4}
GR_EDTC.GAPI                                           :EDTC Gamma Ray {F13.4}
HD1_PPC1.IN                                            :PPC1 Hole Diameter 1 {F13.4}
HD1_PPC2.IN                                            :PPC2 Hole Diameter 1 {F13.4}
HD2_PPC1.IN                                            :PPC1 Hole Diameter 2 {F13.4}
HD2_PPC2.IN                                            :PPC2 Hole Diameter 2 {F13.4}
ICV  .F3                                               :Integrated Cement Volume {F13.4}
IHV  .F3                                               :Integrated Hole Volume {F13.4}
ITT  .S                                                :Integrated Transit Time {F13.4}
SPHI .CFCF                                             :Sonic Porosity {F13.4}
TENS .LBF                                              :Cable Tension {F13.4}
#-----------------------------------------------------------------------------
# 
#     DEPT        BS           CDF          DF           DTCO         DTSM       GR_EDTC      HD1_PPC1     HD1_PPC2     HD2_PPC1     HD2_PPC2       ICV          IHV          ITT          SPHI         TENS
#
~A  
    5241.0      12.2500     157.3087     157.3087      99.6709     171.6879     104.2893       3.4507       3.1035       3.0651       3.2684       0.0000       0.0000       0.0000       0.2738    1690.0000
    5240.5      12.2500     145.7550     145.7550      99.6709     171.6879     104.2893       3.4507       3.1035       3.0651       3.2684       0.0000       0.0000       0.0001       0.2738    1716.0000
    5240.0      12.2500     182.1938     182.1938      99.6709     171.6879     104.2893       3.4507       3.1035       3.0651       3.2684       0.0000       0.0000       0.0001       0.2738    1703.0000
    5239.5      12.2500     133.3125     133.3125      99.6709     171.6879     104.2893       3.4507       3.1035       3.0651       3.2684       0.0000       0.0000       0.0002       0.2738    1707.0000
    5239.0      12.2500     169.7513     169.7513      99.6709     171.6879     104.2893       3.4507       3.1035       3.0651       3.2684       0.0000       0.0000       0.0002       0.2738    1709.0000
    5238.5      12.2500     169.7513     169.7513      99.6709     171.6879     104.2893       3.4507       3.1035       3.0651       3.2684       0.0000       0.0000       0.0003       0.2738    1822.0000
    5238.0      12.2500     145.7550     145.7550      99.6709     171.6879     104.2893       3.4507       3.1035       3.0651       3.2684       0.0000       0.0000       0.0003       0.2738    1947.0000
    5237.5      12.2500     255.0713     255.0713      99.6709     171.6879     104.2893       3.4507       3.1035       3.0651       3.2684       0.0000       0.0000       0.0004       0.2738    2066.0000
    5237.0      12.2500     230.1862     230.1862      99.6709     171.6879     104.2893       3.4507       3.1035       3.0651       3.2684       0.0000       0.0000       0.0004       0.2738    2182.0000
    5236.5      12.2500     327.9488     327.9488      99.6709     171.6879     104.2893       3.4507       3.1035       3.0651       3.2684       0.0000       0.0000       0.0005       0.2738    2280.0000
    5236.0      12.2500     339.5025     339.5025      99.6709     171.6879     104.2893       3.4507       3.1035       3.0651       3.2684       0.0000       0.0000       0.0005       0.2738    2392.0000
    5235.5      12.2500     485.2575     485.2575      99.6709     171.6879     104.2893       3.4507       3.1035       3.0651       3.2684       0.0000       0.0000       0.0006       0.2738    2470.0000
    5235.0      12.2500     461.2613     461.2613      99.6709     171.6879     104.2893       3.4507       3.1035       3.0651       3.2684       0.0000       0.0000       0.0006       0.2738    2548.0000
    5234.5      12.2500     534.1387     534.1387      99.6709     171.6879     104.2893       3.4507       3.1035       3.0651       3.2684       0.0000       0.0000       0.0007       0.2738    2682.0000
    5234.0      12.2500     594.5738     594.5738      99.6709     171.6879     104.2893       3.4507       3.1035       3.0651       3.2684       0.0000       0.0000       0.0007       0.2738    2766.0000
    5233.5      12.2500     667.4512     667.4512      99.6709     171.6879     104.2893       3.4507       3.1035       3.0651       3.2684       0.0000       0.0000       0.0008       0.2738    2896.0000
    5233.0      12.2500     716.3325     716.3325      99.6709     171.6879     104.2893       3.4507       3.1035       3.0651       3.2684       0.0000       0.0000       0.0008       0.2738    3033.0000
    5232.5      12.2500     752.7712     752.7712      99.6709     171.6879     104.2893       3.4507       3.1035       3.0651       3.2684       0.0000       0.0000       0.0009       0.2738    3147.0000
    5232.0      12.2500     813.2062     813.2062      99.6709     171.6879     104.2893       3.4507       3.1035       3.0651       3.2684       0.0000       0.0000       0.0009       0.2738    3255.0000
    5231.5      12.2500     849.6450     849.6450      99.6709     171.6879     104.2893       3.4507       3.1035       3.0651       3.2684       0.0000       0.0000       0.0010       0.2738    3337.0000
    5231.0      12.2500     910.9688     910.9688      99.6709     171.6879     104.2893       3.4507       3.1035       3.0651       3.2684      -0.2238       0.0289       0.0010       0.2738    3453.0000
    5230.5      12.2500     922.5225     922.5225      99.6709     171.6879     104.2893       3.4507       3.1035       3.0651       3.2684      -0.4475       0.0578       0.0011       0.2738    3593.0000
    5230.0      12.2500    1068.2775    1068.2775      99.6709     171.6879     104.2893       3.4507       3.1035       3.0651       3.2684      -0.6713       0.0866       0.0011       0.2738    3671.0000
    5229.5      12.2500    1068.2775    1068.2775      99.6709     171.6879     104.2893       3.4507       3.1035       3.0651       3.2684      -0.8950       0.1155       0.0012       0.2738    3737.0000
    5229.0      12.2500    1117.1588    1117.1588      99.6709     171.6879     104.2893       3.4507       3.1035       3.0651       3.2684      -1.1188       0.1444       0.0012       0.2738    3678.0000
    5228.5      12.2500    1093.1625    1093.1625      99.6709     171.6879     104.2893       3.4507       3.1035       3.0651       3.2684      -1.3425       0.1733       0.0013       0.2738    3617.0000
    5228.0      12.2500    1068.2775    1068.2775      99.6709     171.6879     104.2893       3.4507       3.1035       3.0651       3.2684      -1.5663       0.2021       0.0013       0.2738    3553.0000
    5227.5      12.2500    1080.7200    1080.7200      99.6709     171.6879     104.2893       3.4507       3.1035       3.0651       3.2684      -1.7900       0.2310       0.0014       0.2738    3577.0000
    5227.0      12.2500    1068.2775    1068.2775      99.6709     171.6879     104.2893       3.4507       3.1035       3.0651       3.2684      -2.0138       0.2599       0.0014       0.2738    3594.0000
    5226.5      12.2500    1104.7163    1104.7163      99.4294     171.2719     104.2893       3.4507       3.1035       3.0651       3.2684      -2.2375       0.2888       0.0015       0.2730    3586.0000
    5226.0      12.2500    1080.7200    1080.7200      99.7545     171.8319     104.2893       3.4507       3.1035       3.0651       3.2684      -2.4613       0.3176       0.0015       0.2741    3533.0000
    5225.5      12.2500    1068.2775    1068.2775      99.7107     171.7564     104.2893       3.4507       3.1035       3.0651       3.2684      -2.6850       0.3465       0.0016       0.2740    3576.0000
    5225.0      12.2500    1093.1625    1093.1625      99.8450     171.9879     104.2893       3.4507       3.1035       3.0651       3.2684      -2.9088       0.3754       0.0016       0.2745    3524.0000
    5224.5      12.2500    1080.7200    1080.7200      99.7206     171.7736     104.2893       3.4507       3.1035       3.0651       3.2684      -3.1325       0.4043       0.0017       0.2740    3605.0000
    5224.0      12.2500    1093.1625    1093.1625      99.6709     171.6879     104.2893       3.4507       3.1035       3.0651       3.2684      -3.3563       0.4332       0.0017       0.2738    3629.0000
    5223.5      12.2500    1117.1588    1117.1588      99.6709     171.6879     104.2893       3.4507       3.1035       3.0651       3.2684      -3.5800       0.4620       0.0018       0.2738    3639.0000
    5223.0      12.2500    1104.7163    1104.7163      99.6709     171.6879     104.2893       3.4507       3.1035       3.0651       3.2684      -3.8038       0.4909       0.0018       0.2738    3587.0000
    5222.5      12.2500    1080.7200    1080.7200      99.6709     171.6879     104.2893       3.4507       3.1035       3.0651       3.2684      -4.0275       0.5198       0.0019       0.2738    3564.0000
    5222.0      12.2500    1129.6013    1129.6013      99.6709     171.6879     104.2893       3.4507       3.1035       3.0651       3.2684      -4.2513       0.5487       0.0019       0.2738    3525.0000
