~Version Information
VERS  .          2.0                              :CWLS Log Ascii Standard - Version 2.0
WRAP  .          NO                               :One line per depth step
~Well Information Block
#MNEM.UNIT       Data Type                        Information
#---------       ---------                        -------------------------------
STRT  .F         5219.99583                       :START DEPTH
STOP  .F         1629.99583                       :STOP DEPTH
STEP  .F         -0.00000                         :INCREMENT
NULL  .          -999.25                          :NULL DATA VALUE
COMP  .          VENOCO, INC.                     :COMPANY
WELL  .          HAMES VALLEY 1-35                :WELL
FLD   .          SOUTH SALINAS                    :FIELD
LOC   .                                           :LOCATION
PROV  .          CALIFORNIA                       :PROVINCE
STAT  .          CALIFORNIA                       :STATE
CNTY  .          MONTEREY                         :COUNTY
CTRY  .          U.S.A                            :COUNTRY
DATE  .          2-Jan-2011                       :DATE
UWI   .          040532205900                     :UNIQUE WELL UWI
LIC   .                                           :LICENSE NUMBER
API   .          040532205900                                                                                                                      :API NUMBER
SRVC  .                                           :SERVICE COMPANY
~Parameter Information Block
#MNEM.UNIT       Value                            Description
#---------       ---------                        -------------
LONG  .DEG       -120.859398                      :Well Surface Location
LATI  .DEG       35.889400                        :Well Surface Location
XWELL .DEG       -120.859398                      :X-coordinate of Well Head
YWELL .DEG       35.889400                        :Y-coordinate of Well Head
~Curve Information Block
#MNEM.UNIT       API Code            Curve    Description
#--------        --------------      -----    -------------------
DEPT  .F                             :0       Index
DIP_HEIGHT.F                         :1       Height of Dip Plane Intersection with Borehole
DPAA_NAZ.DEG                         :2       Apparent Dip Azimuth - North  
DPAA_TOH.DEG                         :3       Apparent Dip Azimuth - Top of Hole
DPAP  .DEG                           :4       Apparent Dip Angle - Tool     
DPAZ  .DEG                           :5       True Dip Azimuth              
DPTR  .DEG                           :6       True Dip Angle                
QUAF  .                              :7       Dip Quality Factor            
~Ascii Data Section
# ...
   2641.99583       0.16861     170.44925     132.50699       8.11477     178.71823       9.46866      17.00000 
   2639.99583       0.16097     168.12646     130.13153       7.79394     176.97496       9.08684      17.00000 
   2637.99583       0.15603     166.83203     127.97828       7.52387     176.07826       8.73927      17.00000 
   2635.99583       0.16795     171.34259     131.47495       7.94343     179.48221       9.19312      17.00000 
   2633.99583       0.17754     174.38797     133.38141       8.18010     181.98923       9.45175      18.00000 
   2631.99583       0.17474     175.20354     133.94832       8.05991     182.80052       9.33886      18.00000 
   2629.99583       0.16821     177.17055     136.15918       7.85222     184.65668       9.18295      17.00000 
   2627.99583       0.16791     180.47504     140.05295       7.90881     187.37354       9.31982      17.00000 
   2625.99583       0.15647     181.01476     140.90594       7.46580     188.13647       8.89835      17.00000 
   2623.99583       0.11983     158.03827     118.13667       5.86431     171.04306       6.86987      17.00000 
   2621.99583       0.11727     156.31734     116.16974       5.95956     169.49127       6.91918      16.00000 
   2619.99583       0.15520     155.56419     114.93935       7.92057     165.88744       8.80109      17.00000 
   2617.99583       0.15744     154.87297     113.87869       8.09496     165.01984       8.93634      17.00000 
   2615.99583       0.16818     161.21063     119.57729       8.60453     170.05330       9.55813      17.00000 
   2613.99583       0.16960     166.43794     125.15169       8.66465     174.53465       9.73399      17.00000 
   2611.99583       0.16601     165.30807     123.83601       8.43541     173.63522       9.45982      17.00000 
   2609.99583       0.18452     160.20242     118.51127       9.37633     168.24152      10.26380      17.00000 
   2607.99583       0.19098     156.55533     114.56040       9.63079     164.65831      10.41186      17.00000 
   2605.99583       0.16135     161.05659     118.05844       8.24102     169.96661       9.10792      17.00000 
   2603.99583       0.15518     158.33003     115.05820       7.97202     167.83401       8.77417      17.00000 
   2601.99583       0.14582     156.77817     112.46529       7.49225     167.09171       8.23883      17.00000 
   2599.99583       0.14773     158.85895     115.19337       7.57589     168.83826       8.39082      17.00000 
   2597.99583       0.15194     163.26350     119.16528       7.74291     172.48224       8.63056      17.00000 
   2595.99583       0.15736     161.00658     116.82294       8.03569     170.06573       8.85578      17.00000 
   2593.99583       0.16732     161.23312     118.06302       8.54337     169.67215       9.38459      17.00000 
   2591.99583       0.15301     162.43681     119.17149       7.81335     171.43661       8.68305      17.00000 
   2589.99583       0.15266     163.33083     120.21378       7.77713     172.18242       8.66095      17.00000 
   2587.99583       0.15706     166.58481     123.95177       8.03655     174.76218       8.99474      17.00000 
   2585.99583       0.15240     164.63304     122.53865       7.77484     173.16971       8.70001      17.00000 
   2583.99583       0.15353     161.99440     119.80085       7.80637     170.74297       8.66669      17.00000 
   2581.99583       0.15923     160.76006     118.37527       8.05993     169.40233       8.88678      17.00000 
   2579.99583       0.15465     161.22958     118.72572       7.80038     170.15234       8.64424      17.00000 
   2577.99583       0.15188     159.62862     117.71843       7.57265     169.00151       8.40852      17.00000 
   2575.99583       0.14909     157.45747     115.58707       7.41832     167.27840       8.21321      17.00000 
   2573.99583       0.14727     159.37306     118.40193       7.37849     168.88098       8.23068      17.00000 
   2571.99583       0.16594     155.39474     114.97767       8.01138     164.44229       8.76688      17.00000 
   2569.99583       0.16666     150.11096     109.69389       8.05619     159.59343       8.69099      17.00000 
   2567.99583       0.16217     155.15651     113.80902       7.93425     164.22957       8.64810      16.00000 
   2565.99583       0.15399     161.21992     118.39932       7.46649     170.35974       8.28739      17.00000 
   2563.99583       0.15269     161.95757     119.13697       7.47660     171.00453       8.31266      17.00000 
   2561.99583       0.14639     159.22289     115.32218       7.13291     169.19592       7.90329      17.00000 
   2559.99583       0.14435     159.55284     115.54115       7.26977     169.19313       8.02909      17.00000 
   2557.99583       0.15297     165.59961     121.37496       7.81701     173.84178       8.66891      17.00000 
   2555.99583       0.15402     162.77594     118.22605       7.83177     171.21912       8.60763      17.00000 
   2553.99583       0.15709     152.54784     107.21214       8.02749     161.74940       8.56500      17.00000 
   2551.99583       0.16455     150.32838     104.74665       8.43628     159.39429       8.92070      17.00000 
   2549.99583       0.19684     144.46320      98.65897      10.04062     152.48695      10.36532      17.00000 
   2547.99583       0.20967     144.04906      99.08101      10.72194     151.59386      11.05300      17.00000 
   2545.99583       0.17521     154.03545     109.50806       8.99445     162.22943       9.58020      17.00000 
   2543.99583       0.17873     153.27887     108.56050       9.14100     161.29390       9.69364      17.00000 
   2541.99583       0.18058     154.42061     108.93019       9.23737     162.26132       9.79125      17.00000 
   2539.99583       0.17485     155.95830     110.10812       8.95775     163.92802       9.53820      17.00000 
   2537.99583       0.14846     161.70413     115.41541       7.62741     170.46690       8.33132      17.00000 
   2535.99583       0.12488     169.19954     123.13631       6.43942     178.41202       7.29943      17.00000 
   2533.99583       0.15369     164.34279     119.27364       7.92290     172.24281       8.67806      17.00000 
   2531.99583       0.15782     162.61548     118.50292       8.12685     170.26743       8.84979      17.00000 
   2529.99583       0.15693     161.91693     118.13482       8.07486     169.60976       8.78706      17.00000 
   2527.99583       0.15711     162.80347     118.95226       8.03506     170.48520       8.76618      17.00000 
   2525.99583       0.15112     157.61200     112.58251       7.65694     166.18544       8.26487      17.00000 
   2523.99583       0.14600     152.87343     107.99918       7.22632     162.43132       7.75469      17.00000 
   2521.99583       0.15689     161.53131     116.89669       7.93903     169.51802       8.63528      17.00000 
   2519.99583       0.15706     165.59418     121.52180       7.99059     173.00453       8.76118      17.00000 
   2517.99583       0.16324     163.53429     119.81407       8.16939     170.93010       8.90469      17.00000 
   2515.99583       0.17156     165.31573     121.75606       8.75311     172.02080       9.51075      17.00000 
   2513.99583       0.15377     168.11475     123.92858       7.82516     175.31181       8.62428      17.00000 
   2511.99583       0.15414     167.91425     123.40442       7.86886     175.12294       8.65815      17.00000 
   2509.99583       0.20987     158.96758     114.76880      10.71959     164.91747      11.32897      17.00000 
   2507.99583       0.14994     155.81400     112.00203       7.77500     164.05006       8.34733      17.00000 
   2505.99583       0.10537     153.49467     110.59874       5.42819     165.10638       6.00694      17.00000 
   2503.99583       0.13975     154.91141     111.96548       7.20985     163.68613       7.78237      17.00000 
   2501.99583       0.14288     156.58089     112.58272       7.33547     165.10329       7.91334      17.00000 
