~VERSION INFORMATION
VERS.           2.0   :CWLS Log ASCII Standard - VERSION 2.0
WRAP.           NO    :One Line per depth step
PROD.  Schlumberger   :LAS Producer
PROG.  DLIS to ASCII 19C0-187                          :LAS Program name and version
CREA.        2011/01/03 01:40                          :LAS Creation date {YYYY/MM/DD hh:mm}
DLIS_CREA.  2011-Jan-02 17:53                          :DLIS Creation date and time {YYYY-MMM-DD hh:mm}
SOURCE.     BC0W-00120_VENOCO_HAMES_VALLEY_HAMES_VALLEY_1-35_FMI_DSST_MAIN.DLIS  :DLIS File Name
FILE-ID.     FMI_CAL_DSI_028PUP                        :File Identification Number
#--------------------------------------------------
~WELL INFORMATION
#MNEM.UNIT      DATA             DESCRIPTION
#---- ------ --------------   -----------------------------
STRT .F         5241.0       :START DEPTH     
STOP .F         1500.5       :STOP DEPTH     
STEP .F           -0.5       :STEP     
NULL .          -999.25      :NULL VALUE
COMP .        VENOCO, INC.                             :COMPANY
WELL .        HAMES VALLEY 1-35                        :WELL
FLD  .        HAMES VALLEY                             :FIELD
LOC  .        LAT: 35.889467                           :LOCATION
CNTY .        MONTEREY                                 :COUNTY
STAT .        CALIFORNIA                               :STATE
CTRY .                                                 :COUNTRY
API  .        040532205900                             :API NUMBER
UWI  .        040532205900                             :UNIQUE WELL ID
DATE .        02-Jan-2011                              :LOG DATE {DD-MMM-YYYY}
SRVC .        Schlumberger                             :SERVICE COMPANY
LATI .DEG                                              :LATITUDE
LONG .DEG                                              :LONGITUDE
GDAT .                                                 :GeoDetic Datum
SECT .        35                                       :Section
RANG .        10E                                      :Range
TOWN .        23S                                      :Township
#-----------------------------------------------------------------------------
~PARAMETER INFORMATION
#MNEM.UNIT    VALUE                      DESCRIPTION
#---- -----   --------------------       ------------------------
RUN  .          ONE                      :RUN NUMBER
PDAT .        GROUND LEVEL               :Permanent Datum
EPD  .F         1002.000000              :Elevation of Permanent Datum above Mean Sea Level
LMF  .          KELLY BUSHING            :Logging Measured From (Name of Logging Elevation Reference)
APD  .F          23.000000               :Elevation of Depth Reference (LMF) above Permanent Datum
#-----------------------------------------------------------------------------
~CURVE INFORMATION
#MNEM.UNIT   API CODE                                  DESCRIPTION
#---- -----  --------                                  -----------------------
DEPT .F                                                :DEPTH (BOREHOLE) {F10.1}
BS   .IN                                               :Bit Size {F13.4}
CDF  .LBF                                              :Calibrated Downhole Force {F13.4}
DF   .LBF                                              :Uncalibrated Downhole Force {F13.4}
DTCO .US/F                                             :Delta-T Compressional {F13.4}
DTSM .US/F                                             :Delta-T Shear {F13.4}
GR_EDTC.GAPI                                           :EDTC Gamma Ray {F13.4}
HD1_PPC1.IN                                            :PPC1 Hole Diameter 1 {F13.4}
HD1_PPC2.IN                                            :PPC2 Hole Diameter 1 {F13.4}
HD2_PPC1.IN                                            :PPC1 Hole Diameter 2 {F13.4}
HD2_PPC2.IN                                            :PPC2 Hole Diameter 2 {F13.4}
ICV  .F3                                               :Integrated Cement Volume {F13.4}
IHV  .F3                                               :Integrated Hole Volume {F13.4}
ITT  .S                                                :Integrated Transit Time {F13.4}
SPHI .CFCF                                             :Sonic Porosity {F13.4}
TENS .LBF                                              :Cable Tension {F13.4}
#-----------------------------------------------------------------------------
# 
#     DEPT        BS           CDF          DF           DTCO         DTSM       GR_EDTC      HD1_PPC1     HD1_PPC2     HD2_PPC1     HD2_PPC2       ICV          IHV          ITT          SPHI         TENS
#
~A  
# ...
    4246.5      12.2500    1275.3563    1275.3563     114.8484    -999.2500     138.8602      12.9783      12.9132      12.7150      13.4828     327.0521     824.7280       0.1048       0.3203    3287.0000
    4246.0      12.2500    1262.9138    1262.9138     113.4967    -999.2500     140.7180      13.0100      13.0418      12.4503      12.8009     327.2413     825.1698       0.1049       0.3166    3206.0000
    4245.5      12.2500    1287.7988    1287.7988     112.3017    -999.2500     142.9009      12.9680      13.0738      12.5827      13.1660     327.4337     825.6149       0.1049       0.3133    3288.0000
    4245.0      12.2500    1275.3563    1275.3563     113.8936    -999.2500     147.8078      12.9394      13.0760      12.8471      13.1434     327.6345     826.0682       0.1050       0.3177    3288.0000
    4244.5      12.2500    1287.7988    1287.7988     116.1453    -999.2500     153.8929      12.9918      12.9140      12.7511      13.1198     327.8336     826.5200       0.1050       0.3237    3240.0000
    4244.0      12.2500    1287.7988    1287.7988     118.0145    -999.2500     153.7979      12.9393      12.9988      12.7751      13.5176     328.0319     826.9708       0.1051       0.3284    3297.0000
    4243.5      12.2500    1238.9175    1238.9175     114.9935    -999.2500     152.7063      12.9288      12.9988      13.0386      13.5176     328.2390     827.4306       0.1051       0.3206    3234.0000
    4243.0      12.2500    1238.9175    1238.9175     113.6359    -999.2500     157.9203      13.0446      12.9988      12.7994      13.4947     328.4417     827.8860       0.1052       0.3170    3075.0000
    4242.5      12.2500    1287.7988    1287.7988     114.1933    -999.2500     158.3643      13.0762      13.0312      12.7751      13.0254     328.6447     828.3416       0.1053       0.3185    3227.0000
    4242.0      12.2500    1287.7988    1287.7988     113.9759    -999.2500     156.8639      12.9995      12.9988      12.7268      12.9546     328.8433     828.7928       0.1053       0.3179    3305.0000
    4241.5      12.2500    1226.4750    1226.4750     112.7277    -999.2500     150.2151      13.0099      13.0837      12.6313      12.9667     329.0389     829.2410       0.1054       0.3145    3074.0000
    4241.0      12.2500    1262.9138    1262.9138     111.7912    -999.2500     146.2499      13.2230      13.3735      12.7873      13.0009     329.2474     829.7022       0.1054       0.3119    3089.0000
    4240.5      12.2500    1262.9138    1262.9138     111.0992    -999.2500     142.1507      13.2335      13.0290      12.7751      12.9660     329.4559     830.1633       0.1055       0.3100    3287.0000
    4240.0      12.2500    1238.9175    1238.9175     108.3202    -999.2500     137.2093      12.9605      12.9861      12.6191      12.9776     329.6493     830.6094       0.1055       0.3019    3263.0000
    4239.5      12.2500    1238.9175    1238.9175     106.2266    -999.2500     133.1326      12.9921      12.9664      12.7034      13.0134     329.8468     831.0595       0.1056       0.2955    3172.0000
    4239.0      12.2500    1251.3600    1251.3600     104.3782    -999.2500     124.6075      12.9890      13.0094      12.6910      13.0138     330.0438     831.5091       0.1056       0.2897    3273.0000
    4238.5      12.2500    1238.9175    1238.9175     105.5876    -999.2500     115.1082      13.0415      13.0097      12.6429      12.9190     330.2409     831.9588       0.1057       0.2935    3292.0000
    4238.0      12.2500    1238.9175    1238.9175     105.1369    -999.2500     109.3654      12.8943      12.9344      12.6186      12.9546     330.4320     832.4026       0.1057       0.2921    3194.0000
    4237.5      12.2500    1251.3600    1251.3600     104.5777    -999.2500     110.4447      13.0837      13.0305      12.6788      12.9074     330.6319     832.8550       0.1058       0.2903    3235.0000
    4237.0      12.2500    1251.3600    1251.3600     108.3875    -999.2500     116.7568      13.0448      13.0632      12.6669      12.9546     330.8299     833.3057       0.1059       0.3021    3163.0000
    4236.5      12.2500    1238.9175    1238.9175     107.6415    -999.2500     119.0426      13.0416      13.0421      12.6308      12.9426     331.0266     833.7550       0.1059       0.2998    3061.0000
    4236.0      12.2500    1262.9138    1262.9138     110.5724    -999.2500     123.6142      12.9995      13.0738      12.6308      12.9662     331.2218     834.2028       0.1060       0.3085    3191.0000
    4235.5      12.2500    1251.3600    1251.3600     112.9244    -999.2500     121.6316      13.0026      13.0523      12.6791      13.0254     331.4188     834.6525       0.1060       0.3151    3197.0000
    4235.0      12.2500    1251.3600    1251.3600     114.3204    -999.2500     120.6896      13.0026      13.0312      12.7031      13.0369     331.6167     835.1030       0.1061       0.3188    3103.0000
    4234.5      12.2500    1262.9138    1262.9138     115.6757    -999.2500     113.0561      12.9921      13.0097      12.6310      12.9778     331.8116     835.5505       0.1061       0.3224    3209.0000
    4234.0      12.2500    1238.9175    1238.9175     116.4883    -999.2500     116.4899      13.0415      13.0738      12.6070      12.9662     332.0074     835.9990       0.1062       0.3245    3215.0000
    4233.5      12.2500    1226.4750    1226.4750     116.2533    -999.2500     122.5865      13.0415      13.1704      12.6070      12.9426     332.2032     836.4474       0.1063       0.3239    3120.0000
    4233.0      12.2500    1251.3600    1251.3600     114.2266    -999.2500     125.1485      13.0730      13.1704      12.6308      12.9306     332.4009     836.8978       0.1063       0.3186    3244.0000
    4232.5      12.2500    1251.3600    1251.3600     113.7888    -999.2500     122.3095      13.1150      13.1809      12.5705      12.8129     332.5980     837.3474       0.1064       0.3174    3248.0000
    4232.0      12.2500    1251.3600    1251.3600     112.5354    -999.2500     114.9811      13.1465      13.1704      12.7147      13.0249     332.8012     837.8033       0.1064       0.3140    3233.0000
    4231.5      12.2500    1275.3563    1275.3563     112.2169    -999.2500     121.9355      13.1270      13.1598      12.7390      13.0840     333.0047     838.2595       0.1065       0.3131    3315.0000
    4231.0      12.2500    1251.3600    1251.3600     110.9757    -999.2500     120.5062      13.1078      13.1704      12.7633      13.0840     333.2084     838.7158       0.1065       0.3096    3171.0000
    4230.5      12.2500    1238.9175    1238.9175     110.8404     166.8533     122.8781      13.0972      13.1275      12.7271      13.0605     333.4104     839.1704       0.1066       0.3092    3141.0000
    4230.0      12.2500    1238.9175    1238.9175     111.5274     167.8392     119.1112      13.0762      13.1275      12.7153      12.9898     333.6112     839.6239       0.1066       0.3112    3170.0000
    4229.5      12.2500    1251.3600    1251.3600     111.7525     169.2702     123.3796      13.1254      13.1275      12.6551      12.9778     333.8116     840.0769       0.1067       0.3118    3139.0000
    4229.0      12.2500    1251.3600    1251.3600     112.5026     173.2198     125.2007      13.1254      13.1905      12.6910      13.0242     334.0133     840.5312       0.1068       0.3139    3201.0000
    4228.5      12.2500    1226.4750    1226.4750     111.4473     168.3733     124.2094      13.0730      13.0418      12.6429      12.9426     334.2115     840.9820       0.1068       0.3110    3139.0000
    4228.0      12.2500    1226.4750    1226.4750     111.2438     167.0807     110.0698      13.0626      13.0418      12.6308      12.9542     334.4089     841.4320       0.1069       0.3104    3151.0000
    4227.5      12.2500    1251.3600    1251.3600     113.0057     168.4310      93.9682      12.9365      12.9344      12.9063      12.9426     334.6117     841.8874       0.1069       0.3153    3256.0000
