~Version Information
VERS  .          2.0                              :CWLS Log Ascii Standard - Version 2.0
WRAP  .          NO                               :One line per depth step
~Well Information Block
#MNEM.UNIT       Data Type                        Information
#---------       ---------                        -------------------------------
STRT  .F         5219.99583                       :START DEPTH
STOP  .F         1629.99583                       :STOP DEPTH
STEP  .F         -0.00000                         :INCREMENT
NULL  .          -999.25                          :NULL DATA VALUE
COMP  .          VENOCO, INC.                     :COMPANY
WELL  .          HAMES VALLEY 1-35                :WELL
FLD   .          SOUTH SALINAS                    :FIELD
LOC   .                                           :LOCATION
PROV  .          CALIFORNIA                       :PROVINCE
STAT  .          CALIFORNIA                       :STATE
CNTY  .          MONTEREY                         :COUNTY
CTRY  .          U.S.A                            :COUNTRY
DATE  .          2-Jan-2011                       :DATE
UWI   .          040532205900                     :UNIQUE WELL UWI
LIC   .                                           :LICENSE NUMBER
API   .          040532205900                                                                                                                      :API NUMBER
SRVC  .                                           :SERVICE COMPANY
~Parameter Information Block
#MNEM.UNIT       Value                            Description
#---------       ---------                        -------------
LONG  .DEG       -120.859398                      :Well Surface Location
LATI  .DEG       35.889400                        :Well Surface Location
XWELL .DEG       -120.859398                      :X-coordinate of Well Head
YWELL .DEG       35.889400                        :Y-coordinate of Well Head
~Curve Information Block
#MNEM.UNIT       API Code            Curve    Description
#--------        --------------      -----    -------------------
DEPT  .F                             :0       Index
DIP_HEIGHT.F                         :1       Height of Dip Plane Intersection with Borehole
DPAA_NAZ.DEG                         :2       Apparent Dip Azimuth - North  
DPAA_TOH.DEG                         :3       Apparent Dip Azimuth - Top of Hole
DPAP  .DEG                           :4       Apparent Dip Angle - Tool     
DPAZ  .DEG                           :5       True Dip Azimuth              
DPTR  .DEG                           :6       True Dip Angle                
QUAF  .                              :7       Dip Quality Factor            
~Ascii Data Section
# ...
   3353.99583       0.24294     168.70668     179.18234      12.55648     168.79901      14.27958      17.00000 
   3351.99583       0.26517     166.40157     178.97519      13.61248     166.50922      15.34225      17.00000 
   3349.99583       0.26848     169.54221     183.20494      13.79821     169.19308      15.49129      17.00000 
   3347.99583       0.30672     167.21048     180.49147      15.66215     167.16075      17.27414      15.00000 
   3345.99583       0.20257     161.09370     172.37167      10.48073     162.04427      11.99202      17.00000 
   3343.99583       0.18930     162.88797     173.26207       9.80049     163.74117      11.23872      17.00000 
   3341.99583       0.21192     159.10875     169.48285      10.92251     160.31523      12.34795      17.00000 
   3339.99583       0.21965     155.15923     164.74266      11.33467     156.74408      12.64154      16.00000 
   3337.99583       0.23239     176.07404     186.60027      11.99548     175.42381      13.31737      13.00000 
   3335.99583       0.21141     167.01796     177.54419      10.86949     167.27943      12.19824      14.00000 
   3331.99583       0.20073     168.03693     178.28459      10.40053     168.22792      11.74205      16.00000 
   3329.99583       0.24289     169.25378     179.50145      12.52556     169.29846      13.86756      17.00000 
   3327.99583       0.30460     171.93393     182.18159      15.58126     171.76268      16.92241      15.00000 
   3325.99583       0.17875     175.30255     180.49420       9.28791     175.24214      10.56406      12.00000 
   3323.99583       0.24968     176.95024     182.14189      12.80400     176.75827      14.07937      17.00000 
   3321.99583       0.23443     173.90700     176.73068      12.07431     174.21326      13.34613      17.00000 
   3319.99583       0.24080     166.77457     168.79753      12.42783     167.81023      13.70230      17.00000 
   3317.99583       0.24304     164.27052     168.34030      12.54017     165.37329      13.85887      17.00000 
   3315.99583       0.22170     164.02986     169.84914      11.46062     165.09169      12.80986      17.00000 
   3313.99583       0.21164     159.61040     167.29819      10.94942     161.02040      12.31784      17.00000 
   3311.99583       0.19403     138.16048     146.90059      10.04985     142.02803      11.25388      14.00000 
   3309.99583       0.21429     149.79942     158.15628      11.08085     152.13388      12.36599      17.00000 
   3307.99583       0.22788     155.40114     163.65541      11.73854     157.01543      13.01448      17.00000 
   3305.99583       0.25095     158.53824     168.69196      12.71277     159.54282      13.96389      17.00000 
   3303.99583       0.25000     161.20741     173.78448      12.82592     161.72701      14.02102      17.00000 
   3301.99583       0.27167     163.82002     178.12988      13.92259     163.95871      15.08804      17.00000 
   3299.99583       0.28358     164.01363     178.09209      14.50645     164.14751      15.65223      17.00000 
   3297.99583       0.28908     162.29883     173.81241      14.77712     162.72145      15.88985      17.00000 
   3295.99583       0.30628     162.62910     172.21201      15.28677     163.13084      16.36547      17.00000 
   3293.99583       0.29678     164.18655     174.91492      15.10316     164.51035      16.16095      17.00000 
   3291.99583       0.29677     165.33998     181.63904      15.14528     165.23611      16.17020      17.00000 
   3289.99583       0.29128     166.98949     189.36893      14.92956     166.42020      15.90608      17.00000 
   3287.99583       0.28212     163.32130     190.08542      14.49224     162.70232      15.44758      17.00000 
   3285.99583       0.27577     161.31068     188.84027      14.15905     160.77467      15.08102      17.00000 
   3283.99583       0.27029     162.62416     188.99365      13.85343     162.12306      14.67774      17.00000 
   3281.99583       0.26471     167.31627     191.95979      13.50147     166.69502      14.24332      17.00000 
   3279.99583       0.26226     168.86392     193.66911      12.92684     168.15964      13.62718      17.00000 
   3277.99583       0.25841     167.07820     197.10916      12.89555     166.23314      13.55667      17.00000 
   3275.99583       0.27178     167.12677     207.81358      13.53488     165.81674      14.16339      17.00000 
   3273.99583       0.27960     167.83359     218.89697      14.04201     166.07510      14.61584      17.00000 
   3271.99583       0.26307     170.90375     234.27341      13.31175     168.42287      13.76100      17.00000 
   3269.99583       0.25806     169.63167     248.42737      13.10973     166.64798      13.40907      17.00000 
   3267.99583       0.26044     164.44710     258.29614      13.25501     161.43925      13.42244      17.00000 
   3265.99583       0.25646     166.99052     269.56293      13.17136     164.07169      13.19401      17.00000 
   3263.99583       0.24609     166.08772     276.08615      12.54620     163.20226      12.49413      17.00000 
   3261.99583       0.23720     166.47928     287.17087      12.07797     163.95076      11.92469      17.00000 
   3259.99583       0.23859     158.77785     294.22461      11.74065     156.45940      11.53717      17.00000 
   3257.99583       0.24714     156.49670     300.25873      12.22473     154.06619      11.93566      17.00000 
   3255.99583       0.26910     158.15831     305.46338      13.54207     155.74556      13.15186      17.00000 
   3253.99583       0.26556     159.49211     304.71243      13.38777     156.73776      12.96322      17.00000 
   3251.99583       0.26251     159.66231     301.05447      13.30160     156.62401      12.90053      17.00000 
   3249.99583       0.27137     144.88104     285.41611      13.70953     141.70084      13.51978      15.00000 
   3247.99583       0.23783     149.21953     292.70706      12.15038     146.18790      11.89981      17.00000 
   3245.99583       0.24296     151.95776     302.58673      12.17089     149.86218      11.89656      17.00000 
   3243.99583       0.30311     154.42982     316.88025      15.32272     153.48825      15.05411      17.00000 
   3241.99583       0.32866     148.81683     316.95206      16.69400     148.21938      16.50527      17.00000 
   3239.99583       0.30023     147.92262     287.96368      15.32946     147.46254      15.28918      17.00000 
   3237.99583       0.27721     169.77351     261.21701      14.06531     169.16251      14.08982      17.00000 
   3235.99583       0.57965     167.92934     226.13274      26.89891     167.61464      27.05364      15.00000 
   3233.99583       0.39080     166.61404     224.81746      19.28781     166.16917      19.44636      17.00000 
   3231.99583       0.38184     167.46738     181.81360      19.03273     167.42880      19.45811      17.00000 
   3229.99583       0.35995     169.14975     177.83195      17.95173     169.20941      18.48096      17.00000 
   3227.99583       0.32828     167.15805     174.64479      16.39501     167.34952      17.02086      16.00000 
   3225.99583       0.37156     165.13081     172.61757      18.15355     165.36835      18.77700      13.00000 
   3223.99583       0.25030     187.37767     195.23120      12.81934     186.57860      13.52499      17.00000 
   3221.99583       0.24309     191.42529     193.46635      12.44485     190.74631      13.10486      17.00000 
   3219.99583       0.23538     199.49886     193.38136      11.90255     198.80074      12.55670      17.00000 
   3217.99583       0.17910     185.38402     175.10928       8.91913     185.72118       9.58250      16.00000 
   3215.99583       0.12784     194.94597     186.71301       6.50250     194.30241       7.19312      17.00000 
   3213.99583       0.10495     208.13123     199.89828       5.37666     205.89267       6.03472      17.00000 
   3211.99583       0.12933     218.94115     223.36562       6.55593     214.68228       7.13961      16.00000 
