~VERSION INFORMATION
VERS.           2.0   :CWLS Log ASCII Standard - VERSION 2.0
WRAP.           YES   :Multiple lines per depth step
PROD.  Schlumberger   :LAS Producer
PROG.  DLIS to ASCII 19C0-187                          :LAS Program name and version
CREA.        2011/01/03 01:37                          :LAS Creation date {YYYY/MM/DD hh:mm}
DLIS_CREA.  2011-Jan-03 01:12                          :DLIS Creation date and time {YYYY-MMM-DD hh:mm}
SOURCE.     BC0W-00120_VENOCO_HAMES_VALLEY_1-35_FPEX_HRLA_HNGS_068PUP.DLIS  :DLIS File Name
FILE-ID.     TLD_MCFL_CNL_NGS_068PUP                   :File Identification Number
#--------------------------------------------------
~WELL INFORMATION
#MNEM.UNIT      DATA             DESCRIPTION
#---- ------ --------------   -----------------------------
STRT .F         5235.0       :START DEPTH     
STOP .F           78.5       :STOP DEPTH     
STEP .F           -0.5       :STEP     
NULL .          -999.25      :NULL VALUE
COMP .        VENOCO, INC.                             :COMPANY
WELL .        HAMES VALLEY 1-35                        :WELL
FLD  .        HAMES VALLEY                             :FIELD
LOC  .        LAT: 35.889467                           :LOCATION
CNTY .        MONTEREY                                 :COUNTY
STAT .        CALIFORNIA                               :STATE
CTRY .                                                 :COUNTRY
API  .        040532205900                             :API NUMBER
UWI  .        040532205900                             :UNIQUE WELL ID
DATE .        02-Jan-2011                              :LOG DATE {DD-MMM-YYYY}
SRVC .        Schlumberger                             :SERVICE COMPANY
LATI .DEG                                              :LATITUDE
LONG .DEG                                              :LONGITUDE
GDAT .                                                 :GeoDetic Datum
SECT .        35                                       :Section
RANG .        10E                                      :Range
TOWN .        23S                                      :Township
#-----------------------------------------------------------------------------
~PARAMETER INFORMATION
#MNEM.UNIT    VALUE                      DESCRIPTION
#---- -----   --------------------       ------------------------
RUN  .          ONE                      :RUN NUMBER
PDAT .        GROUND LEVEL               :Permanent Datum
EPD  .F         1002.000000              :Elevation of Permanent Datum above Mean Sea Level
LMF  .          KELLY BUSHING            :Logging Measured From (Name of Logging Elevation Reference)
APD  .F          23.000000               :Elevation of Depth Reference (LMF) above Permanent Datum
#-----------------------------------------------------------------------------
~CURVE INFORMATION
#MNEM.UNIT   API CODE                                  DESCRIPTION
#---- -----  --------                                  -----------------------
DEPT .F                                                :DEPTH (BOREHOLE) {F10.1}
BS   .IN                                               :Bit Size {F13.4}
CDF  .LBF                                              :Calibrated Downhole Force {F13.4}
DF   .LBF                                              :Uncalibrated Downhole Force {F13.4}
GR   .GAPI                                             :Gamma Ray {F13.4}
HBHK .CFCF                                             :HNGS Borehole Potassium Concentration {F13.4}
HCAL .IN                                               :HRCC Cal. Caliper {F13.4}
HCGR .GAPI                                             :HNGS Computed Gamma Ray {F13.4}
HDRA .G/C3                                             :HRDD Density Correction {F13.4}
HFK  .CFCF                                             :HNGS Formation Potassium Concentration {F13.4}
HMIN .OHMM                                             :MCFL Micro Inverse Resistivity {F13.4}
HMNO .OHMM                                             :MCFL Micro Normal Resistivity {F13.4}
HSGR .GAPI                                             :HNGS Standard Gamma Ray {F13.4}
HTHO .PPM                                              :HNGS Formation Thorium Concentration {F13.4}
HTPR .                                                 :HNGS Thorium/Potassium Ratio {F13.4}
HTUR .                                                 :HNGS Thorium/Uranium Ratio {F13.4}
HURA .PPM                                              :HNGS Formation Uranium Concentration {F13.4}
ICV  .F3                                               :Integrated Cement Volume {F13.4}
IHV  .F3                                               :Integrated Hole Volume {F13.4}
PEFZ .                                                 :HRDD Standard Resolution Formation Photoelectric Factor {F13.4}
RHOZ .G/C3                                             :HRDD Standard Resolution Formation Density {F13.4}
RLA1 .OHMM                                             :HRLT Borehole Corrected Resistivity 1 {F13.4}
RLA2 .OHMM                                             :HRLT Borehole Corrected Resistivity 2 {F13.4}
RLA3 .OHMM                                             :HRLT Borehole Corrected Resistivity 3 {F13.4}
RLA4 .OHMM                                             :HRLT Borehole Corrected Resistivity 4 {F13.4}
RLA5 .OHMM                                             :HRLT Borehole Corrected Resistivity 5 {F13.4}
RXOZ .OHMM                                             :MCFL Standard Resolution Invaded Zone Resistivity {F13.4}
SP   .MV                                               :SP Shifted {F13.4}
TENS .LBF                                              :Cable Tension {F13.4}
TNPH .CFCF                                             :Thermal Neutron Porosity {F13.4}
#-----------------------------------------------------------------------------
# DEPT       
#     BS           CDF          DF           GR_EDTC      HBHK         HCAL         
#     HCGR         HDRA         HFK          HMIN         HMNO         HSGR         
#     HTHO         HTPR         HTUR         HURA         ICV          IHV          
#     PEFZ         RHOZ         RLA1         RLA2         RLA3         RLA4         
#     RLA5         RXOZ         SP           TENS         TNPH         
~A  
# ...
3177.0
     12.2500     934.9650     934.9650      78.7488       0.0121      12.1664
     48.1886      -0.0046       0.0203       1.0511       0.9300      79.3053
      3.5903       1.7726       0.9232       3.8888     713.5686    1751.6167
      1.7021       2.0611       4.3439       7.8929       9.4052       9.2929
      8.7895       1.3414      -5.6875    2403.0000       0.3856
3176.5
     12.2500     958.9612     958.9612      79.9754       0.0121      12.2617
     48.2360      -0.0047       0.0204       0.9087       0.8793      78.9347
      3.5462       1.7421       0.9324       3.8031     713.7260    1752.0267
      1.7089       2.0424       4.5811       8.4347      10.1073      10.0562
      9.6709       1.1103      -6.3125    2442.0000       0.4181
3176.0
     12.2500     958.9612     958.9612      73.6216       0.0121      12.3451
     44.5640      -0.0051       0.0201       0.6020       0.5996      78.3240
      2.5122       1.2491       0.6094       4.1227     713.8889    1752.4424
      1.7247       1.9924       4.7167       8.5117      10.2450      10.1250
      9.7201       0.9960      -6.6250    2433.0000       0.4282
3175.5
     12.2500     971.4037     971.4037      69.5890       0.0121      12.3451
     46.8293       0.0030       0.0211       0.6192       0.5788      80.0660
      2.6633       1.2626       0.6640       4.0107     714.0519    1752.8580
      1.7610       2.0123       4.4790       7.8158       9.6738       9.5825
      9.2868       0.9337      -6.7500    2488.0000       0.4064
3175.0
     12.2500     958.9612     958.9612      66.5190       0.0121      12.2935
     42.7249       0.0119       0.0199       0.9406       0.8426      75.6161
      2.0533       1.0324       0.5101       4.0249     714.2114    1753.2701
      1.7745       2.0941       4.4998       7.9675       9.8485       9.8990
      9.6663       1.2619      -6.7500    2547.0000       0.3376
3174.5
     12.2500     947.4075     947.4075      68.0711       0.0121      12.2260
     43.8600       0.0132       0.0200       3.0718       2.7277      72.5141
      2.3734       1.1889       0.6753       3.5147     714.3663    1753.6777
      1.7593       2.1418       4.8752       9.4758      12.1259      12.1996
     12.1551       1.4301      -6.3750    2416.0000       0.3364
3174.0
     12.2500     934.9650     934.9650      67.8678       0.0121      12.1426
     45.2977       0.0077       0.0209       0.6160       0.5848      73.3230
      2.3055       1.1049       0.6751       3.4149     714.5157    1754.0798
      1.7587       2.0879       4.7243      10.8880      15.7456      16.7751
     17.0279       0.8766      -5.5625    2493.0000       0.3816
3173.5
     12.2500     947.4075     947.4075      71.1316       0.0121      12.5237
     47.1865      -0.0007       0.0219       0.2920       0.2991      77.4557
      2.3106       1.0555       0.6362       3.6319     714.6908    1754.5076
      1.7592       1.9728       3.5775       6.3077       7.7032       7.8395
      7.9698       0.6241      -5.6250    2489.0000       0.4612
3173.0
     12.2500     947.4075     947.4075      67.8466       0.0121      12.4522
     47.5922       0.0010       0.0215       0.5091       0.4618      78.9772
      2.6575       1.2348       0.6889       3.8579     714.8610    1754.9304
      1.7647       1.9205       3.6487       6.1406       7.5380       7.5957
      7.9177       0.6299      -5.7500    2470.0000       0.4415
3172.5
     12.2500     958.9612     958.9612      65.3436       0.0121      12.3808
     45.1723       0.0025       0.0201       0.6024       0.5322      75.0856
      2.7227       1.3556       0.7575       3.5941     715.0264    1755.3484
      1.7431       1.9354       3.9184       7.4962      10.0176      10.3361
     10.9864       0.7039      -5.8125    2477.0000       0.3951
3172.0
     12.2500     947.4075     947.4075      62.2752       0.0121      12.5118
     44.9208       0.0022       0.0198       0.5105       0.4509      71.1129
      2.8360       1.4357       0.9282       3.0553     715.2006    1755.7753
      1.7331       1.9852       3.7580       7.9692      10.8336      11.4802
     12.4071       0.7176      -5.1250    2396.0000       0.3635
3171.5
     12.2500     947.4075     947.4075      63.8155       0.0121      12.4919
     44.5966      -0.0027       0.0201       0.5844       0.5163      70.0705
      2.5283       1.2577       0.8252       3.0638     715.3735    1756.2008
      1.7476       2.0256       3.7008       7.9479      10.7593      11.3583
     12.4254       0.8763      -5.2500    2452.0000       0.3325
3171.0
     12.2500     934.9650     934.9650      64.5857       0.0121      12.4761
     45.3276      -0.0056       0.0204       0.7689       0.6796      72.2095
      2.5950       1.2728       0.7766       3.3415     715.5453    1756.6252
      1.7673       2.0842       3.9143       8.3759      11.7001      12.8096
     14.2791       1.0905      -5.5625    2440.0000       0.3186
3170.5
     12.2500     934.9650     934.9650      69.7313       0.0121      12.4046
     45.9497      -0.0055       0.0211       0.9199       0.8136      74.3735
      2.3684       1.1216       0.6642       3.5657     715.7123    1757.0448
      1.7961       2.1461       3.6795       6.8954       9.2212       9.7646
     10.9645       1.7053      -6.0000    2443.0000       0.3060
3170.0
     12.2500     947.4075     947.4075      70.8866       0.0121      12.4046
     48.0558      -0.0048       0.0217       2.0949       1.8576      76.8695
      2.7286       1.2601       0.7607       3.5869     715.8793    1757.4644
      1.8211       2.2019       3.9321       8.2027      11.9230      12.8931
     14.7521       1.7023      -6.6250    2425.0000       0.2995
3169.5
     12.2500     947.4075     947.4075      71.6769       0.0121      12.3808
     46.0887      -0.0036       0.0208       1.5200       1.3464      75.1320
      2.5845       1.2412       0.7114       3.6329     716.0447    1757.8823
      1.8296       2.2491       3.6523       7.2125      10.2440      11.1005
     12.8330       2.1679      -7.2500    2413.0000       0.2719
3169.0
     12.2500     934.9650     934.9650      66.8315       0.0121      12.4284
     42.6605       0.0006       0.0195       2.5204       2.2366      71.8728
      2.2878       1.1760       0.6286       3.6397     716.2133    1758.3036
      1.7987       2.3009       3.6119       7.3151      10.4102      11.3762
     13.4039       2.9057      -7.5625    2396.0000       0.2581
3168.5
     12.2500     947.4075     947.4075      61.6329       0.0121      12.4205
     41.5739       0.0063       0.0190      16.2781      14.5415      70.7518
      2.2205       1.1703       0.6100       3.6403     716.3813    1758.7242
      1.7728       2.3269       4.0104       9.8135      16.6295      19.3531
     23.5702       4.4369      -7.6250    2463.0000       0.2604
3168.0
     12.2500     934.9650     934.9650      61.4202       0.0121      12.5356
     44.3254       0.0073       0.0197       2.2481       1.9940      76.7394
      2.6686       1.3536       0.6349       4.2032     716.5572    1759.1527
      1.7728       2.2872       3.5052       7.5079      11.3100      12.7298
     15.3398       2.4273      -7.7500    2448.0000       0.3180
3167.5
     12.2500     922.5225     922.5225      68.9362       0.0121      12.8333
     46.5152       0.0034       0.0203       0.9016       0.7974      83.1074
      3.0008       1.4748       0.6288       4.7723     716.7537    1759.6018
      1.8188       2.2018       3.0976       6.0856       8.5574       9.3922
     11.4582       1.3565      -8.1875    2471.0000       0.3477
3167.0
     12.2500     947.4075     947.4075      79.7043       0.0121      12.9048
     50.1656      -0.0019       0.0210       0.8226       0.7273      88.2280
      3.7942       1.8075       0.7719       4.9154     716.9551    1760.0559
      1.8549       2.1310       2.8872       5.4125       7.4813       8.0703
      9.9479       1.1055      -9.0000    2464.0000       0.3444
