~Version Information
VERS  .          2.0                              :CWLS Log Ascii Standard - Version 2.0
WRAP  .          NO                               :One line per depth step
~Well Information Block
#MNEM.UNIT       Data Type                        Information
#---------       ---------                        -------------------------------
STRT  .F         5219.99583                       :START DEPTH
STOP  .F         1629.99583                       :STOP DEPTH
STEP  .F         -0.00000                         :INCREMENT
NULL  .          -999.25                          :NULL DATA VALUE
COMP  .          VENOCO, INC.                     :COMPANY
WELL  .          HAMES VALLEY 1-35                :WELL
FLD   .          SOUTH SALINAS                    :FIELD
LOC   .                                           :LOCATION
PROV  .          CALIFORNIA                       :PROVINCE
STAT  .          CALIFORNIA                       :STATE
CNTY  .          MONTEREY                         :COUNTY
CTRY  .          U.S.A                            :COUNTRY
DATE  .          2-Jan-2011                       :DATE
UWI   .          040532205900                     :UNIQUE WELL UWI
LIC   .                                           :LICENSE NUMBER
API   .          040532205900                                                                                                                      :API NUMBER
SRVC  .                                           :SERVICE COMPANY
~Parameter Information Block
#MNEM.UNIT       Value                            Description
#---------       ---------                        -------------
LONG  .DEG       -120.859398                      :Well Surface Location
LATI  .DEG       35.889400                        :Well Surface Location
XWELL .DEG       -120.859398                      :X-coordinate of Well Head
YWELL .DEG       35.889400                        :Y-coordinate of Well Head
~Curve Information Block
#MNEM.UNIT       API Code            Curve    Description
#--------        --------------      -----    -------------------
DEPT  .F                             :0       Index
DIP_HEIGHT.F                         :1       Height of Dip Plane Intersection with Borehole
DPAA_NAZ.DEG                         :2       Apparent Dip Azimuth - North  
DPAA_TOH.DEG                         :3       Apparent Dip Azimuth - Top of Hole
DPAP  .DEG                           :4       Apparent Dip Angle - Tool     
DPAZ  .DEG                           :5       True Dip Azimuth              
DPTR  .DEG                           :6       True Dip Angle                
QUAF  .                              :7       Dip Quality Factor            
~Ascii Data Section
   5219.99583       0.47153     220.36072     326.78595      22.60761     158.90686      12.21614      11.00000 
   5217.99583       0.12932     241.97902     348.38370       6.31918      79.72330      14.30670      11.00000 
   5215.99583       0.34745     215.31311     321.71777      16.35093     128.28833      12.49657      10.00000 
   5213.99583       0.64584     236.10966     342.51434      29.23754     206.49501      11.37477      17.00000 
   5211.99583       0.65135     235.54997     341.91830      29.22211     205.10550      11.49222      16.00000 
   5209.99583       0.70258     236.09972     342.46805      31.27821     211.10025      13.12899      11.00000 
   5207.99583       0.59175     228.18242     334.55075      27.27574     185.88017      12.19925      10.00000 
   5205.99583       0.84532     237.99275     344.57114      36.59578     222.56050      17.48107      13.00000 
   5203.99583       0.76841     240.05737     346.63577      33.90354     223.55295      14.54991      16.00000 
   5201.99583       0.69517     237.67796     344.20950      31.44412     214.44334      12.74954      18.00000 
   5199.99583       0.83126     253.87332       0.40487      36.07505     255.37305      15.43294      16.00000 
   5197.99583       0.72382     248.25208     354.87659      32.37567     241.08157      11.99473      11.00000 
   5195.99583       0.71074     252.28484     358.88187      31.34029     251.30615      10.82615      12.00000 
   5193.99583       0.58941     233.61406     340.22638      27.17904     195.20657      10.36687       9.00000 
   5191.99583       0.60871     278.05142      24.69572      27.55112     320.34155      12.21232      15.00000 
   5189.99583       0.60682     275.20551      21.84980      26.59291     318.98752      10.62378      15.00000 
   5187.99583       0.97597     250.38960     357.34164      39.48210     248.96176      19.57543      14.00000 
   5185.99583       1.40833     249.64920     356.60126      50.34579     248.84428      30.45143      12.00000 
   5183.99583       0.97853     237.61900     344.57104      39.91509     225.91585      21.25251      13.00000 
   5181.99583       0.86120     229.71576     336.88065      36.24737     209.45888      19.40030      17.00000 
   5179.99583       0.81019     227.66562     334.81119      35.12367     204.75629      18.91471      16.00000 
   5177.99583       0.79262     228.05737     335.11530      34.57734     204.52222      18.33815      15.00000 
   5175.99583       0.67605     229.15956     336.12320      30.38051     198.70601      14.42044      18.00000 
   5173.99583       0.62382     228.02290     334.88867      28.52198     191.99969      13.25657      18.00000 
   5171.99583       0.61856     229.85826     336.81464      28.36386     194.58377      12.54748      18.00000 
   5169.99583       0.58084     230.08656     337.01843      26.88291     190.30351      11.35471      17.00000 
   5167.99583       0.56964     230.03105     336.84537      26.43566     188.45471      11.07480      17.00000 
   5165.99583       0.74249     226.03622     332.73697      32.89555     198.25616      17.46487      12.00000 
   5163.99583       0.73067     237.85893     344.38004      32.53424     218.59914      14.32784      14.00000 
   5161.99583       0.67754     241.85567     348.32541      30.63822     224.48615      11.91507      17.00000 
   5159.99583       0.68946     239.88242     346.38449      30.71886     220.46834      12.43725      17.00000 
   5157.99583       0.75330     242.29085     348.79294      33.45776     229.33098      14.64317      15.00000 
   5155.99583       0.58382     232.20097     338.71420      26.77412     195.77792      11.04595      15.00000 
   5153.99583       0.58058     230.53766     337.11728      26.94919     193.72946      11.67288      17.00000 
   5151.99583       0.59815     234.75098     341.29907      27.80567     204.29915      11.25355      18.00000 
   5149.99583       0.71788     256.03592       2.64413      31.95148     260.61777      12.76095      15.00000 
   5147.99583       0.55973     235.56230     342.16342      26.20190     201.20271       9.74011      17.00000 
   5145.99583       0.64542     237.55507     344.07117      30.17803     215.68954      12.75687      12.00000 
   5143.99583       0.75645     233.80754     340.22946      34.24467     214.75287      17.34162      13.00000 
   5141.99583       0.62673     230.35384     336.64114      29.54489     200.84969      14.03702      17.00000 
   5139.99583       0.58324     229.96936     336.26877      27.63635     195.93930      12.63298      17.00000 
   5137.99583       0.55045     230.31488     336.56708      26.28102     193.10869      11.56213      17.00000 
   5135.99583       0.54141     228.42184     334.57162      25.66148     188.61812      11.74072      17.00000 
   5133.99583       0.58654     223.53500     329.56668      27.42083     187.00322      14.59795      16.00000 
   5131.99583       0.60198     227.14363     333.17532      27.73296     193.14372      13.80994      17.00000 
   5129.99583       0.60628     229.95367     335.86929      28.20526     199.85794      13.64672      17.00000 
   5127.99583       0.66390     233.24271     339.15836      30.84123     210.68393      15.17928      16.00000 
   5125.99583       0.65893     233.05807     338.86475      30.75978     210.36748      15.23533      16.00000 
   5123.99583       0.58457     223.37311     329.17978      28.01285     189.47366      15.33866      14.00000 
   5121.99583       0.58537     228.68697     334.59079      28.15542     198.53015      14.08564      17.00000 
   5119.99583       0.50880     231.96651     337.87036      24.63740     194.24345      10.38610      16.00000 
   5117.99583       0.59004     231.35048     337.69208      27.82530     203.35225      13.17164      17.00000 
   5115.99583       0.57891     233.12634     339.53284      27.61880     206.69756      12.67725      17.00000 
   5113.99583       0.53425     236.85457     343.24438      25.81274     210.09894      10.36903      17.00000 
   5111.99583       0.42080     229.82161     336.09647      20.89285     177.70976       8.53871      13.00000 
   5109.99583       0.42317     226.71712     333.03021      20.63490     172.67641       9.29491      13.00000 
   5107.99583       0.41172     224.31567     330.62878      20.29767     168.22868       9.81840       9.00000 
   5105.99583       0.50616     233.54272     340.11023      24.38011     201.25461      10.14702      13.00000 
   5103.99583       0.32193     223.07173     329.63925      16.13719     144.50879       8.57626      11.00000 
   5101.99583       0.38857     230.09058     336.72745      19.31166     171.26260       7.56831      15.00000 
   5099.99583       0.48879     231.25441     337.99905      24.08821     196.45064      10.44658      18.00000 
   5097.99583       0.55024     230.43671     337.26669      26.65158     202.26309      12.78093      18.00000 
   5095.99583       0.54685     233.23593     340.16629      26.64590     207.58347      12.17737      18.00000 
   5093.99583       0.57098     227.56282     334.47089      27.65032     199.92929      14.34272      15.00000 
   5091.99583       0.51566     231.28305     337.99704      25.31654     200.77928      11.54539      17.00000 
   5089.99583       0.49523     227.92636     334.47549      24.36890     192.25294      11.63212      17.00000 
   5087.99583       0.51699     228.83263     335.29965      24.81230     195.19266      11.80556      18.00000 
   5085.99583       0.48840     225.70493     332.17194      23.56741     186.43077      11.63369      17.00000 
   5083.99583       0.49577     228.58987     335.19724      24.27397     193.89847      11.46970      17.00000 
   5081.99583       0.49800     226.91273     333.54333      24.17716     191.35435      11.85413      17.00000 
   5079.99583       1.39107     222.12845     328.87469      51.55526     213.08195      38.27651      12.00000 
