~Version Information
VERS  .          2.0                              :CWLS Log Ascii Standard - Version 2.0
WRAP  .          NO                               :One line per depth step
~Well Information Block
#MNEM.UNIT       Data Type                        Information
#---------       ---------                        -------------------------------
STRT  .F         5219.99583                       :START DEPTH
STOP  .F         1629.99583                       :STOP DEPTH
STEP  .F         -0.00000                         :INCREMENT
NULL  .          -999.25                          :NULL DATA VALUE
COMP  .          VENOCO, INC.                     :COMPANY
WELL  .          HAMES VALLEY 1-35                :WELL
FLD   .          SOUTH SALINAS                    :FIELD
LOC   .                                           :LOCATION
PROV  .          CALIFORNIA                       :PROVINCE
STAT  .          CALIFORNIA                       :STATE
CNTY  .          MONTEREY                         :COUNTY
CTRY  .          U.S.A                            :COUNTRY
DATE  .          2-Jan-2011                       :DATE
UWI   .          040532205900                     :UNIQUE WELL UWI
LIC   .                                           :LICENSE NUMBER
API   .          040532205900                                                                                                                      :API NUMBER
SRVC  .                                           :SERVICE COMPANY
~Parameter Information Block
#MNEM.UNIT       Value                            Description
#---------       ---------                        -------------
LONG  .DEG       -120.859398                      :Well Surface Location
LATI  .DEG       35.889400                        :Well Surface Location
XWELL .DEG       -120.859398                      :X-coordinate of Well Head
YWELL .DEG       35.889400                        :Y-coordinate of Well Head
~Curve Information Block
#MNEM.UNIT       API Code            Curve    Description
#--------        --------------      -----    -------------------
DEPT  .F                             :0       Index
DIP_HEIGHT.F                         :1       Height of Dip Plane Intersection with Borehole
DPAA_NAZ.DEG                         :2       Apparent Dip Azimuth - North  
DPAA_TOH.DEG                         :3       Apparent Dip Azimuth - Top of Hole
DPAP  .DEG                           :4       Apparent Dip Angle - Tool     
DPAZ  .DEG                           :5       True Dip Azimuth              
DPTR  .DEG                           :6       True Dip Angle                
QUAF  .                              :7       Dip Quality Factor            
~Ascii Data Section
# ...
   3209.99583       0.11232     216.18834     221.46242       5.79629     211.71214       6.38147      16.00000 
   3207.99583       0.06944     224.92517     228.09926       3.61303     217.56718       4.12125      16.00000 
   3205.99583       0.06905     196.60136     195.22488       3.55978     194.38588       4.15373      17.00000 
   3203.99583       0.10411     193.44487     201.12862       5.38779     191.71626       5.84830      16.00000 
   3201.99583       0.21245     210.32402     231.17291      10.92947     208.69751      11.19283      13.00000 
   3199.99583       0.23049     193.63708     232.92688      11.67547     192.28854      11.89321      17.00000 
   3197.99583       0.28729     188.31593     240.07811      14.37008     187.15009      14.54711      17.00000 
   3195.99583       0.28979     182.70662     237.11530      14.39427     181.75159      14.55655      17.00000 
   3193.99583       0.26893     175.39987     226.42368      13.63535     174.56343      13.83264      17.00000 
   3191.99583       0.26655     170.81096     227.71774      13.55202     169.81659      13.77562      17.00000 
   3189.99583       0.26447     162.75865     227.12582      13.39466     161.52638      13.67595      17.00000 
   3187.99583       0.26276     155.37831     227.23247      13.39426     154.17894      13.66680      17.00000 
   3185.99583       0.28883     149.18539     236.94937      14.50006     148.16617      14.67605      17.00000 
   3183.99583       0.32542     142.23271     259.48322      16.29735     141.62608      16.33130      17.00000 
   3181.99583       0.30901     144.24152     339.95599      14.74799     144.06863      14.62442      17.00000 
   3179.99583       0.28539     142.04160      37.60586      14.63803     142.38475      14.52285      17.00000 
   3177.99583       0.25626     153.34633     102.39692      13.11387     154.00804      13.14874      17.00000 
   3175.99583       0.24405     155.10506     141.12976      12.38118     155.81854      12.57959      17.00000 
   3173.99583       0.37672     169.29219     165.66800      19.04725     169.54887      19.40077      15.00000 
   3171.99583       0.29946     179.45139     172.74704      15.32202     179.63481      15.72717      12.00000 
   3169.99583       0.23273     139.86726     119.05383      12.09373     141.72446      12.32552      17.00000 
   3167.99583       0.26277     137.31876     106.04344      13.47992     139.64085      13.65334      16.00000 
   3165.99583       0.24919     147.74956     118.85087      12.28377     150.45721      12.63181      17.00000 
   3163.99583       0.27076     153.42882     128.63281      13.34717     155.95717      13.85830      17.00000 
   3161.99583       0.26356     154.67395     134.64032      12.92668     157.19583      13.53822      17.00000 
   3159.99583       0.23557     146.34732     128.22408      11.37354     149.52831      11.91990      17.00000 
   3157.99583       0.22758     141.41760     122.81546      11.21309     145.06664      11.72442      17.00000 
   3155.99583       0.24672     138.78285     121.20568      12.11481     142.36159      12.62422      17.00000 
   3153.99583       0.26219     141.04692     127.36695      12.55127     144.62425      13.21736      17.00000 
   3151.99583       0.13792     238.69817     231.66524       6.69385     231.92334       7.44399       9.00000 
   3149.99583       0.20738     150.51608     148.81146      10.21258     153.46944      11.19069      15.00000 
   3147.99583       0.21563     145.00890     145.47200      10.52028     148.00217      11.41255      17.00000 
   3145.99583       0.22940     148.14340     146.54231      11.18863     150.72620      12.03247      17.00000 
   3143.99583       0.25056     149.78064     145.64586      12.22194     152.15614      13.03624      17.00000 
   3141.99583       0.26916     154.53395     148.67680      13.17015     156.66940      14.05639      17.00000 
   3139.99583       0.26517     150.19852     150.52025      13.19448     152.23656      14.10771      17.00000 
   3137.99583       0.27223     143.39517     150.67627      13.26965     145.25375      14.10758      17.00000 
   3135.99583       0.30931     141.18791     153.78157      15.08347     142.41199      15.78943      17.00000 
   3133.99583       0.36824     142.24304     153.29903      17.72203     143.08580      18.27699      17.00000 
   3131.99583       0.29336     156.76216     155.94626      14.39311     157.58452      14.88376      17.00000 
   3129.99583       0.27307     148.57816     138.55530      13.28015     150.18344      13.72916      17.00000 
   3127.99583       0.28953     155.74820     145.32983      14.11290     157.14737      14.64505      17.00000 
   3125.99583       0.27833     157.43518     154.89258      13.78774     158.41176      14.32119      17.00000 
   3123.99583       0.32688     141.54643     139.00385      15.88654     142.86163      16.33383      13.00000 
   3121.99583       0.49252     132.49002     121.76705      22.68466     132.99890      22.81810      12.00000 
   3119.99583       0.28761     148.79805      95.28519      13.96404     149.63995      13.98497      17.00000 
   3117.99583       0.30244     149.89767      74.70515      14.41335     151.19022      14.32680      17.00000 
   3115.99583       0.31025     149.19743      73.14857      14.75637     151.11163      14.61356      18.00000 
   3113.99583       0.31512     149.58914      79.24454      15.15784     151.66046      15.06207      17.00000 
   3111.99583       0.34266     151.63078      83.58347      16.81483     153.43552      16.76229      17.00000 
   3109.99583       0.35755     148.22128      88.48421      17.47561     150.36046      17.47036      17.00000 
   3107.99583       0.33115     138.00717      85.02458      15.77263     140.98154      15.72153      17.00000 
   3105.99583       0.31766     139.50165      90.07804      14.77272     143.18333      14.80523      17.00000 
   3103.99583       0.28861     147.27705     100.28380      13.62613     151.80629      13.87257      17.00000 
   3101.99583       0.26732     153.96379     108.52402      12.83785     158.65202      13.25159      17.00000 
   3099.99583       0.26352     158.72366     114.17236      12.92474     163.32448      13.46130      17.00000 
   3097.99583       0.27285     157.00572     114.89597      13.11887     161.78349      13.70590      17.00000 
   3095.99583       0.27563     147.07516     108.02602      13.53883     152.40236      14.03192      17.00000 
   3093.99583       0.27962     150.69238     116.00352      13.44472     156.11488      14.17399      17.00000 
   3091.99583       0.28391     157.46286     129.19768      13.63525     162.23570      14.70279      17.00000 
   3089.99583       0.27495     153.93968     129.11569      13.08850     159.06235      14.19380      17.00000 
   3087.99583       0.30033     152.28706     130.79555      14.36112     156.88313      15.50629      17.00000 
   3085.99583       0.33717     156.80769     136.10490      16.25654     160.54935      17.51429      17.00000 
   3083.99583       1.03627      48.15133      26.96896      42.97912      49.04454      41.43273      13.00000 
   3081.99583       1.42871      48.14939      26.96701      52.43373      48.78986      50.88557      11.00000 
   3079.99583       0.84882      39.57147      18.38910      37.67779      40.32795      36.02842      10.00000 
   3077.99583       0.29846     169.89810     156.16086      14.59156     172.31691      16.18443      16.00000 
   3075.99583       0.20518     161.74341     148.00615       9.79341     166.34343      11.29339      17.00000 
   3073.99583       0.20614     150.50101     136.76378       9.72242     156.58810      11.04223      17.00000 
   3071.99583       0.19326     149.90132     136.62886       9.59827     156.08841      10.91959      17.00000 
   3069.99583       0.20556     149.57332     135.60150      10.37702     155.51852      11.69033      17.00000 
