~VERSION INFORMATION
VERS.           2.0   :CWLS Log ASCII Standard - VERSION 2.0
WRAP.           YES   :Multiple lines per depth step
PROD.  Schlumberger   :LAS Producer
PROG.  DLIS to ASCII 19C0-187                          :LAS Program name and version
CREA.        2011/01/03 01:37                          :LAS Creation date {YYYY/MM/DD hh:mm}
DLIS_CREA.  2011-Jan-03 01:12                          :DLIS Creation date and time {YYYY-MMM-DD hh:mm}
SOURCE.     BC0W-00120_VENOCO_HAMES_VALLEY_1-35_FPEX_HRLA_HNGS_068PUP.DLIS  :DLIS File Name
FILE-ID.     TLD_MCFL_CNL_NGS_068PUP                   :File Identification Number
#--------------------------------------------------
~WELL INFORMATION
#MNEM.UNIT      DATA             DESCRIPTION
#---- ------ --------------   -----------------------------
STRT .F         5235.0       :START DEPTH     
STOP .F           78.5       :STOP DEPTH     
STEP .F           -0.5       :STEP     
NULL .          -999.25      :NULL VALUE
COMP .        VENOCO, INC.                             :COMPANY
WELL .        HAMES VALLEY 1-35                        :WELL
FLD  .        HAMES VALLEY                             :FIELD
LOC  .        LAT: 35.889467                           :LOCATION
CNTY .        MONTEREY                                 :COUNTY
STAT .        CALIFORNIA                               :STATE
CTRY .                                                 :COUNTRY
API  .        040532205900                             :API NUMBER
UWI  .        040532205900                             :UNIQUE WELL ID
DATE .        02-Jan-2011                              :LOG DATE {DD-MMM-YYYY}
SRVC .        Schlumberger                             :SERVICE COMPANY
LATI .DEG                                              :LATITUDE
LONG .DEG                                              :LONGITUDE
GDAT .                                                 :GeoDetic Datum
SECT .        35                                       :Section
RANG .        10E                                      :Range
TOWN .        23S                                      :Township
#-----------------------------------------------------------------------------
~PARAMETER INFORMATION
#MNEM.UNIT    VALUE                      DESCRIPTION
#---- -----   --------------------       ------------------------
RUN  .          ONE                      :RUN NUMBER
PDAT .        GROUND LEVEL               :Permanent Datum
EPD  .F         1002.000000              :Elevation of Permanent Datum above Mean Sea Level
LMF  .          KELLY BUSHING            :Logging Measured From (Name of Logging Elevation Reference)
APD  .F          23.000000               :Elevation of Depth Reference (LMF) above Permanent Datum
#-----------------------------------------------------------------------------
~CURVE INFORMATION
#MNEM.UNIT   API CODE                                  DESCRIPTION
#---- -----  --------                                  -----------------------
DEPT .F                                                :DEPTH (BOREHOLE) {F10.1}
BS   .IN                                               :Bit Size {F13.4}
CDF  .LBF                                              :Calibrated Downhole Force {F13.4}
DF   .LBF                                              :Uncalibrated Downhole Force {F13.4}
GR   .GAPI                                             :Gamma Ray {F13.4}
HBHK .CFCF                                             :HNGS Borehole Potassium Concentration {F13.4}
HCAL .IN                                               :HRCC Cal. Caliper {F13.4}
HCGR .GAPI                                             :HNGS Computed Gamma Ray {F13.4}
HDRA .G/C3                                             :HRDD Density Correction {F13.4}
HFK  .CFCF                                             :HNGS Formation Potassium Concentration {F13.4}
HMIN .OHMM                                             :MCFL Micro Inverse Resistivity {F13.4}
HMNO .OHMM                                             :MCFL Micro Normal Resistivity {F13.4}
HSGR .GAPI                                             :HNGS Standard Gamma Ray {F13.4}
HTHO .PPM                                              :HNGS Formation Thorium Concentration {F13.4}
HTPR .                                                 :HNGS Thorium/Potassium Ratio {F13.4}
HTUR .                                                 :HNGS Thorium/Uranium Ratio {F13.4}
HURA .PPM                                              :HNGS Formation Uranium Concentration {F13.4}
ICV  .F3                                               :Integrated Cement Volume {F13.4}
IHV  .F3                                               :Integrated Hole Volume {F13.4}
PEFZ .                                                 :HRDD Standard Resolution Formation Photoelectric Factor {F13.4}
RHOZ .G/C3                                             :HRDD Standard Resolution Formation Density {F13.4}
RLA1 .OHMM                                             :HRLT Borehole Corrected Resistivity 1 {F13.4}
RLA2 .OHMM                                             :HRLT Borehole Corrected Resistivity 2 {F13.4}
RLA3 .OHMM                                             :HRLT Borehole Corrected Resistivity 3 {F13.4}
RLA4 .OHMM                                             :HRLT Borehole Corrected Resistivity 4 {F13.4}
RLA5 .OHMM                                             :HRLT Borehole Corrected Resistivity 5 {F13.4}
RXOZ .OHMM                                             :MCFL Standard Resolution Invaded Zone Resistivity {F13.4}
SP   .MV                                               :SP Shifted {F13.4}
TENS .LBF                                              :Cable Tension {F13.4}
TNPH .CFCF                                             :Thermal Neutron Porosity {F13.4}
#-----------------------------------------------------------------------------
# DEPT       
#     BS           CDF          DF           GR_EDTC      HBHK         HCAL         
#     HCGR         HDRA         HFK          HMIN         HMNO         HSGR         
#     HTHO         HTPR         HTUR         HURA         ICV          IHV          
#     PEFZ         RHOZ         RLA1         RLA2         RLA3         RLA4         
#     RLA5         RXOZ         SP           TENS         TNPH         
~A  
5235.0
     12.2500     375.9413     375.9413      18.4149    -999.2500       3.3058
     54.9575    -999.2500       0.0140       0.4890       0.5825      89.8079
      9.3983       6.7350       1.9395       4.8458       0.0000       0.0000
   -999.2500    -999.2500       1.4050       3.1485       4.2640       4.5204
      5.0495       1.5519     145.6875    2401.0000       0.4122
5234.5
     12.2500     364.3875     364.3875      18.4149    -999.2500       3.3216
     54.9994    -999.2500       0.0140       0.4889       0.5825      89.8764
      9.4056       6.7350       1.9395       4.8496       0.0000       0.0000
   -999.2500    -999.2500       1.4050       3.1485       4.2640       4.5204
      5.0495       1.5464     149.5625    2502.0000       0.4122
5234.0
     12.2500     485.2575     485.2575      18.4149    -999.2500       3.3236
     54.9994    -999.2500       0.0140       0.4928       0.5851      89.8764
      9.4056       6.7350       1.9395       4.8496       0.0000       0.0000
   -999.2500    -999.2500       1.4050       3.1485       4.2640       4.5204
      5.0495       1.5396     151.7500    2618.0000       0.4122
5233.5
     12.2500     534.1387     534.1387      18.4149    -999.2500       3.3058
     54.9945    -999.2500       0.0140       0.5034       0.5940      89.8684
      9.4070       6.7350       1.9395       4.8503       0.0000       0.0000
   -999.2500    -999.2500       1.4050       3.1485       4.2640       4.5204
      5.0495       1.5303     156.0000    2699.0000       0.4122
5233.0
     12.2500     594.5738     594.5738      18.4149    -999.2500       3.3177
     54.9871    -999.2500       0.0140       0.5103       0.6001      89.8563
      9.4121       6.7350       1.9395       4.8530       0.0000       0.0000
   -999.2500    -999.2500       1.4243       3.1863       4.3106       4.5655
      5.0920       1.5261     159.8125    2838.0000       0.4122
5232.5
     12.2500     594.5738     594.5738      18.4149    -999.2500       3.3177
     59.1915    -999.2500       0.0150       0.5123       0.6018      96.7267
     10.1361       6.7350       1.9395       5.2262       0.0000       0.0000
   -999.2500    -999.2500       1.5250       3.3785       4.5450       4.7913
      5.3041       1.5236     161.6875    2896.0000       0.4122
5232.0
     12.2500     813.2062     813.2062      18.4149    -999.2500       6.9024
     67.2178    -999.2500       0.0171       0.5158       0.6045     109.8429
     11.5135       6.7350       1.9395       5.9364       0.0000       0.0000
   -999.2500    -999.2500       1.6819       3.6568       4.8824       5.1160
      5.6047       1.5167     162.3125    3064.0000       0.4122
5231.5
     12.2500     789.2100     789.2100      18.4149    -999.2500      10.6341
     77.3167    -999.2500       0.0197       0.5416       0.6270     126.3459
     13.2465       6.7350       1.9395       6.8299       0.0000       0.0000
   -999.2500    -999.2500       1.8728       3.9002       5.1598       5.3768
      5.8284       1.5096     164.7500    3160.0000       0.4105
5231.0
     12.2500     849.6450     849.6450      18.4149    -999.2500      12.8730
     83.2402   -7974.6613       0.0212       0.5592       0.6431     136.0256
     14.2644       6.7350       1.9395       7.3548       0.1993       0.4519
  -7976.4631   -7975.2443       2.1657       4.1164       5.3504       5.5457
      5.9504       1.5163     167.4375    3275.0000       0.4049
5230.5
     12.2500     934.9650     934.9650      18.4149    -999.2500      12.8889
     85.3410       2.1648       0.0217       0.5766       0.6613     139.4586
     14.6274       6.7350       1.9395       7.5420       0.3997       0.9049
      2.4234       2.2484       2.4645       4.2991       5.4579       5.6315
      6.0038       1.5313     169.4375    3434.0000       0.4048
5230.0
     12.2500     934.9650     934.9650      18.4149    -999.2500      12.9048
     85.3693       2.1648       0.0217       0.5951       0.6793     139.5048
     14.6350       6.7350       1.9395       7.5459       0.6012       1.3590
      2.4234       2.2484       2.5945       4.3706       5.4925       5.6574
      6.0189       1.5469     167.7500    3524.0000       0.4047
5229.5
     12.2500     947.4075     947.4075      18.4149    -999.2500      12.9048
     85.3834       1.6257       0.0217       0.5963       0.6808     139.5278
     14.6400       6.7350       1.9395       7.5484       0.8027       1.8132
      2.4577       2.2529       2.5970       4.3719       5.4931       5.6579
      6.0192       1.5525     169.5000    3492.0000       0.4047
5229.0
     12.2500     995.4000     995.4000      18.4149    -999.2500      12.9048
     85.3834       0.8140       0.0217       0.5972       0.6821     139.5278
     14.6414       6.7350       1.9395       7.5492       1.0042       2.2673
      2.4874       2.2521       2.5980       4.3724       5.4933       5.6581
      6.0193       1.5565     173.2500    3421.0000       0.4047
5228.5
     12.2500     995.4000     995.4000      18.4149    -999.2500      12.9048
     85.3834       0.0048       0.0217       0.5990       0.6839     139.5278
     14.6419       6.7350       1.9395       7.5494       1.2057       2.7214
      2.5200       2.2533       2.5980       4.3724       5.4933       5.6581
      6.0193       1.5599     177.5000    3446.0000       0.4047
5228.0
     12.2500    1007.8425    1007.8425      18.4149    -999.2500      12.9048
     85.3834       0.0054       0.0217       0.6006       0.6857     139.5278
     14.6419       6.7350       1.9395       7.5494       1.4072       3.1756
      2.5262       2.2518       2.5985       4.3727       5.4935       5.6582
      6.0193       1.5624     180.0625    3432.0000       0.4047
5227.5
     12.2500     983.8463     983.8463      18.4149    -999.2500      12.9048
     85.3904       0.0067       0.0217       0.6027       0.6879     139.5394
     14.6431       6.7350       1.9395       7.5501       1.6087       3.6297
      2.5274       2.2567       2.5992       4.3731       5.4937       5.6583
      6.0194       1.5657     179.0000    3490.0000       0.4047
5227.0
     12.2500    1020.2850    1020.2850      18.4149    -999.2500      12.9127
     85.3975       0.0074       0.0217       0.6033       0.6889     139.5509
     14.6443       6.7350       1.9395       7.5507       1.8108       4.0844
      2.5333       2.2592       2.6000       4.3734       5.4938       5.6584
      6.0195       1.5707     180.8125    3429.0000       0.4047
5226.5
     12.2500    1031.8387    1031.8387      18.4149    -999.2500      12.9127
     85.4045       0.0073       0.0217       0.6053       0.6913     139.5624
     14.6455       6.7350       1.9395       7.5513       2.0128       4.5391
      2.5428       2.2581       2.6007       4.3738       5.4940       5.6586
      6.0196       1.5755     182.7500    3373.0000       0.4047
5226.0
     12.2500    1056.7238    1056.7238      18.4149    -999.2500      12.9127
     85.4045       0.0070       0.0217       0.6054       0.6917     139.5624
     14.6456       6.7350       1.9395       7.5513       2.2149       4.9938
      2.5519       2.2554       2.6022       4.3746       5.4944       5.6588
      6.0197       1.5798     184.9375    3414.0000       0.4047
5225.5
     12.2500     922.5225     922.5225      18.4149    -999.2500      12.9127
     85.4186       0.0058       0.0217       0.6044       0.6911     139.5855
     14.6482       6.7350       1.9395       7.5527       2.4169       5.4485
      2.5359       2.2538       2.6047       4.3759       5.4950       5.6593
      6.0200       1.5836     183.5625    3343.0000       0.4047
5225.0
     12.2500    1044.2813    1044.2813      18.4149    -999.2500      12.9286
     85.4468       0.0031       0.0218       0.6026       0.6902     139.6316
     14.6531       6.7350       1.9395       7.5552       2.6201       5.9043
      2.5147       2.2480       2.6107       4.3791       5.4964       5.6603
      6.0206       1.5982     185.8750    3348.0000       0.4046
