~VERSION INFORMATION
VERS.           2.0   :CWLS Log ASCII Standard - VERSION 2.0
WRAP.           NO    :One Line per depth step
PROD.  Schlumberger   :LAS Producer
PROG.  DLIS to ASCII 19C0-187                          :LAS Program name and version
CREA.        2011/01/03 01:40                          :LAS Creation date {YYYY/MM/DD hh:mm}
DLIS_CREA.  2011-Jan-02 17:53                          :DLIS Creation date and time {YYYY-MMM-DD hh:mm}
SOURCE.     BC0W-00120_VENOCO_HAMES_VALLEY_HAMES_VALLEY_1-35_FMI_DSST_MAIN.DLIS  :DLIS File Name
FILE-ID.     FMI_CAL_DSI_028PUP                        :File Identification Number
#--------------------------------------------------
~WELL INFORMATION
#MNEM.UNIT      DATA             DESCRIPTION
#---- ------ --------------   -----------------------------
STRT .F         5241.0       :START DEPTH     
STOP .F         1500.5       :STOP DEPTH     
STEP .F           -0.5       :STEP     
NULL .          -999.25      :NULL VALUE
COMP .        VENOCO, INC.                             :COMPANY
WELL .        HAMES VALLEY 1-35                        :WELL
FLD  .        HAMES VALLEY                             :FIELD
LOC  .        LAT: 35.889467                           :LOCATION
CNTY .        MONTEREY                                 :COUNTY
STAT .        CALIFORNIA                               :STATE
CTRY .                                                 :COUNTRY
API  .        040532205900                             :API NUMBER
UWI  .        040532205900                             :UNIQUE WELL ID
DATE .        02-Jan-2011                              :LOG DATE {DD-MMM-YYYY}
SRVC .        Schlumberger                             :SERVICE COMPANY
LATI .DEG                                              :LATITUDE
LONG .DEG                                              :LONGITUDE
GDAT .                                                 :GeoDetic Datum
SECT .        35                                       :Section
RANG .        10E                                      :Range
TOWN .        23S                                      :Township
#-----------------------------------------------------------------------------
~PARAMETER INFORMATION
#MNEM.UNIT    VALUE                      DESCRIPTION
#---- -----   --------------------       ------------------------
RUN  .          ONE                      :RUN NUMBER
PDAT .        GROUND LEVEL               :Permanent Datum
EPD  .F         1002.000000              :Elevation of Permanent Datum above Mean Sea Level
LMF  .          KELLY BUSHING            :Logging Measured From (Name of Logging Elevation Reference)
APD  .F          23.000000               :Elevation of Depth Reference (LMF) above Permanent Datum
#-----------------------------------------------------------------------------
~CURVE INFORMATION
#MNEM.UNIT   API CODE                                  DESCRIPTION
#---- -----  --------                                  -----------------------
DEPT .F                                                :DEPTH (BOREHOLE) {F10.1}
BS   .IN                                               :Bit Size {F13.4}
CDF  .LBF                                              :Calibrated Downhole Force {F13.4}
DF   .LBF                                              :Uncalibrated Downhole Force {F13.4}
DTCO .US/F                                             :Delta-T Compressional {F13.4}
DTSM .US/F                                             :Delta-T Shear {F13.4}
GR_EDTC.GAPI                                           :EDTC Gamma Ray {F13.4}
HD1_PPC1.IN                                            :PPC1 Hole Diameter 1 {F13.4}
HD1_PPC2.IN                                            :PPC2 Hole Diameter 1 {F13.4}
HD2_PPC1.IN                                            :PPC1 Hole Diameter 2 {F13.4}
HD2_PPC2.IN                                            :PPC2 Hole Diameter 2 {F13.4}
ICV  .F3                                               :Integrated Cement Volume {F13.4}
IHV  .F3                                               :Integrated Hole Volume {F13.4}
ITT  .S                                                :Integrated Transit Time {F13.4}
SPHI .CFCF                                             :Sonic Porosity {F13.4}
TENS .LBF                                              :Cable Tension {F13.4}
#-----------------------------------------------------------------------------
# 
#     DEPT        BS           CDF          DF           DTCO         DTSM       GR_EDTC      HD1_PPC1     HD1_PPC2     HD2_PPC1     HD2_PPC2       ICV          IHV          ITT          SPHI         TENS
#
~A  
# ...
    4753.5      12.2500    1275.3563    1275.3563     106.7597     156.9426      79.4839      13.1783      13.2546      13.5603      13.3089     128.9687     370.4810       0.0493       0.2972    3411.0000
    4753.0      12.2500    1299.3525    1299.3525     107.1452     156.4326      80.8019      13.0840      13.1265      13.2172      13.1682     129.1878     370.9527       0.0493       0.2983    3569.0000
    4752.5      12.2500    1287.7988    1287.7988     108.5885     160.6773      82.0960      12.8526      12.9756      13.1939      13.7050     129.3977     371.4152       0.0494       0.3027    3528.0000
    4752.0      12.2500    1275.3563    1275.3563     108.0585     159.0682      85.8405      13.0315      12.9439      13.9368      13.9594     129.6405     371.9106       0.0494       0.3011    3437.0000
    4751.5      12.2500    1311.7950    1311.7950     107.4814     158.8032      86.9603      13.0211      13.2216      13.9368      13.5688     129.8828     372.4056       0.0495       0.2994    3535.0000
    4751.0      12.2500    1287.7988    1287.7988     107.0424     158.3587      87.1468      13.1188      13.2976      13.8437      12.8142     130.1256     372.9010       0.0495       0.2980    3576.0000
    4750.5      12.2500    1275.3563    1275.3563     107.4382     158.5891      83.4535      12.9789      13.2145      12.8238      12.8973     130.3270     373.3550       0.0496       0.2992    3449.0000
    4750.0      12.2500    1287.7988    1287.7988     107.3835     160.4415      83.4416      12.9158      13.0724      12.7643      12.8378     130.5240     373.8047       0.0496       0.2991    3475.0000
    4749.5      12.2500    1311.7950    1311.7950     109.0635     158.9672      85.6515      12.8948      12.9127      13.0155      13.2620     130.7292     374.2625       0.0497       0.3041    3620.0000
    4749.0      12.2500    1262.9138    1262.9138     109.4673     160.1834      91.7545      12.9580      12.9658      13.2407      13.0262     130.9445     374.7305       0.0497       0.3053    3432.0000
    4748.5      12.2500    1262.9138    1262.9138     106.9756     159.8950      89.4279      12.7786      12.9548      13.2169      12.9555     131.1526     375.1911       0.0498       0.2978    3342.0000
    4748.0      12.2500    1299.3525    1299.3525     104.6099     164.3670      86.3639      12.7786      12.8797      13.0745      13.0964     131.3557     375.6468       0.0499       0.2904    3483.0000
    4747.5      12.2500    1299.3525    1299.3525     101.7754    -999.2500      82.5881      12.7818      12.9029      12.7163      12.7906     131.5464     376.0902       0.0499       0.2811    3589.0000
    4747.0      12.2500    1275.3563    1275.3563      92.1808     174.3555      76.3413      12.8028      12.9009      12.5961      12.8017     131.7336     376.5301       0.0499       0.2453    3455.0000
    4746.5      12.2500    1262.9138    1262.9138      92.0813     179.3498      69.1243      12.8134      12.8992      12.6080      12.8012     131.9216     376.9707       0.0500       0.2449    3444.0000
    4746.0      12.2500    1275.3563    1275.3563      91.4739     173.6940      64.5441      12.8134      12.9009      12.6083      12.8138     132.1097     377.4114       0.0500       0.2424    3496.0000
    4745.5      12.2500    1275.3563    1275.3563      92.1405     171.8672      74.1804      12.8450      12.9139      12.4514      12.7790     132.2933     377.8476       0.0501       0.2451    3506.0000
    4745.0      12.2500    1251.3600    1251.3600     107.1592    -999.2500      88.0498      12.8345      12.8688      12.4997      12.7544     132.4783     378.2852       0.0501       0.2984    3440.0000
    4744.5      12.2500    1262.9138    1262.9138     108.4294    -999.2500     106.7504      12.8240      12.8151      12.4997      12.8138     132.6629     378.7224       0.0502       0.3022    3465.0000
    4744.0      12.2500    1262.9138    1262.9138     109.4016    -999.2500     116.7954      13.0136      13.0087      12.7884      13.0980     132.8642     379.1764       0.0502       0.3051    3444.0000
    4743.5      12.2500    1262.9138    1262.9138     109.5404    -999.2500     118.9545      12.9473      12.9978      12.6678      13.0857     133.0589     379.6237       0.0503       0.3055    3397.0000
    4743.0      12.2500    1287.7988    1287.7988     105.9479    -999.2500     111.0242      12.9399      12.9139      12.6802      13.0266     133.2539     380.0713       0.0504       0.2946    3507.0000
    4742.5      12.2500    1262.9138    1262.9138     103.8379    -999.2500     105.7374      12.9473      13.0411      12.6440      12.8851     133.4478     380.5178       0.0504       0.2879    3432.0000
    4742.0      12.2500    1238.9175    1238.9175     103.1769    -999.2500     103.9515      12.9820      13.0407      12.5961      12.8847     133.6412     380.9639       0.0505       0.2858    3345.0000
    4741.5      12.2500    1275.3563    1275.3563     101.2401    -999.2500     104.1278      12.9820      13.0513      12.5479      12.8611     133.8329     381.4082       0.0505       0.2793    3415.0000
    4741.0      12.2500    1275.3563    1275.3563     103.0052    -999.2500     105.8901      13.0347      13.0622      12.6323      12.9323     134.0294     381.8573       0.0506       0.2852    3492.0000
    4740.5      12.2500    1262.9138    1262.9138     104.2683    -999.2500     111.2850      12.9998      13.0087      12.6440      12.9675     134.2251     382.3057       0.0506       0.2893    3457.0000
    4740.0      12.2500    1287.7988    1287.7988     104.5290    -999.2500     111.3145      13.0104      13.0942      12.6440      13.0973     134.4211     382.7544       0.0507       0.2902    3517.0000
    4739.5      12.2500    1262.9138    1262.9138     105.2946    -999.2500     114.1342      13.0314      13.0622      12.7880      13.0737     134.6230     383.2089       0.0507       0.2926    3500.0000
    4739.0      12.2500    1238.9175    1238.9175     107.1279    -999.2500     113.7610      12.9609      13.0193      12.6080      12.9439     134.8161     383.6546       0.0508       0.2983    3380.0000
    4738.5      12.2500    1251.3600    1251.3600     107.4603    -999.2500     121.1153      12.9820      13.0407      12.6199      12.9439     135.0104     384.1015       0.0508       0.2993    3393.0000
    4738.0      12.2500    1262.9138    1262.9138     106.4654    -999.2500     118.2957      12.9820      13.0302      12.6321      12.9439     135.2050     384.5488       0.0509       0.2963    3418.0000
    4737.5      12.2500    1262.9138    1262.9138     107.3566    -999.2500     118.1091      12.9789      12.9978      12.5716      12.8611     135.3975     384.9938       0.0509       0.2990    3424.0000
    4737.0      12.2500    1324.2375    1324.2375     108.0881    -999.2500     111.0778      12.9263      12.9872      12.5959      12.8973     135.5889     385.4379       0.0510       0.3012    3530.0000
    4736.5      12.2500    1311.7950    1311.7950     107.8081    -999.2500     112.8401      12.9293      12.9767      12.5961      12.8967     135.7805     385.8821       0.0510       0.3003    3654.0000
    4736.0      12.2500    1202.4788    1202.4788     107.0575    -999.2500     111.3767      12.9293      12.9982      12.6083      12.8731     135.9725     386.3268       0.0511       0.2981    3288.0000
    4735.5      12.2500    1214.9213    1214.9213     106.4659    -999.2500     117.3684      12.9054      12.9333      12.5719      12.8853     136.1625     386.7693       0.0511       0.2963    3310.0000
    4735.0      12.2500    1262.9138    1262.9138     106.5346    -999.2500     118.4691      12.8977      12.9333      12.5961      12.8851     136.3530     387.2125       0.0512       0.2965    3451.0000
    4734.5      12.2500    1251.3600    1251.3600     106.7160    -999.2500     117.9404      12.8977      12.9552      12.5961      12.8851     136.5435     387.6556       0.0513       0.2970    3549.0000
