~VERSION INFORMATION
VERS.           2.0   :CWLS Log ASCII Standard - VERSION 2.0
WRAP.           NO    :One Line per depth step
PROD.  Schlumberger   :LAS Producer
PROG.  DLIS to ASCII 19C0-187                          :LAS Program name and version
CREA.        2011/01/03 01:40                          :LAS Creation date {YYYY/MM/DD hh:mm}
DLIS_CREA.  2011-Jan-02 17:53                          :DLIS Creation date and time {YYYY-MMM-DD hh:mm}
SOURCE.     BC0W-00120_VENOCO_HAMES_VALLEY_HAMES_VALLEY_1-35_FMI_DSST_MAIN.DLIS  :DLIS File Name
FILE-ID.     FMI_CAL_DSI_028PUP                        :File Identification Number
#--------------------------------------------------
~WELL INFORMATION
#MNEM.UNIT      DATA             DESCRIPTION
#---- ------ --------------   -----------------------------
STRT .F         5241.0       :START DEPTH     
STOP .F         1500.5       :STOP DEPTH     
STEP .F           -0.5       :STEP     
NULL .          -999.25      :NULL VALUE
COMP .        VENOCO, INC.                             :COMPANY
WELL .        HAMES VALLEY 1-35                        :WELL
FLD  .        HAMES VALLEY                             :FIELD
LOC  .        LAT: 35.889467                           :LOCATION
CNTY .        MONTEREY                                 :COUNTY
STAT .        CALIFORNIA                               :STATE
CTRY .                                                 :COUNTRY
API  .        040532205900                             :API NUMBER
UWI  .        040532205900                             :UNIQUE WELL ID
DATE .        02-Jan-2011                              :LOG DATE {DD-MMM-YYYY}
SRVC .        Schlumberger                             :SERVICE COMPANY
LATI .DEG                                              :LATITUDE
LONG .DEG                                              :LONGITUDE
GDAT .                                                 :GeoDetic Datum
SECT .        35                                       :Section
RANG .        10E                                      :Range
TOWN .        23S                                      :Township
#-----------------------------------------------------------------------------
~PARAMETER INFORMATION
#MNEM.UNIT    VALUE                      DESCRIPTION
#---- -----   --------------------       ------------------------
RUN  .          ONE                      :RUN NUMBER
PDAT .        GROUND LEVEL               :Permanent Datum
EPD  .F         1002.000000              :Elevation of Permanent Datum above Mean Sea Level
LMF  .          KELLY BUSHING            :Logging Measured From (Name of Logging Elevation Reference)
APD  .F          23.000000               :Elevation of Depth Reference (LMF) above Permanent Datum
#-----------------------------------------------------------------------------
~CURVE INFORMATION
#MNEM.UNIT   API CODE                                  DESCRIPTION
#---- -----  --------                                  -----------------------
DEPT .F                                                :DEPTH (BOREHOLE) {F10.1}
BS   .IN                                               :Bit Size {F13.4}
CDF  .LBF                                              :Calibrated Downhole Force {F13.4}
DF   .LBF                                              :Uncalibrated Downhole Force {F13.4}
DTCO .US/F                                             :Delta-T Compressional {F13.4}
DTSM .US/F                                             :Delta-T Shear {F13.4}
GR_EDTC.GAPI                                           :EDTC Gamma Ray {F13.4}
HD1_PPC1.IN                                            :PPC1 Hole Diameter 1 {F13.4}
HD1_PPC2.IN                                            :PPC2 Hole Diameter 1 {F13.4}
HD2_PPC1.IN                                            :PPC1 Hole Diameter 2 {F13.4}
HD2_PPC2.IN                                            :PPC2 Hole Diameter 2 {F13.4}
ICV  .F3                                               :Integrated Cement Volume {F13.4}
IHV  .F3                                               :Integrated Hole Volume {F13.4}
ITT  .S                                                :Integrated Transit Time {F13.4}
SPHI .CFCF                                             :Sonic Porosity {F13.4}
TENS .LBF                                              :Cable Tension {F13.4}
#-----------------------------------------------------------------------------
# 
#     DEPT        BS           CDF          DF           DTCO         DTSM       GR_EDTC      HD1_PPC1     HD1_PPC2     HD2_PPC1     HD2_PPC2       ICV          IHV          ITT          SPHI         TENS
#
~A  
# ...
    2004.0      12.2500    1214.9213    1214.9213     150.5564    -999.2500      67.9167      13.4007      13.3790      13.0366      13.3401    1250.4486    2881.1658       0.3585       0.3925    2432.0000
    2003.5      12.2500    1202.4788    1202.4788     151.1884    -999.2500      63.2631      13.4526      13.4641      13.1437      13.4453    1250.6782    2881.6479       0.3586       0.3935    2463.0000
    2003.0      12.2500    1177.5938    1177.5938     152.1980    -999.2500      61.8753      13.6596      13.6740      13.0609      13.3624    1250.9121    2882.1345       0.3587       0.3950    2334.0000
    2002.5      12.2500    1226.4750    1226.4750     151.4799    -999.2500      64.5167      13.6702      13.6028      12.9534      13.2934    1251.1425    2882.6174       0.3587       0.3939    2482.0000
    2002.0      12.2500    1202.4788    1202.4788     150.2862    -999.2500      61.5241      13.5356      13.5281      13.0008      13.3167    1251.3698    2883.0974       0.3588       0.3921    2428.0000
    2001.5      12.2500    1226.4750    1226.4750     149.8187    -999.2500      62.9336      13.5218      13.8762      12.9884      13.3401    1251.5962    2883.5764       0.3589       0.3914    2489.0000
    2001.0      12.2500    1190.0363    1190.0363     149.9300    -999.2500      69.7227      13.8562      13.8347      13.0606      13.2585    1251.8372    2884.0701       0.3590       0.3916    2478.0000
    2000.5      12.2500    1190.0363    1190.0363     149.6586    -999.2500      75.2288      13.8047      13.2833      12.9536      13.1179    1252.0723    2884.5579       0.3590       0.3911    2430.0000
    2000.0      12.2500    1177.5938    1177.5938     149.9011    -999.2500      74.8559      13.3350      13.3260      12.8461      13.1418    1252.2869    2885.0251       0.3591       0.3915    2449.0000
    1999.5      12.2500    1190.0363    1190.0363     150.1984    -999.2500      71.3731      13.3556      13.4735      12.8218      13.0474    1252.5013    2885.4922       0.3592       0.3920    2410.0000
    1999.0      12.2500    1177.5938    1177.5938     152.1840    -999.2500      71.6095      13.5009      13.5167      12.7741      13.0594    1252.7191    2885.9626       0.3593       0.3950    2447.0000
    1998.5      12.2500    1166.0400    1166.0400     153.0817    -999.2500      79.0979      13.4213      13.3364      12.8101      13.0359    1252.9354    2886.4316       0.3593       0.3964    2365.0000
    1998.0      12.2500    1214.9213    1214.9213     154.1951    -999.2500      79.3840      13.3763      13.4856      12.8218      13.1064    1253.1505    2886.8994       0.3594       0.3980    2489.0000
    1997.5      12.2500    1177.5938    1177.5938     154.9880    -999.2500      77.9033      13.3069      13.2725      12.7983      13.1059    1253.3624    2887.3640       0.3595       0.3992    2399.0000
    1997.0      12.2500    1214.9213    1214.9213     155.0883    -999.2500      76.5155      13.3243      13.3368      12.8218      13.1298    1253.5758    2887.8301       0.3596       0.3993    2431.0000
    1996.5      12.2500    1177.5938    1177.5938     155.1575    -999.2500      76.7509      13.3797      13.2938      12.8821      13.1648    1253.7932    2888.3000       0.3597       0.3994    2408.0000
    1996.0      12.2500    1214.9213    1214.9213     154.3943    -999.2500      80.3196      13.2652      13.2830      12.9057      13.1414    1254.0074    2888.7668       0.3597       0.3983    2392.0000
    1995.5      12.2500    1166.0400    1166.0400     152.3215    -999.2500      71.2775      13.2757      13.3260      12.9057      13.1414    1254.2222    2889.2341       0.3598       0.3952    2510.0000
    1995.0      12.2500    1202.4788    1202.4788     149.0636    -999.2500      73.1553      13.2652      13.3047      12.9059      13.1298    1254.4364    2889.7012       0.3599       0.3902    2412.0000
    1994.5      12.2500    1177.5938    1177.5938     146.4425    -999.2500      69.2899      13.3174      13.3685      12.8700      13.0834    1254.6512    2890.1687       0.3600       0.3860    2565.0000
    1994.0      12.2500    1226.4750    1226.4750     146.3218    -999.2500      72.8425      13.3486      13.5036      12.8101      13.0582    1254.8650    2890.6350       0.3600       0.3858    2301.0000
    1993.5      12.2500    1177.5938    1177.5938     145.8942    -999.2500      68.8572      13.3486      13.4006      12.7983      13.0359    1255.0782    2891.1008       0.3601       0.3851    2462.0000
    1993.0      12.2500    1238.9175    1238.9175     146.2190    -999.2500      74.4711      13.5218      13.5072      12.7977      13.0359    1255.2976    2891.5728       0.3602       0.3856    2444.0000
    1992.5      12.2500    1177.5938    1177.5938     147.4015    -999.2500      75.7390      13.5978      14.1259      12.8222      13.0702    1255.5205    2892.0483       0.3602       0.3876    2546.0000
    1992.0      12.2500    1202.4788    1202.4788     148.3185    -999.2500      79.1157      13.5668      13.7370      12.7865      13.0697    1255.7410    2892.5215       0.3603       0.3890    2302.0000
    1991.5      12.2500    1226.4750    1226.4750     148.2014    -999.2500      70.9245      13.7118      13.7291      12.7628      13.1298    1255.9657    2892.9988       0.3604       0.3888    2591.0000
    1991.0      12.2500    1190.0363    1190.0363     148.2708    -999.2500      73.0645      13.4075      13.4111      12.8097      13.1298    1256.1815    2893.4673       0.3605       0.3889    2434.0000
    1990.5      12.2500    1226.4750    1226.4750     149.7327    -999.2500      67.9675      13.3902      13.3256      12.8101      13.1648    1256.3967    2893.9351       0.3605       0.3913    2546.0000
    1990.0      12.2500    1166.0400    1166.0400     149.2097    -999.2500      72.5274      13.6667      13.3260      12.8097      13.1529    1256.6216    2894.4126       0.3606       0.3904    2440.0000
    1989.5      12.2500    1214.9213    1214.9213     151.3392    -999.2500      67.6843      13.4005      13.2809      12.8703      13.1405    1256.8394    2894.8831       0.3607       0.3937    2466.0000
    1989.0      12.2500    1202.4788    1202.4788     151.9404    -999.2500      77.1935      13.2235      13.2938      12.7983      13.1179    1257.0483    2895.3447       0.3608       0.3946    2363.0000
    1988.5      12.2500    1275.3563    1275.3563     152.4643    -999.2500      79.3744      13.2514      13.2938      12.8097      13.0829    1257.2587    2895.8076       0.3608       0.3954    2683.0000
    1988.0      12.2500    1190.0363    1190.0363     155.2837    -999.2500      82.0775      13.2337      13.2512      12.7865      13.0474    1257.4675    2896.2690       0.3609       0.3996    2256.0000
    1987.5      12.2500    1214.9213    1214.9213     156.9545    -999.2500      80.2315      13.2547      13.2938      12.7983      13.0359    1257.6776    2896.7317       0.3610       0.4020    2605.0000
    1987.0      12.2500    1177.5938    1177.5938     156.8166    -999.2500      85.5844      13.2964      13.3581      12.7623      13.0474    1257.8878    2897.1946       0.3611       0.4018    2384.0000
    1986.5      12.2500    1226.4750    1226.4750     157.6328    -999.2500      85.3731      13.3069      13.3898      12.7505      13.0004    1258.0979    2897.6572       0.3612       0.4030    2511.0000
    1986.0      12.2500    1214.9213    1214.9213     156.6908    -999.2500      82.3838      13.2932      13.4536      12.7020      12.9889    1258.3058    2898.1177       0.3612       0.4016    2479.0000
    1985.5      12.2500    1251.3600    1251.3600     153.5245    -999.2500      77.8177      13.2757      13.3155      12.7383      13.0244    1258.5144    2898.5789       0.3613       0.3970    2716.0000
    1985.0      12.2500    1177.5938    1177.5938     150.1713    -999.2500      81.4576      13.3069      13.3148      12.7265      13.0239    1258.7236    2899.0408       0.3614       0.3919    2287.0000
