~VERSION INFORMATION
VERS.           2.0   :CWLS Log ASCII Standard - VERSION 2.0
WRAP.           YES   :Multiple lines per depth step
PROD.  Schlumberger   :LAS Producer
PROG.  DLIS to ASCII 19C0-187                          :LAS Program name and version
CREA.        2011/01/03 01:37                          :LAS Creation date {YYYY/MM/DD hh:mm}
DLIS_CREA.  2011-Jan-03 01:12                          :DLIS Creation date and time {YYYY-MMM-DD hh:mm}
SOURCE.     BC0W-00120_VENOCO_HAMES_VALLEY_1-35_FPEX_HRLA_HNGS_068PUP.DLIS  :DLIS File Name
FILE-ID.     TLD_MCFL_CNL_NGS_068PUP                   :File Identification Number
#--------------------------------------------------
~WELL INFORMATION
#MNEM.UNIT      DATA             DESCRIPTION
#---- ------ --------------   -----------------------------
STRT .F         5235.0       :START DEPTH     
STOP .F           78.5       :STOP DEPTH     
STEP .F           -0.5       :STEP     
NULL .          -999.25      :NULL VALUE
COMP .        VENOCO, INC.                             :COMPANY
WELL .        HAMES VALLEY 1-35                        :WELL
FLD  .        HAMES VALLEY                             :FIELD
LOC  .        LAT: 35.889467                           :LOCATION
CNTY .        MONTEREY                                 :COUNTY
STAT .        CALIFORNIA                               :STATE
CTRY .                                                 :COUNTRY
API  .        040532205900                             :API NUMBER
UWI  .        040532205900                             :UNIQUE WELL ID
DATE .        02-Jan-2011                              :LOG DATE {DD-MMM-YYYY}
SRVC .        Schlumberger                             :SERVICE COMPANY
LATI .DEG                                              :LATITUDE
LONG .DEG                                              :LONGITUDE
GDAT .                                                 :GeoDetic Datum
SECT .        35                                       :Section
RANG .        10E                                      :Range
TOWN .        23S                                      :Township
#-----------------------------------------------------------------------------
~PARAMETER INFORMATION
#MNEM.UNIT    VALUE                      DESCRIPTION
#---- -----   --------------------       ------------------------
RUN  .          ONE                      :RUN NUMBER
PDAT .        GROUND LEVEL               :Permanent Datum
EPD  .F         1002.000000              :Elevation of Permanent Datum above Mean Sea Level
LMF  .          KELLY BUSHING            :Logging Measured From (Name of Logging Elevation Reference)
APD  .F          23.000000               :Elevation of Depth Reference (LMF) above Permanent Datum
#-----------------------------------------------------------------------------
~CURVE INFORMATION
#MNEM.UNIT   API CODE                                  DESCRIPTION
#---- -----  --------                                  -----------------------
DEPT .F                                                :DEPTH (BOREHOLE) {F10.1}
BS   .IN                                               :Bit Size {F13.4}
CDF  .LBF                                              :Calibrated Downhole Force {F13.4}
DF   .LBF                                              :Uncalibrated Downhole Force {F13.4}
GR   .GAPI                                             :Gamma Ray {F13.4}
HBHK .CFCF                                             :HNGS Borehole Potassium Concentration {F13.4}
HCAL .IN                                               :HRCC Cal. Caliper {F13.4}
HCGR .GAPI                                             :HNGS Computed Gamma Ray {F13.4}
HDRA .G/C3                                             :HRDD Density Correction {F13.4}
HFK  .CFCF                                             :HNGS Formation Potassium Concentration {F13.4}
HMIN .OHMM                                             :MCFL Micro Inverse Resistivity {F13.4}
HMNO .OHMM                                             :MCFL Micro Normal Resistivity {F13.4}
HSGR .GAPI                                             :HNGS Standard Gamma Ray {F13.4}
HTHO .PPM                                              :HNGS Formation Thorium Concentration {F13.4}
HTPR .                                                 :HNGS Thorium/Potassium Ratio {F13.4}
HTUR .                                                 :HNGS Thorium/Uranium Ratio {F13.4}
HURA .PPM                                              :HNGS Formation Uranium Concentration {F13.4}
ICV  .F3                                               :Integrated Cement Volume {F13.4}
IHV  .F3                                               :Integrated Hole Volume {F13.4}
PEFZ .                                                 :HRDD Standard Resolution Formation Photoelectric Factor {F13.4}
RHOZ .G/C3                                             :HRDD Standard Resolution Formation Density {F13.4}
RLA1 .OHMM                                             :HRLT Borehole Corrected Resistivity 1 {F13.4}
RLA2 .OHMM                                             :HRLT Borehole Corrected Resistivity 2 {F13.4}
RLA3 .OHMM                                             :HRLT Borehole Corrected Resistivity 3 {F13.4}
RLA4 .OHMM                                             :HRLT Borehole Corrected Resistivity 4 {F13.4}
RLA5 .OHMM                                             :HRLT Borehole Corrected Resistivity 5 {F13.4}
RXOZ .OHMM                                             :MCFL Standard Resolution Invaded Zone Resistivity {F13.4}
SP   .MV                                               :SP Shifted {F13.4}
TENS .LBF                                              :Cable Tension {F13.4}
TNPH .CFCF                                             :Thermal Neutron Porosity {F13.4}
#-----------------------------------------------------------------------------
# DEPT       
#     BS           CDF          DF           GR_EDTC      HBHK         HCAL         
#     HCGR         HDRA         HFK          HMIN         HMNO         HSGR         
#     HTHO         HTPR         HTUR         HURA         ICV          IHV          
#     PEFZ         RHOZ         RLA1         RLA2         RLA3         RLA4         
#     RLA5         RXOZ         SP           TENS         TNPH         
~A  
# ...
1801.5
     12.2500     934.9650     934.9650      76.4679       0.0130      13.3732
     70.3151      -0.0094       0.0274       0.3999       0.3699      91.1773
      6.5288       2.3861       2.1959       2.9732    1319.5070    3052.5415
      1.8719       1.5914       1.4396       1.8891       2.2682       2.4329
      2.7073       0.5443     -45.3125    2066.0000       0.5892
1801.0
     12.2500     958.9612     958.9612      76.8530       0.0130      13.2780
     66.8017      -0.0098       0.0264       0.3673       0.3341      88.6257
      5.9586       2.2561       1.9487       3.0578    1319.7351    3053.0222
      1.8839       1.5881       1.3544       1.7623       2.1015       2.2404
      2.5039       0.5166     -45.8750    2143.0000       0.5314
1800.5
     12.2500     934.9650     934.9650      74.3205       0.0130      13.1351
     61.2000      -0.0096       0.0245       0.4142       0.3775      83.9047
      5.2724       2.1507       1.6687       3.1596    1319.9530    3053.4927
      1.8807       1.5951       1.3184       1.7208       2.0349       2.1617
      2.4255       0.5708     -46.0000    2033.0000       0.5555
1800.0
     12.2500     934.9650     934.9650      77.3245       0.0130      13.1192
     61.5268      -0.0091       0.0234       0.4842       0.4549      82.0389
      6.0272       2.5753       2.0376       2.9580    1320.1697    3053.9619
      1.8799       1.6049       1.4383       1.9841       2.4073       2.5650
      2.8988       0.5860     -46.1250    2131.0000       0.5835
1799.5
     12.2500     934.9650     934.9650      80.0201       0.0130      13.0239
     63.1136      -0.0075       0.0235       0.3852       0.3532      81.6924
      6.4974       2.7684       2.3990       2.7084    1320.3796    3054.4246
      1.8674       1.6109       1.3733       1.8629       2.2325       2.3699
      2.6900       0.5421     -46.1250    2120.0000       0.5934
1799.0
     12.2500     934.9650     934.9650      78.8648       0.0130      12.9604
     65.0506      -0.0067       0.0247       0.3791       0.3366      82.1333
      6.3775       2.5783       2.4546       2.5982    1320.5851    3054.8826
      1.8452       1.6055       1.2492       1.6437       1.9287       2.0291
      2.3125       0.4979     -45.7500    2107.0000       0.5380
1798.5
     12.2500     958.9612     958.9612      71.8429       0.0130      12.9127
     66.6572      -0.0057       0.0257       0.4023       0.3616      83.7115
      6.3478       2.4733       2.4167       2.6267    1320.7871    3055.3372
      1.8334       1.6019       1.3422       1.7924       2.1453       2.2645
      2.5948       0.4877     -45.6875    2120.0000       0.4745
1798.0
     12.2500     947.4075     947.4075      70.7199       0.0130      12.8929
     65.2550      -0.0061       0.0260       0.3761       0.3371      84.2985
      5.7189       2.2020       2.0063       2.8504    1320.9878    3055.7905
      1.8331       1.6019       1.3405       1.7346       2.0486       2.1626
      2.4832       0.5216     -45.3750    2124.0000       0.4806
1797.5
     12.2500     934.9650     934.9650      71.8691       0.0130      12.8572
     65.6559      -0.0082       0.0267       0.4403       0.3942      86.1546
      5.4235       2.0316       1.7543       3.0915    1321.1859    3056.2412
      1.8291       1.6039       1.3820       1.8257       2.1597       2.2957
      2.6342       0.5171     -45.5000    2083.0000       0.4994
1797.0
     12.2500     947.4075     947.4075      71.8436       0.0130      12.8333
     64.9687      -0.0091       0.0262       0.3921       0.3518      82.5071
      5.4728       2.0860       2.0352       2.6891    1321.3824    3056.6904
      1.7890       1.6107       1.4094       1.9040       2.2534       2.4009
      2.7595       0.5242     -45.2500    2049.0000       0.4941
1796.5
     12.2500     947.4075     947.4075      65.0724       0.0130      12.8333
     62.0872      -0.0089       0.0245       0.4301       0.3911      78.5168
      5.5575       2.2673       2.2282       2.4941    1321.5790    3057.1396
      1.7473       1.6127       1.3809       1.8047       2.1207       2.2600
      2.5926       0.5628     -44.1875    2049.0000       0.5009
1796.0
     12.2500     947.4075     947.4075      55.8366       0.0130      12.8175
     58.5681      -0.0069       0.0228       0.4532       0.4187      73.3127
      5.4501       2.3937       2.4939       2.1854    1321.7744    3057.5876
      1.7453       1.6128       1.5809       2.1540       2.6550       2.8510
      3.2956       0.5420     -44.5625    2097.0000       0.4920
1795.5
     12.2500     947.4075     947.4075      58.9172       0.0130      12.8333
     61.1791      -0.0064       0.0238       0.3604       0.3222      73.9926
      5.7080       2.4026       3.0438       1.8753    1321.9709    3058.0369
      1.7887       1.6081       1.4216       1.8598       2.2125       2.3342
      2.6997       0.5619     -43.0625    1959.0000       0.5260
1795.0
     12.2500     922.5225     922.5225      65.0399       0.0130      12.8810
     60.4550      -0.0067       0.0242       0.4626       0.4196      75.0613
      5.2278       2.1619       2.5976       2.0126    1322.1708    3058.4893
      1.8221       1.6137       1.4089       1.8288       2.1927       2.3262
      2.6829       0.5903     -47.5625    2060.0000       0.4858
1794.5
     12.2500     947.4075     947.4075      73.5117       0.0130      12.8889
     60.8965      -0.0072       0.0253       0.4956       0.4709      76.7140
      4.7321       1.8726       2.2865       2.0695    1322.3712    3058.9424
      1.8307       1.6235       1.5492       2.0963       2.5343       2.7077
      3.1216       0.6483     -46.1875    2013.0000       0.5048
1794.0
     12.2500     934.9650     934.9650      75.0520       0.0130      13.0358
     61.5835      -0.0092       0.0263       0.4395       0.4034      79.6081
      4.3762       1.6669       1.8872       2.3189    1322.5820    3059.4058
      1.8162       1.6231       1.4875       2.0304       2.4119       2.5628
      2.9349       0.5796     -46.1250    2105.0000       0.5104
1793.5
     12.2500     958.9612     958.9612      75.2831       0.0130      13.0398
     63.9267      -0.0103       0.0267       0.3808       0.3394      82.3003
      4.8484       1.8138       2.0594       2.3543    1322.7931    3059.8694
      1.8356       1.6118       1.3956       1.8617       2.1923       2.3261
      2.6528       0.5089     -46.1250    2159.0000       0.5824
1793.0
     12.2500     934.9650     934.9650      75.2831       0.0130      13.1271
     66.7288      -0.0105       0.0275       0.3894       0.3495      85.9268
      5.2867       1.9212       2.1680       2.4385    1323.0104    3060.3394
      1.8764       1.5982       1.4150       1.8492       2.1745       2.2863
      2.6085       0.4993     -45.7500    2094.0000       0.5449
1792.5
     12.2500     947.4075     947.4075      72.9727       0.0130      13.2065
     68.1711      -0.0097       0.0283       0.3780       0.3417      85.7056
      5.3026       1.8750       2.4268       2.1851    1323.2334    3060.8149
      1.9001       1.5951       1.4555       1.8925       2.2488       2.3651
      2.6911       0.4978     -45.6875    2178.0000       0.5112
1792.0
     12.2500     934.9650     934.9650      72.0599       0.0130      13.2065
     71.8226      -0.0091       0.0288       0.3654       0.3277      87.7093
      6.1404       2.1284       3.1683       1.9381    1323.4564    3061.2905
      1.8766       1.6007       1.3579       1.7811       2.1032       2.2081
      2.5061       0.5656     -45.9375    2045.0000       0.4633
1791.5
     12.2500     947.4075     947.4075      71.6748       0.0130      13.2145
     68.2425      -0.0091       0.0279       0.4985       0.4779      87.7704
      5.5243       1.9771       2.2721       2.4314    1323.6799    3061.7666
      1.8402       1.6053       1.4035       1.9013       2.2678       2.3886
      2.6999       0.6029     -45.8125    2113.0000       0.4625
