~VERSION INFORMATION
VERS.           2.0   :CWLS Log ASCII Standard - VERSION 2.0
WRAP.           NO    :One Line per depth step
PROD.  Schlumberger   :LAS Producer
PROG.  DLIS to ASCII 19C0-187                          :LAS Program name and version
CREA.        2011/01/03 01:40                          :LAS Creation date {YYYY/MM/DD hh:mm}
DLIS_CREA.  2011-Jan-02 17:53                          :DLIS Creation date and time {YYYY-MMM-DD hh:mm}
SOURCE.     BC0W-00120_VENOCO_HAMES_VALLEY_HAMES_VALLEY_1-35_FMI_DSST_MAIN.DLIS  :DLIS File Name
FILE-ID.     FMI_CAL_DSI_028PUP                        :File Identification Number
#--------------------------------------------------
~WELL INFORMATION
#MNEM.UNIT      DATA             DESCRIPTION
#---- ------ --------------   -----------------------------
STRT .F         5241.0       :START DEPTH     
STOP .F         1500.5       :STOP DEPTH     
STEP .F           -0.5       :STEP     
NULL .          -999.25      :NULL VALUE
COMP .        VENOCO, INC.                             :COMPANY
WELL .        HAMES VALLEY 1-35                        :WELL
FLD  .        HAMES VALLEY                             :FIELD
LOC  .        LAT: 35.889467                           :LOCATION
CNTY .        MONTEREY                                 :COUNTY
STAT .        CALIFORNIA                               :STATE
CTRY .                                                 :COUNTRY
API  .        040532205900                             :API NUMBER
UWI  .        040532205900                             :UNIQUE WELL ID
DATE .        02-Jan-2011                              :LOG DATE {DD-MMM-YYYY}
SRVC .        Schlumberger                             :SERVICE COMPANY
LATI .DEG                                              :LATITUDE
LONG .DEG                                              :LONGITUDE
GDAT .                                                 :GeoDetic Datum
SECT .        35                                       :Section
RANG .        10E                                      :Range
TOWN .        23S                                      :Township
#-----------------------------------------------------------------------------
~PARAMETER INFORMATION
#MNEM.UNIT    VALUE                      DESCRIPTION
#---- -----   --------------------       ------------------------
RUN  .          ONE                      :RUN NUMBER
PDAT .        GROUND LEVEL               :Permanent Datum
EPD  .F         1002.000000              :Elevation of Permanent Datum above Mean Sea Level
LMF  .          KELLY BUSHING            :Logging Measured From (Name of Logging Elevation Reference)
APD  .F          23.000000               :Elevation of Depth Reference (LMF) above Permanent Datum
#-----------------------------------------------------------------------------
~CURVE INFORMATION
#MNEM.UNIT   API CODE                                  DESCRIPTION
#---- -----  --------                                  -----------------------
DEPT .F                                                :DEPTH (BOREHOLE) {F10.1}
BS   .IN                                               :Bit Size {F13.4}
CDF  .LBF                                              :Calibrated Downhole Force {F13.4}
DF   .LBF                                              :Uncalibrated Downhole Force {F13.4}
DTCO .US/F                                             :Delta-T Compressional {F13.4}
DTSM .US/F                                             :Delta-T Shear {F13.4}
GR_EDTC.GAPI                                           :EDTC Gamma Ray {F13.4}
HD1_PPC1.IN                                            :PPC1 Hole Diameter 1 {F13.4}
HD1_PPC2.IN                                            :PPC2 Hole Diameter 1 {F13.4}
HD2_PPC1.IN                                            :PPC1 Hole Diameter 2 {F13.4}
HD2_PPC2.IN                                            :PPC2 Hole Diameter 2 {F13.4}
ICV  .F3                                               :Integrated Cement Volume {F13.4}
IHV  .F3                                               :Integrated Hole Volume {F13.4}
ITT  .S                                                :Integrated Transit Time {F13.4}
SPHI .CFCF                                             :Sonic Porosity {F13.4}
TENS .LBF                                              :Cable Tension {F13.4}
#-----------------------------------------------------------------------------
# 
#     DEPT        BS           CDF          DF           DTCO         DTSM       GR_EDTC      HD1_PPC1     HD1_PPC2     HD2_PPC1     HD2_PPC2       ICV          IHV          ITT          SPHI         TENS
#
~A  
# ...
    1770.0      12.2500    1177.5938    1177.5938     164.3187    -999.2500      93.5510      13.5355      13.5604      12.5103      12.7883    1356.7397    3105.6843       0.3941       0.4120    2381.0000
    1769.5      12.2500    1177.5938    1177.5938     163.8221    -999.2500      93.2791      13.9583      14.1090      12.5343      12.8711    1356.9642    3106.1614       0.3942       0.4114    2327.0000
    1769.0      12.2500    1141.1550    1141.1550     163.3900    -999.2500      84.9987      13.9650      13.6874      12.5940      12.7994    1357.1913    3106.6411       0.3943       0.4108    2417.0000
    1768.5      12.2500    1177.5938    1177.5938     162.8687    -999.2500      75.6675      13.4798      13.4753      12.4858      12.7165    1357.3977    3107.1001       0.3944       0.4101    2296.0000
    1768.0      12.2500    1141.1550    1141.1550     165.4892    -999.2500      77.9943      13.4731      13.5046      12.4621      12.7285    1357.6030    3107.5581       0.3945       0.4135    2387.0000
    1767.5      12.2500    1177.5938    1177.5938     164.5374    -999.2500      85.3978      13.4697      13.4967      12.4499      12.7289    1357.8077    3108.0154       0.3945       0.4123    2324.0000
    1767.0      12.2500    1153.5975    1153.5975     164.4199    -999.2500      88.3895      13.4903      13.5153      12.4983      12.7757    1358.0149    3108.4751       0.3946       0.4121    2346.0000
    1766.5      12.2500    1177.5938    1177.5938     164.2837    -999.2500      90.9199      13.5007      13.5182      12.5102      12.7883    1358.2229    3108.9358       0.3947       0.4120    2356.0000
    1766.0      12.2500    1141.1550    1141.1550     164.4010    -999.2500      90.6786      13.5147      13.5496      12.4621      12.7166    1358.4296    3109.3950       0.3948       0.4121    2417.0000
    1765.5      12.2500    1177.5938    1177.5938     164.8581    -999.2500      87.9843      13.5147      13.5604      12.4621      12.7169    1358.6362    3109.8542       0.3949       0.4127    2347.0000
    1765.0      12.2500    1153.5975    1153.5975     164.4747    -999.2500      85.4248      13.5319      13.5496      12.4377      12.7173    1358.8427    3110.3132       0.3950       0.4122    2372.0000
    1764.5      12.2500    1166.0400    1166.0400     163.2458    -999.2500      81.2044      13.5112      13.5577      12.4380      12.6933    1359.0483    3110.7715       0.3950       0.4106    2343.0000
    1764.0      12.2500    1166.0400    1166.0400     160.7356    -999.2500      83.6873      13.5007      13.5604      12.4259      12.6816    1359.2533    3111.2290       0.3951       0.4073    2357.0000
    1763.5      12.2500    1190.0363    1190.0363     159.0205    -999.2500      83.9574      13.5025      13.5601      12.4259      12.6937    1359.4583    3111.6865       0.3952       0.4049    2415.0000
    1763.0      12.2500    1141.1550    1141.1550     157.6692    -999.2500      87.5438      13.5252      13.5708      12.4259      12.6700    1359.6639    3112.1450       0.3953       0.4030    2302.0000
    1762.5      12.2500    1190.0363    1190.0363     156.4602    -999.2500      84.7635      13.5458      13.5708      12.4259      12.6937    1359.8704    3112.6040       0.3954       0.4013    2475.0000
    1762.0      12.2500    1141.1550    1141.1550     154.8793    -999.2500      83.8880      13.4627      13.5392      12.4259      12.6579    1360.0740    3113.0603       0.3954       0.3990    2293.0000
    1761.5      12.2500    1177.5938    1177.5938     154.3895    -999.2500      80.3211      13.5526      13.6239      12.4259      12.6821    1360.2806    3113.5195       0.3955       0.3983    2501.0000
    1761.0      12.2500    1129.6013    1129.6013     154.3124    -999.2500      81.1997      13.5215      13.5920      12.4259      12.6584    1360.4862    3113.9778       0.3956       0.3982    2286.0000
    1760.5      12.2500    1190.0363    1190.0363     153.6525    -999.2500      75.8396      13.5526      13.6752      12.4259      12.6460    1360.6929    3114.4370       0.3957       0.3972    2356.0000
    1760.0      12.2500    1129.6013    1129.6013     153.6755    -999.2500      75.0182      13.5526      13.6632      12.4259      12.6576    1360.8995    3114.8962       0.3957       0.3972    2153.0000
    1759.5      12.2500    1190.0363    1190.0363     154.3497    -999.2500      75.7258      13.5629      13.6871      12.4259      12.6463    1361.1066    3115.3560       0.3958       0.3982    2493.0000
    1759.0      12.2500    1129.6013    1129.6013     154.7536    -999.2500      81.7116      13.5872      13.7187      12.4140      12.6222    1361.3140    3115.8159       0.3959       0.3988    2234.0000
    1758.5      12.2500    1190.0363    1190.0363     154.9776    -999.2500      82.9099      13.5768      13.7297      12.4018      12.6343    1361.5205    3116.2751       0.3960       0.3992    2464.0000
    1758.0      12.2500    1129.6013    1129.6013     155.8107    -999.2500      77.1527      13.6701      13.8350      12.4259      12.6110    1361.7312    3116.7385       0.3960       0.4004    2212.0000
    1757.5      12.2500    1202.4788    1202.4788     157.0969    -999.2500      70.9902      13.7490      13.9190      12.3896      12.5989    1361.9431    3117.2031       0.3961       0.4022    2522.0000
    1757.0      12.2500    1153.5975    1153.5975     157.6282    -999.2500      69.5311      13.7921      14.0004      12.3896      12.5986    1362.1565    3117.6692       0.3962       0.4030    2294.0000
    1756.5      12.2500    1190.0363    1190.0363     158.6530    -999.2500      76.9052      13.7940      14.0124      12.4018      12.5989    1362.3705    3118.1357       0.3963       0.4044    2510.0000
    1756.0      12.2500    1177.5938    1177.5938     158.1478    -999.2500      80.4523      13.8212      14.0664      12.3295      12.5161    1362.5826    3118.6006       0.3964       0.4037    2310.0000
    1755.5      12.2500    1190.0363    1190.0363     159.5493    -999.2500      81.7718      13.8314      14.1607      12.3413      12.5040    1362.7955    3119.0662       0.3964       0.4056    2566.0000
    1755.0      12.2500    1141.1550    1141.1550     157.1918    -999.2500      77.3341      14.1395      14.2653      12.3053      12.5035    1363.0175    3119.5408       0.3965       0.4023    2218.0000
    1754.5      12.2500    1190.0363    1190.0363     153.7243    -999.2500      74.6702      14.2009      14.2859      12.3173      12.5277    1363.2419    3120.0178       0.3966       0.3973    2483.0000
    1754.0      12.2500    1166.0400    1166.0400     152.4387    -999.2500      74.6115      14.2112      14.2965      12.2813      12.4919    1363.4653    3120.4939       0.3967       0.3954    2365.0000
    1753.5      12.2500    1177.5938    1177.5938     151.8160    -999.2500      72.0981      14.3030      14.3486      12.2813      12.4681    1363.6918    3120.9729       0.3968       0.3945    2448.0000
    1753.0      12.2500    1141.1550    1141.1550     149.7746    -999.2500      71.0177      14.3336      14.3872      12.2693      12.4563    1363.9188    3121.4526       0.3968       0.3913    2316.0000
    1752.5      12.2500    1177.5938    1177.5938     151.7671    -999.2500      68.2636      14.4660      14.4528      12.2452      12.4448    1364.1493    3121.9358       0.3969       0.3944    2407.0000
    1752.0      12.2500    1153.5975    1153.5975     153.9494    -999.2500      68.8982      14.4964      14.5156      12.2330      12.4327    1364.3804    3122.4194       0.3970       0.3977    2325.0000
    1751.5      12.2500    1177.5938    1177.5938     157.5940    -999.2500      73.1246      14.5470      14.5533      12.2209      12.3971    1364.6127    3122.9043       0.3971       0.4029    2409.0000
    1751.0      12.2500    1153.5975    1153.5975     162.0159    -999.2500      72.2934      14.6485      14.6607      12.2209      12.4089    1364.8483    3123.3926       0.3971       0.4090    2325.0000
