~Version Information
VERS  .          2.0                              :CWLS Log Ascii Standard - Version 2.0
WRAP  .          NO                               :One line per depth step
~Well Information Block
#MNEM.UNIT       Data Type                        Information
#---------       ---------                        -------------------------------
STRT  .F         5219.99583                       :START DEPTH
STOP  .F         1629.99583                       :STOP DEPTH
STEP  .F         -0.00000                         :INCREMENT
NULL  .          -999.25                          :NULL DATA VALUE
COMP  .          VENOCO, INC.                     :COMPANY
WELL  .          HAMES VALLEY 1-35                :WELL
FLD   .          SOUTH SALINAS                    :FIELD
LOC   .                                           :LOCATION
PROV  .          CALIFORNIA                       :PROVINCE
STAT  .          CALIFORNIA                       :STATE
CNTY  .          MONTEREY                         :COUNTY
CTRY  .          U.S.A                            :COUNTRY
DATE  .          2-Jan-2011                       :DATE
UWI   .          040532205900                     :UNIQUE WELL UWI
LIC   .                                           :LICENSE NUMBER
API   .          040532205900                                                                                                                      :API NUMBER
SRVC  .                                           :SERVICE COMPANY
~Parameter Information Block
#MNEM.UNIT       Value                            Description
#---------       ---------                        -------------
LONG  .DEG       -120.859398                      :Well Surface Location
LATI  .DEG       35.889400                        :Well Surface Location
XWELL .DEG       -120.859398                      :X-coordinate of Well Head
YWELL .DEG       35.889400                        :Y-coordinate of Well Head
~Curve Information Block
#MNEM.UNIT       API Code            Curve    Description
#--------        --------------      -----    -------------------
DEPT  .F                             :0       Index
DIP_HEIGHT.F                         :1       Height of Dip Plane Intersection with Borehole
DPAA_NAZ.DEG                         :2       Apparent Dip Azimuth - North  
DPAA_TOH.DEG                         :3       Apparent Dip Azimuth - Top of Hole
DPAP  .DEG                           :4       Apparent Dip Angle - Tool     
DPAZ  .DEG                           :5       True Dip Azimuth              
DPTR  .DEG                           :6       True Dip Angle                
QUAF  .                              :7       Dip Quality Factor            
~Ascii Data Section
# ...
   4071.99583       0.25405     155.56442     288.02298      13.01935     153.64828      12.88401      17.00000 
   4069.99583       0.26142     154.15355     272.98270      13.22360     152.59302      13.20951      17.00000 
   4067.99583       0.28639     160.57529     256.16437      14.43423     159.25084      14.52266      17.00000 
   4065.99583       0.29287     164.80661     248.71707      14.64918     163.29352      14.81020      17.00000 
   4063.99583       0.30453     158.36911     242.64742      15.22115     156.58278      15.48462      17.00000 
   4061.99583       0.30824     158.08681     244.35939      15.56485     156.06451      15.85029      17.00000 
   4059.99583       0.31601     157.21094     242.79465      16.03737     155.19003      16.35227      17.00000 
   4057.99583       0.42477     150.65099     236.23468      21.14832     149.24512      21.52524      14.00000 
   4055.99583       0.29699     156.93790     242.52161      15.18263     154.80521      15.50090      14.00000 
   4053.99583       0.39679     157.28842     235.74223      20.03066     155.72769      20.43381      17.00000 
   4051.99583       0.33580     155.12218     233.57599      17.14085     153.33430      17.56655      17.00000 
   4049.99583       0.30572     160.19443     232.77777      15.70494     158.36618      16.11387      17.00000 
   4047.99583       0.33370     163.45399     227.32307      17.04926     162.04947      17.46115      17.00000 
   4045.99583       0.33022     157.41623     212.80733      16.85633     156.35913      17.37086      17.00000 
   4043.99583       0.31343     154.01758     207.62881      16.01567     152.97667      16.60970      17.00000 
   4041.99583       0.30205     147.07181     204.30853      15.46703     146.03191      16.13321      17.00000 
   4039.99583       0.28781     145.15010     205.27370      14.73858     143.87845      15.48582      17.00000 
   4037.99583       0.28335     142.68907     202.91960      14.50202     141.43298      15.31584      17.00000 
   4035.99583       0.28012     135.78015     191.15672      13.99207     135.11940      14.87677      17.00000 
   4033.99583       0.28380     135.69983     183.63206      14.41297     135.47697      15.35842      16.00000 
   4031.99583       0.32789     191.87698     233.99573      16.65364     189.30753      17.24910      12.00000 
   4029.99583       0.30734     191.27075     228.35826      15.50282     188.76096      16.16317      17.00000 
   4027.99583       0.30599     184.42210     220.60074      15.47563     182.25090      16.22166      17.00000 
   4025.99583       0.30558     180.78253     217.62360      15.38034     178.79611      16.13279      17.00000 
   4023.99583       0.29147     167.82513     207.20267      14.73562     166.33560      15.54351      17.00000 
   4021.99583       0.28039     166.67921     209.76729      14.23898     164.99704      15.03218      17.00000 
   4019.99583       0.28629     170.25069     219.02902      14.55668     168.06720      15.30224      17.00000 
   4017.99583       0.28602     166.00896     219.13672      14.57353     163.84706      15.30923      17.00000 
   4015.99583       0.26507     158.93121     216.15746      13.46084     157.04289      14.11659      17.00000 
   4013.99583       0.21503     152.21762     208.48566      11.05856     150.76627      11.61068      17.00000 
   4011.99583       0.23011     168.84283     216.84167      11.93023     167.69435      12.26554      17.00000 
   4009.99583       0.23240     171.15523     194.40524      12.03005     170.91095      12.23620      17.00000 
   4007.99583       0.23261     175.00861     141.52266      12.03630     175.55794      12.18605      17.00000 
   4005.99583       0.17595     192.17355     158.68759       9.14754     192.59557       9.32531       9.00000 
   4003.99583       0.14128     114.82623      29.52848       7.33943     116.09536       7.06350      10.00000 
   4001.99583       0.28868     159.56277      74.26503      14.74389     160.73685      14.66050      17.00000 
   3999.99583       0.29741     156.89281      78.74110      15.27206     158.06223      15.21200      17.00000 
   3997.99583       0.39363     161.87193      83.72022      19.52106     162.78268      19.48815      12.00000 
   3995.99583       0.44388     150.97925     109.37862      21.82766     151.72125      21.93458      12.00000 
   3993.99583       0.46304     170.44658     150.24193      22.71989     170.90829      23.06378      17.00000 
   3991.99583       0.44162     168.19139     158.39067      21.80442     168.62685      22.25387      17.00000 
   3989.99583       0.56422     174.20590     171.78662      27.22047     174.35449      27.76068      16.00000 
   3987.99583       0.98381     182.56796     188.16895      41.54728     182.46513      42.19122      17.00000 
   3985.99583       0.88704     184.00420     196.15532      38.99755     183.73322      39.76897      17.00000 
   3983.99583       0.83419     180.51590     199.34349      37.31562     180.10573      38.22589      17.00000 
   3981.99583       0.65501     180.27550     206.74123      30.90849     179.42686      31.95111      18.00000 
   3979.99583       0.56708     180.30266     212.94012      27.38718     178.99149      28.48190      17.00000 
   3977.99583       0.52747     178.98277     218.38242      25.34525     177.22391      26.45271      17.00000 
   3975.99583       0.70140     177.00507     225.76576      31.58956     175.20078      32.72210      17.00000 
   3973.99583       0.72373     178.14401     232.69197      33.45333     176.01859      34.58170      18.00000 
   3971.99583       0.75307     181.79929     240.38483      34.05034     179.28368      35.07988      18.00000 
   3969.99583       0.76076     183.59613     244.84575      33.71795     180.72777      34.68766      17.00000 
   3967.99583       0.69382     175.51549     238.60799      32.02135     172.55424      33.23911      14.00000 
   3965.99583       0.69229     184.86133     247.95381      32.00746     181.61244      32.90819      17.00000 
   3963.99583       0.60664     181.97673     250.58409      28.87841     178.33554      29.66850      17.00000 
   3961.99583       0.63041     182.27777     253.53914      29.72972     178.77109      30.39526      18.00000 
   3959.99583       0.61730     180.79730     253.85220      29.15904     177.29480      29.79656      18.00000 
   3957.99583       0.52677     182.89847     256.48901      25.44429     178.80447      25.99202      14.00000 
   3955.99583       0.44751     180.76070     253.56258      22.14524     176.21339      22.78083      17.00000 
   3953.99583       0.28793     161.68205     233.56963      14.64753     156.19437      15.86572      17.00000 
   3951.99583       1.24709      17.39128      88.58124      48.31114      19.06416      48.29210      12.00000 
   3949.99583       0.57953      39.39696     111.04900      27.56140      42.60805      28.27384      13.00000 
   3947.99583       0.50164      18.42459      89.49599      23.23711      22.65140      23.28843      12.00000 
   3945.99583       1.21784      71.64749     142.71887      46.92463      72.63255      48.38322      10.00000 
   3941.99583       0.62734     309.86670      12.36409      29.03022     310.30569      27.95247       9.00000 
   3939.99583       0.95925     309.73297      12.23036      39.56454     310.02063      38.48592      11.00000 
   3937.99583       0.96403     320.53433      23.03172      40.24026     321.05536      39.22599      10.00000 
   3933.99583       1.24033     306.24155       8.73895      47.76586     306.39383      46.67463       9.00000 
   3931.99583       0.45189     160.58846     216.37842      22.37272     158.79640      23.43062      17.00000 
   3929.99583       0.41538     140.55412     196.34407      20.61692     139.63242      21.86638      13.00000 
   3927.99583       0.35155     158.61212     219.55576      17.66488     155.98720      18.75764      17.00000 
