~Version Information
VERS  .          2.0                              :CWLS Log Ascii Standard - Version 2.0
WRAP  .          NO                               :One line per depth step
~Well Information Block
#MNEM.UNIT       Data Type                        Information
#---------       ---------                        -------------------------------
STRT  .F         5219.99583                       :START DEPTH
STOP  .F         1629.99583                       :STOP DEPTH
STEP  .F         -0.00000                         :INCREMENT
NULL  .          -999.25                          :NULL DATA VALUE
COMP  .          VENOCO, INC.                     :COMPANY
WELL  .          HAMES VALLEY 1-35                :WELL
FLD   .          SOUTH SALINAS                    :FIELD
LOC   .                                           :LOCATION
PROV  .          CALIFORNIA                       :PROVINCE
STAT  .          CALIFORNIA                       :STATE
CNTY  .          MONTEREY                         :COUNTY
CTRY  .          U.S.A                            :COUNTRY
DATE  .          2-Jan-2011                       :DATE
UWI   .          040532205900                     :UNIQUE WELL UWI
LIC   .                                           :LICENSE NUMBER
API   .          040532205900                                                                                                                      :API NUMBER
SRVC  .                                           :SERVICE COMPANY
~Parameter Information Block
#MNEM.UNIT       Value                            Description
#---------       ---------                        -------------
LONG  .DEG       -120.859398                      :Well Surface Location
LATI  .DEG       35.889400                        :Well Surface Location
XWELL .DEG       -120.859398                      :X-coordinate of Well Head
YWELL .DEG       35.889400                        :Y-coordinate of Well Head
~Curve Information Block
#MNEM.UNIT       API Code            Curve    Description
#--------        --------------      -----    -------------------
DEPT  .F                             :0       Index
DIP_HEIGHT.F                         :1       Height of Dip Plane Intersection with Borehole
DPAA_NAZ.DEG                         :2       Apparent Dip Azimuth - North  
DPAA_TOH.DEG                         :3       Apparent Dip Azimuth - Top of Hole
DPAP  .DEG                           :4       Apparent Dip Angle - Tool     
DPAZ  .DEG                           :5       True Dip Azimuth              
DPTR  .DEG                           :6       True Dip Angle                
QUAF  .                              :7       Dip Quality Factor            
~Ascii Data Section
# ...
   2499.99583       0.15755     156.23515     110.99246       8.05125     164.19041       8.59345      17.00000 
   2497.99583       0.16096     159.03711     112.56333       8.20059     166.72760       8.77060      17.00000 
   2495.99583       0.17272     156.12260     110.14636       8.77034     163.48076       9.28674      17.00000 
   2493.99583       0.16498     153.28258     107.51275       8.41981     161.05949       8.88379      17.00000 
   2491.99583       0.13093     160.78719     114.88731       6.74536     169.65010       7.36190      17.00000 
   2489.99583       0.15445     170.96315     125.44496       7.92989     177.63556       8.71407      17.00000 
   2487.99583       0.16180     164.08978     118.98202       8.26527     171.22505       8.95497      17.00000 
   2485.99583       0.14815     155.09618     109.66934       7.58595     163.73337       8.11638      17.00000 
   2483.99583       0.13693     153.94180     108.44576       7.02262     163.57820       7.55316      17.00000 
   2481.99583       0.13517     148.95795     103.55553       6.95094     159.25645       7.39034      17.00000 
   2479.99583       0.14203     145.51266      99.90217       7.29847     155.58736       7.65170      17.00000 
   2477.99583       0.12378     133.55841      88.21553       6.37081     145.53015       6.46997      17.00000 
   2475.99583       0.12588     148.21675     103.06865       6.46938     158.90765       6.88696      17.00000 
   2473.99583       0.20953     169.78786     123.99477      10.68834     175.02417      11.44883      17.00000 
   2471.99583       0.19543     168.56766     121.77491       9.95563     174.21481      10.66387      17.00000 
   2469.99583       0.15167     162.48541     115.46210       7.77383     170.10841       8.38054      17.00000 
   2467.99583       0.11724     150.19147     104.67214       6.01241     161.02118       6.44560      17.00000 
   2465.99583       0.10080     149.05847     103.35874       5.14875     161.25441       5.55356      17.00000 
   2463.99583       0.08492     154.36502     109.21731       4.35637     167.36533       4.86310      17.00000 
   2461.99583       0.07100     156.99619     110.23976       3.68923     170.81232       4.17856      17.00000 
   2459.99583       0.08010     158.03818     109.15929       4.16028     169.77795       4.58050      17.00000 
   2457.99583       0.10129     161.42804     109.92366       5.22317     170.78973       5.63115      17.00000 
   2455.99583       0.10669     167.41344     115.43181       5.36212     176.21408       5.85857      17.00000 
   2453.99583       0.12213     165.63023     113.64860       6.07539     173.61713       6.53815      17.00000 
   2451.99583       0.14167     169.84235     117.06661       7.20050     175.82674       7.65204      17.00000 
   2449.99583       0.14443     158.87531     106.09959       7.34200     165.34262       7.64051      17.00000 
   2447.99583       0.13340     160.19804     106.86207       6.77637     166.76714       7.06915      17.00000 
   2445.99583       0.13541     163.47580     108.78778       6.87805     169.78670       7.19195      17.00000 
   2443.99583       0.14209     166.46355     110.07900       7.22077     172.70914       7.56835      17.00000 
   2441.99583       0.18410     172.36844     115.56758       9.53680     177.16275       9.97434      17.00000 
   2439.99583       0.19658     177.68050     122.38441       9.91732     182.04721      10.45777      17.00000 
   2437.99583       0.07842     165.09648     111.83207       3.89037     176.66368       4.32632      17.00000 
   2435.99583       0.13891     170.39787     120.23077       6.95857     176.54756       7.47017      11.00000 
   2433.99583       0.26920     177.90489     127.73778      13.07287     180.94081      13.66179      15.00000 
   2431.99583       0.22182     159.91931     110.92132      10.50460     165.27037      10.94720      17.00000 
   2429.99583       0.18136     154.12671     105.12870       8.37007     161.10172       8.72328      17.00000 
   2427.99583       0.15227     154.50160     105.60672       7.25158     162.59595       7.62943      17.00000 
   2425.99583       0.13841     151.48404     104.67817       6.76774     159.92287       7.11995      17.00000 
   2423.99583       0.13560     149.25488     103.84841       6.49534     157.47066       6.80611      17.00000 
   2421.99583       0.13783     155.78658     110.32601       6.79286     162.81427       7.17347      17.00000 
   2419.99583       0.14713     157.32924     108.20402       7.25898     164.08258       7.60765      18.00000 
   2417.99583       0.15193     154.18941     102.64764       7.39694     161.49132       7.67966      17.00000 
   2415.99583       0.13032     155.42839     101.86604       6.48683     164.05763       6.77833      17.00000 
   2413.99583       0.11471     155.48273     102.98660       5.71401     165.21866       6.03732      17.00000 
   2411.99583       0.09756     154.29240     104.68097       4.91123     164.82430       5.25190      17.00000 
   2409.99583       0.09286     155.51262     106.15651       4.68820     165.48109       5.01610      17.00000 
   2407.99583       0.11731     153.37416     102.01781       5.93030     161.45297       6.17718      17.00000 
   2405.99583       0.13171     157.12352     102.32203       6.64263     164.47746       6.89306      17.00000 
   2403.99583       0.10757     158.49025     102.78722       5.31442     168.03375       5.60354      17.00000 
   2401.99583       0.11150     161.72426     106.55871       5.47542     171.22052       5.84309      17.00000 
   2399.99583       0.16596     164.85912     109.69357       8.03563     171.28749       8.42876      17.00000 
   2397.99583       0.38406     182.59406     128.22707      18.15915     184.85909      18.77859      12.00000 
   2395.99583       0.15333     167.06427     112.69727       7.45618     173.59172       7.88437      17.00000 
   2393.99583       0.14633     166.15309     110.11459       7.16612     172.90828       7.54535      17.00000 
   2391.99583       0.14319     162.69777     106.22067       7.09273     169.72342       7.41369      15.00000 
   2389.99583       0.09775     154.65417      98.50070       4.81697     165.12473       5.03814      17.00000 
   2387.99583       0.07404     165.49182     110.03824       3.67004     177.21762       4.05573      17.00000 
   2385.99583       0.19382     134.56267      78.21313       9.74382     139.23775       9.61112      16.00000 
   2383.99583       0.25031     136.23044      76.30566      12.26794     139.55374      12.11494      16.00000 
   2381.99583       0.13923     125.71630      65.79153       6.77544     131.59128       6.50895       8.00000 
   2379.99583       0.31941     184.87517     115.34558      15.23270     187.35410      15.57429      15.00000 
   2377.99583       0.36617     206.85912     137.32951      17.34441     208.46371      17.91275      13.00000 
   2375.99583       0.32688     183.76784     101.33887      15.45444     186.14041      15.60087      10.00000 
   2373.99583       0.11654     145.56546      63.13649       5.62548     152.00363       5.35431      17.00000 
   2371.99583       0.12941     150.08971      58.84642       6.26960     155.15367       5.97303      17.00000 
   2369.99583       0.12492     158.35133      62.58422       6.05981     163.97894       5.79212      17.00000 
   2367.99583       0.12568     166.63124      75.10036       6.11868     173.18658       5.97568      17.00000 
   2365.99583       0.12388     165.86551      80.58626       6.02957     173.41496       5.95124      17.00000 
   2363.99583       0.10809     174.61192      98.78225       5.28371     183.53464       5.48193      17.00000 
   2361.99583       0.10704     180.26114     108.53152       5.20682     188.71724       5.54105      17.00000 
   2359.99583       0.27521     134.09355      68.61090      13.23495     137.64038      12.94117      14.00000 
