~Version Information
VERS  .          2.0                              :CWLS Log Ascii Standard - Version 2.0
WRAP  .          NO                               :One line per depth step
~Well Information Block
#MNEM.UNIT       Data Type                        Information
#---------       ---------                        -------------------------------
STRT  .F         5219.99583                       :START DEPTH
STOP  .F         1629.99583                       :STOP DEPTH
STEP  .F         -0.00000                         :INCREMENT
NULL  .          -999.25                          :NULL DATA VALUE
COMP  .          VENOCO, INC.                     :COMPANY
WELL  .          HAMES VALLEY 1-35                :WELL
FLD   .          SOUTH SALINAS                    :FIELD
LOC   .                                           :LOCATION
PROV  .          CALIFORNIA                       :PROVINCE
STAT  .          CALIFORNIA                       :STATE
CNTY  .          MONTEREY                         :COUNTY
CTRY  .          U.S.A                            :COUNTRY
DATE  .          2-Jan-2011                       :DATE
UWI   .          040532205900                     :UNIQUE WELL UWI
LIC   .                                           :LICENSE NUMBER
API   .          040532205900                                                                                                                      :API NUMBER
SRVC  .                                           :SERVICE COMPANY
~Parameter Information Block
#MNEM.UNIT       Value                            Description
#---------       ---------                        -------------
LONG  .DEG       -120.859398                      :Well Surface Location
LATI  .DEG       35.889400                        :Well Surface Location
XWELL .DEG       -120.859398                      :X-coordinate of Well Head
YWELL .DEG       35.889400                        :Y-coordinate of Well Head
~Curve Information Block
#MNEM.UNIT       API Code            Curve    Description
#--------        --------------      -----    -------------------
DEPT  .F                             :0       Index
DIP_HEIGHT.F                         :1       Height of Dip Plane Intersection with Borehole
DPAA_NAZ.DEG                         :2       Apparent Dip Azimuth - North  
DPAA_TOH.DEG                         :3       Apparent Dip Azimuth - Top of Hole
DPAP  .DEG                           :4       Apparent Dip Angle - Tool     
DPAZ  .DEG                           :5       True Dip Azimuth              
DPTR  .DEG                           :6       True Dip Angle                
QUAF  .                              :7       Dip Quality Factor            
~Ascii Data Section
# ...
   3781.99583       0.31445     168.36359      98.70787      15.82952     170.96539      15.96021      17.00000 
   3779.99583       0.31185     165.37810      97.35947      15.99039     168.05174      16.10796      17.00000 
   3777.99583       0.31176     164.31700      99.74598      15.79567     167.10861      15.95191      17.00000 
   3775.99583       0.30833     162.23125     101.39036      15.50314     165.20055      15.69245      17.00000 
   3773.99583       0.30671     162.44942     103.52489      15.76064     165.30983      15.97765      17.00000 
   3771.99583       0.31554     163.77408     104.55412      16.21220     166.34813      16.42586      17.00000 
   3769.99583       0.33233     161.74077      97.95866      17.02767     163.93562      17.13509      17.00000 
   3767.99583       0.32514     163.59259      93.10523      16.66118     165.57864      16.70381      17.00000 
   3765.99583       0.32277     167.46326      86.25330      16.56037     169.32056      16.53321      17.00000 
   3763.99583       0.32951     165.61232      72.38204      16.88522     167.46643      16.71733      17.00000 
   3761.99583       0.32604     163.63133      61.78086      16.71737     165.56580      16.42079      17.00000 
   3759.99583       0.32438     164.80095      50.71114      16.58729     166.82454      16.11828      17.00000 
   3757.99583       0.33199     166.13503      45.35217      16.96066     168.14204      16.38653      17.00000 
   3755.99583       0.34905     163.18832      37.62811      17.78169     164.93320      17.09145      17.00000 
   3753.99583       0.35403     164.69489      35.14358      17.99746     166.42244      17.24091      17.00000 
   3751.99583       0.34744     167.30569      33.12598      17.69515     169.07608      16.87675      17.00000 
   3749.99583       0.35595     166.21082      28.07556      18.00069     167.82343      17.07412      17.00000 
   3747.99583       0.33392     162.68884      21.17676      16.94586     164.14198      15.87731      17.00000 
   3745.99583       0.30023     158.59285      15.12555      14.97471     159.89816      13.78479      17.00000 
   3743.99583       0.29201     156.45003      14.24817      14.63800     157.80670      13.36249      17.00000 
   3741.99583       0.29064     159.19142      19.72631      14.97441     161.07588      13.69272      17.00000 
   3739.99583       1.12503      66.14277     287.87189      46.10870      64.85731      45.69982      14.00000 
   3737.99583       1.05036      65.46580     287.19489      44.12159      64.08372      43.72942      15.00000 
   3735.99583       0.98878      69.17599     290.90509      42.38870      67.73671      41.91237      15.00000 
   3733.99583       0.31930     155.95970      15.85537      16.46018     157.26817      15.20163      14.00000 
   3731.99583       0.37274     166.78511      26.68078      18.98427     168.60536      17.82082      17.00000 
   3729.99583       0.38836     169.02196      30.62486      19.71048     170.98640      18.59759      17.00000 
   3727.99583       0.35073     172.27722      36.30460      17.96361     174.79019      16.93350      17.00000 
   3725.99583       0.35813     175.05408      40.85826      18.28544     177.71324      17.34019      17.00000 
   3723.99583       0.38354     174.12927      40.33971      19.52564     176.44963      18.61643      17.00000 
   3721.99583       0.36794     170.70538      37.16329      18.78821     172.81929      17.89589      17.00000 
   3719.99583       0.34830     171.72984      37.45740      17.77066     173.82234      16.94657      17.00000 
   3717.99583       0.34526     171.07916      34.58484      17.64669     172.97148      16.82271      17.00000 
   3715.99583       0.34392     172.40598      36.16955      17.56910     174.39722      16.75605      17.00000 
   3713.99583       0.32964     172.60815      38.99599      16.91198     174.83463      16.12643      17.00000 
   3711.99583       0.31546     171.87604      43.83728      16.15804     174.48495      15.42255      17.00000 
   3709.99583       0.29525     166.09894      43.46091      15.17373     168.85446      14.44001      17.00000 
   3707.99583       0.28482     169.02539      52.78543      14.66079     172.13316      14.08856      17.00000 
   3705.99583       0.27494     174.14642      62.60883      14.19895     177.34077      13.81351      17.00000 
   3703.99583       0.26758     173.69894      66.98632      13.86427     176.56967      13.58679      17.00000 
   3701.99583       0.25992     173.67804      78.21953      13.47303     176.24796      13.35943      17.00000 
   3699.99583       0.27052     170.07185      89.33470      13.88332     172.41524      13.88844      17.00000 
   3697.99583       0.28566     171.75833     104.95720      14.68452     173.95331      14.85096      17.00000 
   3695.99583       0.28942     172.06461     114.33788      14.87779     174.38789      15.17505      17.00000 
   3693.99583       0.27498     169.08086     113.21615      14.19004     171.74454      14.50095      17.00000 
   3691.99583       0.26907     169.49879     115.60123      13.86289     172.25406      14.21332      17.00000 
   3689.99583       0.26839     168.58185     115.85232      13.79365     171.44876      14.16146      17.00000 
   3687.99583       0.26096     167.76668     117.96454      13.41669     170.74557      13.82396      17.00000 
   3685.99583       0.26117     168.17369     122.94287      13.26101     171.04520      13.73211      17.00000 
   3683.99583       0.25909     168.89429     129.72305      13.03406     171.59328      13.59006      17.00000 
   3681.99583       0.26337     167.71490     135.31123      13.22476     170.19633      13.85491      17.00000 
   3679.99583       0.26213     169.00514     140.88560      13.46478     171.28745      14.18339      17.00000 
   3677.99583       0.25970     170.08350     140.71443      13.37990     172.51178      14.13798      17.00000 
   3675.99583       0.21598     169.80379     134.66039      11.19725     173.17253      11.91858      17.00000 
   3673.99583       0.20599     178.59752     138.17577      10.71230     181.77084      11.44582      17.00000 
   3671.99583       0.30249     177.69220     137.27045      15.48273     179.94406      16.20112      15.00000 
   3669.99583       0.26413     164.67438     100.34541      13.64398     166.83119      13.75015      17.00000 
   3667.99583       0.22907     157.19231      92.86336      12.01195     159.70197      12.05044      17.00000 
   3665.99583       0.23225     161.78632      84.38828      12.02073     164.07271      11.98274      17.00000 
   3663.99583       0.25804     165.31720      74.15157      13.30483     167.50023      13.16954      17.00000 
   3661.99583       0.26689     161.85840      63.67931      13.76807     164.20183      13.50111      17.00000 
   3659.99583       0.27482     166.53085      66.15717      14.17031     169.10973      13.90243      17.00000 
   3657.99583       0.27808     168.83905      64.59570      14.33150     171.43111      14.03815      17.00000 
   3655.99583       0.27450     170.24928      60.12952      14.15954     172.58255      13.84078      17.00000 
   3653.99583       0.27550     170.66350      50.30067      14.22142     172.50926      13.85043      17.00000 
   3651.99583       0.27205     172.17712      36.63750      14.04498     173.55093      13.60119      17.00000 
   3649.99583       0.29473     173.83350      23.76041      14.75558     174.82916      14.18457      17.00000 
   3647.99583       0.29643     173.52156      19.59820      15.02406     174.46654      14.34502      17.00000 
   3645.99583       0.30014     176.01402      25.87154      15.46859     177.37375      14.73300      17.00000 
   3643.99583       0.30220     173.70236      32.42737      15.49500     175.57903      14.72404      17.00000 
   3641.99583       0.29162     171.20520      40.00172      15.04683     173.71078      14.29757      17.00000 
