~Version Information
VERS  .          2.0                              :CWLS Log Ascii Standard - Version 2.0
WRAP  .          NO                               :One line per depth step
~Well Information Block
#MNEM.UNIT       Data Type                        Information
#---------       ---------                        -------------------------------
STRT  .F         5219.99583                       :START DEPTH
STOP  .F         1629.99583                       :STOP DEPTH
STEP  .F         -0.00000                         :INCREMENT
NULL  .          -999.25                          :NULL DATA VALUE
COMP  .          VENOCO, INC.                     :COMPANY
WELL  .          HAMES VALLEY 1-35                :WELL
FLD   .          SOUTH SALINAS                    :FIELD
LOC   .                                           :LOCATION
PROV  .          CALIFORNIA                       :PROVINCE
STAT  .          CALIFORNIA                       :STATE
CNTY  .          MONTEREY                         :COUNTY
CTRY  .          U.S.A                            :COUNTRY
DATE  .          2-Jan-2011                       :DATE
UWI   .          040532205900                     :UNIQUE WELL UWI
LIC   .                                           :LICENSE NUMBER
API   .          040532205900                                                                                                                      :API NUMBER
SRVC  .                                           :SERVICE COMPANY
~Parameter Information Block
#MNEM.UNIT       Value                            Description
#---------       ---------                        -------------
LONG  .DEG       -120.859398                      :Well Surface Location
LATI  .DEG       35.889400                        :Well Surface Location
XWELL .DEG       -120.859398                      :X-coordinate of Well Head
YWELL .DEG       35.889400                        :Y-coordinate of Well Head
~Curve Information Block
#MNEM.UNIT       API Code            Curve    Description
#--------        --------------      -----    -------------------
DEPT  .F                             :0       Index
DIP_HEIGHT.F                         :1       Height of Dip Plane Intersection with Borehole
DPAA_NAZ.DEG                         :2       Apparent Dip Azimuth - North  
DPAA_TOH.DEG                         :3       Apparent Dip Azimuth - Top of Hole
DPAP  .DEG                           :4       Apparent Dip Angle - Tool     
DPAZ  .DEG                           :5       True Dip Azimuth              
DPTR  .DEG                           :6       True Dip Angle                
QUAF  .                              :7       Dip Quality Factor            
~Ascii Data Section
# ...
   4785.99583       0.46632     224.00989     322.96494      22.68560     201.27934      15.57288      17.00000 
   4783.99583       0.45535     219.69110     318.79590      22.29805     195.22563      15.90143      17.00000 
   4781.99583       0.48880     227.56970     326.76810      23.45954     207.14972      15.68489      17.00000 
   4779.99583       0.48916     230.22562     329.49533      23.73431     211.07320      15.51226      17.00000 
   4777.99583       0.45231     228.81551     328.12988      22.27703     206.72687      14.30230      17.00000 
   4775.99583       0.46530     225.70786     325.08191      22.23120     202.01852      14.67081      17.00000 
   4773.99583       0.48916     225.08241     324.39514      23.67538     203.03333      16.03443      18.00000 
   4771.99583       0.53592     227.56647     327.15540      25.33780     208.58961      17.13213      17.00000 
   4769.99583       0.54359     229.24066     328.85538      26.20161     211.87332      17.70067      18.00000 
   4767.99583       0.57813     225.46710     325.16705      27.30566     208.04282      19.30446      18.00000 
   4765.99583       0.59000     222.45628     322.35519      27.98891     205.01984      20.41583      18.00000 
   4763.99583       0.53286     225.21233     325.15430      25.44671     206.06378      17.62686      15.00000 
   4761.99583       0.45847     228.30122     328.24319      22.39078     206.10707      14.32525      17.00000 
   4759.99583       0.38031     250.34129     350.58322      18.79823     238.84827       8.42762       9.00000 
   4757.99583       0.48224     225.67480     326.16864      23.51856     204.82028      15.76399      17.00000 
   4755.99583       0.49802     224.18797     324.76984      23.74846     203.28632      16.21320      17.00000 
   4753.99583       0.54777     224.30161     325.22369      25.64455     206.01057      17.94411      18.00000 
   4751.99583       0.52662     227.70825     328.88339      24.73000     209.84596      16.60431      17.00000 
   4749.99583       0.60551     272.07422      13.45242      28.41630     279.30188      18.43069       9.00000 
   4747.99583       0.46881     234.06419     335.58649      23.04865     217.43105      14.21247      17.00000 
   4745.99583       0.49674     229.03625     330.59592      24.30748     211.61247      16.03821      16.00000 
   4743.99583       0.57284     198.94437     300.52158      27.13116     178.29068      23.48555      10.00000 
   4741.99583       0.44023     213.43102     315.09827      21.59096     187.30701      15.92456      10.00000 
   4739.99583       0.33713     220.25859     322.12296      16.80603     184.47475      10.65010      13.00000 
   4737.99583       0.47044     222.14464     324.15652      23.00346     200.65875      15.73950      17.00000 
   4735.99583       0.44494     221.97243     324.26224      21.95267     199.06731      14.78392      18.00000 
   4733.99583       0.46636     220.71666     323.08200      22.76318     198.74988      15.71893      18.00000 
   4731.99583       0.49486     219.33247     321.90274      24.15017     199.13628      17.22353      17.00000 
   4729.99583       0.48672     219.09129     321.79285      23.68664     198.40813      16.83549      17.00000 
   4727.99583       0.46358     219.03407     321.87039      22.77011     197.30008      16.00865      17.00000 
   4725.99583       0.46370     219.82587     322.80844      22.45033     198.04250      15.59480      17.00000 
   4723.99583       0.44071     218.50238     321.48492      21.62705     195.05775      15.04453      17.00000 
   4721.99583       0.42812     219.63316     322.92587      21.20178     196.17329      14.47363      17.00000 
   4719.99583       0.43733     221.13496     324.74200      21.69315     199.18591      14.67080      18.00000 
   4717.99583       0.43939     219.42786     323.33282      21.58158     196.90504      14.78623      18.00000 
   4715.99583       0.42862     221.61601     325.77765      21.36883     199.57425      14.23115      17.00000 
   4713.99583       0.43621     221.42383     326.15909      21.37014     199.29407      14.13685      17.00000 
   4711.99583       0.41606     217.36156     322.37320      20.50075     192.36964      13.90514      17.00000 
   4709.99583       0.44539     220.23123     325.44418      21.71894     198.17413      14.52108      17.00000 
   4707.99583       0.46663     221.13202     326.50623      22.72509     201.00258      15.30838      17.00000 
   4705.99583       0.46320     218.46495     323.85602      22.68370     197.50696      15.67724      17.00000 
   4703.99583       0.46489     221.47420     326.92126      22.75968     201.81020      15.33754      16.00000 
   4701.99583       0.46483     222.17499     327.60181      22.60277     202.72420      15.13425      17.00000 
   4699.99583       0.48029     220.87032     326.39517      23.32530     202.11430      16.01755      17.00000 
   4697.99583       0.48340     218.60939     324.16815      23.59555     199.62425      16.61527      17.00000 
   4695.99583       0.23902     168.87178     274.58618      12.14234     129.13510      14.89880       9.00000 
   4693.99583       0.68544     222.57214     328.37537      31.48436     211.59027      23.76017      15.00000 
   4691.99583       0.62291     220.64192     326.62427      29.15057     207.88091      21.73736      17.00000 
   4689.99583       0.54610     224.81119     330.79352      26.46085     211.38197      18.64610      13.00000 
   4685.99583       0.35129     202.17786     308.02261      17.81738     171.67662      14.06517      15.00000 
   4683.99583       0.37287     210.19121     316.03595      18.82855     182.88846      13.66826      17.00000 
   4681.99583       0.39280     212.10555     318.06857      19.48870     186.42508      13.93152      17.00000 
   4679.99583       0.32237     228.94804     335.26590      16.07278     201.83031       8.44612      11.00000 
   4677.99583       0.03342     267.63354      14.07168       1.70127      70.72964       7.81350      16.00000 
   4675.99583       0.06902     174.84712     281.28522       3.53667      95.47334       9.41651      12.00000 
   4673.99583       0.45049     216.66643     323.54941      22.04232     196.52687      15.45323      16.00000 
   4671.99583       0.46274     214.07907     320.95999      22.65348     194.21855      16.42065      16.00000 
   4669.99583       0.59449     224.01819     330.89911      28.09097     212.23058      20.38727      12.00000 
   4665.99583       0.06884     287.51187      34.40785       3.54848      55.12050       6.43553      13.00000 
   4663.99583       0.48022     209.91933     316.81528      23.31721     190.74139      17.77128      17.00000 
   4661.99583       0.46478     211.49074     318.39551      22.72129     192.21136      17.03803      17.00000 
   4659.99583       0.46880     212.49400     319.54379      22.57066     193.47250      16.77048      17.00000 
   4657.99583       0.46316     213.33986     320.42343      22.48126     194.57788      16.59653      17.00000 
   4655.99583       0.42930     219.49727     326.58084      21.33027     201.14529      14.73557      14.00000 
   4653.99583       0.32719     191.82312     299.12961      16.62360     160.74527      14.48190      12.00000 
   4651.99583       0.26200     197.88205     305.18854      13.44009     157.82922      10.99345      12.00000 
   4649.99583       0.39152     208.22417     315.53064      19.51082     184.13121      14.53820      14.00000 
   4647.99583       0.36511     202.86748     310.99976      18.14261     175.51562      13.98272      15.00000 
   4645.99583       0.29885     204.53040     312.66269      14.99056     169.59567      11.06138      12.00000 
   4643.99583       0.31117     210.71281     318.94745      15.66256     178.80205      10.67532      17.00000 
   4641.99583       0.30787     211.16386     319.47562      15.51136     179.28394      10.49196      17.00000 
