~VERSION INFORMATION
VERS.           2.0   :CWLS Log ASCII Standard - VERSION 2.0
WRAP.           YES   :Multiple lines per depth step
PROD.  Schlumberger   :LAS Producer
PROG.  DLIS to ASCII 19C0-187                          :LAS Program name and version
CREA.        2011/01/03 01:37                          :LAS Creation date {YYYY/MM/DD hh:mm}
DLIS_CREA.  2011-Jan-03 01:12                          :DLIS Creation date and time {YYYY-MMM-DD hh:mm}
SOURCE.     BC0W-00120_VENOCO_HAMES_VALLEY_1-35_FPEX_HRLA_HNGS_068PUP.DLIS  :DLIS File Name
FILE-ID.     TLD_MCFL_CNL_NGS_068PUP                   :File Identification Number
#--------------------------------------------------
~WELL INFORMATION
#MNEM.UNIT      DATA             DESCRIPTION
#---- ------ --------------   -----------------------------
STRT .F         5235.0       :START DEPTH     
STOP .F           78.5       :STOP DEPTH     
STEP .F           -0.5       :STEP     
NULL .          -999.25      :NULL VALUE
COMP .        VENOCO, INC.                             :COMPANY
WELL .        HAMES VALLEY 1-35                        :WELL
FLD  .        HAMES VALLEY                             :FIELD
LOC  .        LAT: 35.889467                           :LOCATION
CNTY .        MONTEREY                                 :COUNTY
STAT .        CALIFORNIA                               :STATE
CTRY .                                                 :COUNTRY
API  .        040532205900                             :API NUMBER
UWI  .        040532205900                             :UNIQUE WELL ID
DATE .        02-Jan-2011                              :LOG DATE {DD-MMM-YYYY}
SRVC .        Schlumberger                             :SERVICE COMPANY
LATI .DEG                                              :LATITUDE
LONG .DEG                                              :LONGITUDE
GDAT .                                                 :GeoDetic Datum
SECT .        35                                       :Section
RANG .        10E                                      :Range
TOWN .        23S                                      :Township
#-----------------------------------------------------------------------------
~PARAMETER INFORMATION
#MNEM.UNIT    VALUE                      DESCRIPTION
#---- -----   --------------------       ------------------------
RUN  .          ONE                      :RUN NUMBER
PDAT .        GROUND LEVEL               :Permanent Datum
EPD  .F         1002.000000              :Elevation of Permanent Datum above Mean Sea Level
LMF  .          KELLY BUSHING            :Logging Measured From (Name of Logging Elevation Reference)
APD  .F          23.000000               :Elevation of Depth Reference (LMF) above Permanent Datum
#-----------------------------------------------------------------------------
~CURVE INFORMATION
#MNEM.UNIT   API CODE                                  DESCRIPTION
#---- -----  --------                                  -----------------------
DEPT .F                                                :DEPTH (BOREHOLE) {F10.1}
BS   .IN                                               :Bit Size {F13.4}
CDF  .LBF                                              :Calibrated Downhole Force {F13.4}
DF   .LBF                                              :Uncalibrated Downhole Force {F13.4}
GR   .GAPI                                             :Gamma Ray {F13.4}
HBHK .CFCF                                             :HNGS Borehole Potassium Concentration {F13.4}
HCAL .IN                                               :HRCC Cal. Caliper {F13.4}
HCGR .GAPI                                             :HNGS Computed Gamma Ray {F13.4}
HDRA .G/C3                                             :HRDD Density Correction {F13.4}
HFK  .CFCF                                             :HNGS Formation Potassium Concentration {F13.4}
HMIN .OHMM                                             :MCFL Micro Inverse Resistivity {F13.4}
HMNO .OHMM                                             :MCFL Micro Normal Resistivity {F13.4}
HSGR .GAPI                                             :HNGS Standard Gamma Ray {F13.4}
HTHO .PPM                                              :HNGS Formation Thorium Concentration {F13.4}
HTPR .                                                 :HNGS Thorium/Potassium Ratio {F13.4}
HTUR .                                                 :HNGS Thorium/Uranium Ratio {F13.4}
HURA .PPM                                              :HNGS Formation Uranium Concentration {F13.4}
ICV  .F3                                               :Integrated Cement Volume {F13.4}
IHV  .F3                                               :Integrated Hole Volume {F13.4}
PEFZ .                                                 :HRDD Standard Resolution Formation Photoelectric Factor {F13.4}
RHOZ .G/C3                                             :HRDD Standard Resolution Formation Density {F13.4}
RLA1 .OHMM                                             :HRLT Borehole Corrected Resistivity 1 {F13.4}
RLA2 .OHMM                                             :HRLT Borehole Corrected Resistivity 2 {F13.4}
RLA3 .OHMM                                             :HRLT Borehole Corrected Resistivity 3 {F13.4}
RLA4 .OHMM                                             :HRLT Borehole Corrected Resistivity 4 {F13.4}
RLA5 .OHMM                                             :HRLT Borehole Corrected Resistivity 5 {F13.4}
RXOZ .OHMM                                             :MCFL Standard Resolution Invaded Zone Resistivity {F13.4}
SP   .MV                                               :SP Shifted {F13.4}
TENS .LBF                                              :Cable Tension {F13.4}
TNPH .CFCF                                             :Thermal Neutron Porosity {F13.4}
#-----------------------------------------------------------------------------
# DEPT       
#     BS           CDF          DF           GR_EDTC      HBHK         HCAL         
#     HCGR         HDRA         HFK          HMIN         HMNO         HSGR         
#     HTHO         HTPR         HTUR         HURA         ICV          IHV          
#     PEFZ         RHOZ         RLA1         RLA2         RLA3         RLA4         
#     RLA5         RXOZ         SP           TENS         TNPH         
~A  
# ...
2148.0
     12.2500     995.4000     995.4000      76.1893       0.0129      13.7146
     65.2598      -0.0075       0.0267       0.4346       0.3978      90.9131
      5.2874       1.9796       1.6938       3.1215    1155.9933    2713.9543
      1.8102       1.6112       1.5504       2.2083       2.6995       2.8037
      2.9316       0.5720     -50.8750    2208.0000       0.4713
2147.5
     12.2500     971.4037     971.4037      72.1264       0.0129      13.4606
     64.2424      -0.0021       0.0268       0.3914       0.3814      88.6979
      4.9281       1.8412       1.7017       2.8960    1156.2347    2714.4485
      1.7819       1.6061       1.6321       2.3496       2.8534       2.9687
      3.0973       0.5766     -50.3125    2175.0000       0.4996
2147.0
     12.2500     958.9612     958.9612      74.3838       0.0129      13.0477
     60.5942       0.0044       0.0266       0.3009       0.3056      86.5084
      3.8815       1.4617       1.2333       3.1472    1156.4464    2714.9128
      1.7405       1.6076       1.5998       2.3265       2.7775       2.8900
      3.0362       0.5086     -49.5625    2218.0000       0.5314
2146.5
     12.2500     971.4037     971.4037      73.2286       0.0129      13.0557
     58.9062       0.0097       0.0259       0.2683       0.2682      83.6046
      3.7306       1.4410       1.2885       2.8953    1156.6586    2715.3777
      1.7026       1.6121       1.5342       2.1877       2.5656       2.6676
      2.8168       0.5069     -49.3125    2182.0000       0.4872
2146.0
     12.2500     958.9612     958.9612      72.8177       0.0129      12.8691
     55.8322       0.0115       0.0257       0.3029       0.3277      81.9416
      2.8656       1.1158       0.8915       3.2144    1156.8575    2715.8293
      1.6579       1.6282       1.6791       2.3805       2.8265       2.9502
      3.1477       0.5821     -49.2500    2150.0000       0.4639
2145.5
     12.2500     947.4075     947.4075      69.2690       0.0129      12.8095
     53.1851       0.0102       0.0247       0.3432       0.3892      79.8837
      2.6059       1.0560       0.8064       3.2313    1157.0524    2716.2769
      1.6398       1.6439       1.9327       2.7649       3.3543       3.5316
      3.8013       0.7168     -49.4375    2174.0000       0.4463
2145.0
     12.2500     958.9612     958.9612      70.5843       0.0129      12.7976
     53.1274       0.0082       0.0253       0.3924       0.4147      81.3814
      2.2024       0.8694       0.6387       3.4481    1157.2463    2716.7234
      1.6362       1.6618       1.9423       2.7205       3.2108       3.3567
      3.6302       0.8034     -49.4375    2210.0000       0.4836
2144.5
     12.2500     947.4075     947.4075      67.9341       0.0129      12.8095
     52.3092       0.0078       0.0243       0.4393       0.4810      79.4937
      2.5467       1.0482       0.7687       3.3131    1157.4412    2717.1709
      1.6635       1.6760       2.1260       2.9273       3.4552       3.6135
      3.9284       0.8759     -49.6875    2072.0000       0.4537
2144.0
     12.2500     947.4075     947.4075      67.1731       0.0129      12.8969
     51.2306       0.0070       0.0235       0.6421       0.7057      77.3590
      2.6618       1.1322       0.8330       3.1955    1157.6421    2717.6245
      1.6607       1.6904       2.4644       3.4595       4.0934       4.2898
      4.7263       1.2958     -49.8125    2136.0000       0.4546
2143.5
     12.2500     958.9612     958.9612      70.2863       0.0129      12.7857
     50.6972       0.0050       0.0233       0.8088       0.8194      76.5845
      2.6396       1.1351       0.8499       3.1059    1157.8352    2718.0703
      1.6517       1.6910       2.6807       3.8254       4.6236       4.8471
      5.3826       1.0842     -49.8125    2182.0000       0.4246
2143.0
     12.2500     947.4075     947.4075      68.8279       0.0129      12.7539
     49.6154       0.0004       0.0231       0.4433       0.4500      78.5976
      2.3751       1.0276       0.6860       3.4624    1158.0261    2718.5139
      1.6398       1.6731       2.3453       3.1912       3.6439       3.7697
      4.1716       1.0192     -49.6250    2156.0000       0.4615
2142.5
     12.2500     971.4037     971.4037      66.7956       0.0129      12.7500
     49.7933      -0.0018       0.0230       0.5317       0.5380      81.4779
      2.5022       1.0882       0.6521       3.8374    1158.2168    2718.9573
      1.6566       1.6650       2.3757       3.1939       3.6790       3.8033
      4.2098       0.8864     -50.0000    2157.0000       0.4474
2142.0
     12.2500     947.4075     947.4075      65.8329       0.0129      12.7857
     49.7124      -0.0029       0.0228       0.6330       0.6344      82.8540
      2.6170       1.1501       0.6363       4.1128    1158.4099    2719.4031
      1.6778       1.6668       2.2830       3.0751       3.5180       3.6406
      4.0319       1.0554     -50.2500    2179.0000       0.4386
2141.5
     12.2500     971.4037     971.4037      73.8723       0.0129      13.0477
     49.7326      -0.0016       0.0218       0.5030       0.5715      82.9423
      3.2006       1.4703       0.7860       4.0720    1158.6216    2719.8674
      1.6870       1.6749       2.2842       3.1935       3.8459       3.9978
      4.4388       1.0060     -50.0625    2206.0000       0.4305
2141.0
     12.2500     958.9612     958.9612      79.9388       0.0129      12.6746
     52.0308      -0.0011       0.0224       0.4819       0.4854      85.6762
      3.5698       1.5939       0.8587       4.1571    1158.8070    2720.3054
      1.6945       1.6645       1.9981       2.7494       3.1936       3.3042
      3.6480       0.9206     -50.0625    2109.0000       0.4710
2140.5
     12.2500     971.4037     971.4037      78.1748       0.0129      12.7222
     50.7693      -0.0003       0.0212       0.4735       0.4657      84.1088
      3.8884       1.8375       0.9782       3.9752    1158.9957    2720.7468
      1.6773       1.6524       1.9059       2.5819       3.0751       3.1666
      3.4837       0.7469     -49.9375    2163.0000       0.4954
2140.0
     12.2500     958.9612     958.9612      76.8880       0.0129      12.7738
     52.1143      -0.0013       0.0215       0.4722       0.4493      84.1247
      4.1223       1.9175       1.0780       3.8239    1159.1881    2721.1919
      1.6825       1.6388       1.7277       2.3329       2.7319       2.8016
      3.0604       0.7967     -49.9375    2167.0000       0.5186
2139.5
     12.2500     958.9612     958.9612      78.4283       0.0129      12.8214
     54.2587      -0.0026       0.0221       0.5452       0.5423      86.1093
      4.4672       2.0228       1.1674       3.8265    1159.3838    2721.6401
      1.6831       1.6325       1.8198       2.5991       3.1683       3.2704
      3.5660       0.7383     -49.8750    2162.0000       0.5195
2139.0
     12.2500     947.4075     947.4075      82.9721       0.0129      12.8095
     55.6220      -0.0050       0.0234       0.4478       0.4267      90.5614
      4.1222       1.7601       0.9511       4.3342    1159.5786    2722.0876
      1.6859       1.6189       1.7223       2.4870       2.9947       3.1041
      3.3666       0.6665     -49.4375    2175.0000       0.5253
2138.5
     12.2500     958.9612     958.9612      84.4168       0.0129      12.8095
     55.2371      -0.0071       0.0230       0.3934       0.3555      92.8531
      4.2213       1.8322       0.8830       4.7806    1159.7734    2722.5352
      1.6767       1.6022       1.5136       2.1210       2.5130       2.5958
      2.8140       0.5207     -49.1875    2185.0000       0.5030
2138.0
     12.2500     958.9612     958.9612      82.5620       0.0129      12.8969
     57.3649      -0.0085       0.0238       0.3566       0.3185      94.1021
      4.4492       1.8681       0.9386       4.7401    1159.9744    2722.9888
      1.6824       1.5884       1.4267       1.9540       2.3211       2.4128
      2.6021       0.4544     -49.2500    2147.0000       0.5176
