~VERSION INFORMATION
VERS.           2.0   :CWLS Log ASCII Standard - VERSION 2.0
WRAP.           NO    :One Line per depth step
PROD.  Schlumberger   :LAS Producer
PROG.  DLIS to ASCII 19C0-187                          :LAS Program name and version
CREA.        2011/01/03 01:40                          :LAS Creation date {YYYY/MM/DD hh:mm}
DLIS_CREA.  2011-Jan-02 17:53                          :DLIS Creation date and time {YYYY-MMM-DD hh:mm}
SOURCE.     BC0W-00120_VENOCO_HAMES_VALLEY_HAMES_VALLEY_1-35_FMI_DSST_MAIN.DLIS  :DLIS File Name
FILE-ID.     FMI_CAL_DSI_028PUP                        :File Identification Number
#--------------------------------------------------
~WELL INFORMATION
#MNEM.UNIT      DATA             DESCRIPTION
#---- ------ --------------   -----------------------------
STRT .F         5241.0       :START DEPTH     
STOP .F         1500.5       :STOP DEPTH     
STEP .F           -0.5       :STEP     
NULL .          -999.25      :NULL VALUE
COMP .        VENOCO, INC.                             :COMPANY
WELL .        HAMES VALLEY 1-35                        :WELL
FLD  .        HAMES VALLEY                             :FIELD
LOC  .        LAT: 35.889467                           :LOCATION
CNTY .        MONTEREY                                 :COUNTY
STAT .        CALIFORNIA                               :STATE
CTRY .                                                 :COUNTRY
API  .        040532205900                             :API NUMBER
UWI  .        040532205900                             :UNIQUE WELL ID
DATE .        02-Jan-2011                              :LOG DATE {DD-MMM-YYYY}
SRVC .        Schlumberger                             :SERVICE COMPANY
LATI .DEG                                              :LATITUDE
LONG .DEG                                              :LONGITUDE
GDAT .                                                 :GeoDetic Datum
SECT .        35                                       :Section
RANG .        10E                                      :Range
TOWN .        23S                                      :Township
#-----------------------------------------------------------------------------
~PARAMETER INFORMATION
#MNEM.UNIT    VALUE                      DESCRIPTION
#---- -----   --------------------       ------------------------
RUN  .          ONE                      :RUN NUMBER
PDAT .        GROUND LEVEL               :Permanent Datum
EPD  .F         1002.000000              :Elevation of Permanent Datum above Mean Sea Level
LMF  .          KELLY BUSHING            :Logging Measured From (Name of Logging Elevation Reference)
APD  .F          23.000000               :Elevation of Depth Reference (LMF) above Permanent Datum
#-----------------------------------------------------------------------------
~CURVE INFORMATION
#MNEM.UNIT   API CODE                                  DESCRIPTION
#---- -----  --------                                  -----------------------
DEPT .F                                                :DEPTH (BOREHOLE) {F10.1}
BS   .IN                                               :Bit Size {F13.4}
CDF  .LBF                                              :Calibrated Downhole Force {F13.4}
DF   .LBF                                              :Uncalibrated Downhole Force {F13.4}
DTCO .US/F                                             :Delta-T Compressional {F13.4}
DTSM .US/F                                             :Delta-T Shear {F13.4}
GR_EDTC.GAPI                                           :EDTC Gamma Ray {F13.4}
HD1_PPC1.IN                                            :PPC1 Hole Diameter 1 {F13.4}
HD1_PPC2.IN                                            :PPC2 Hole Diameter 1 {F13.4}
HD2_PPC1.IN                                            :PPC1 Hole Diameter 2 {F13.4}
HD2_PPC2.IN                                            :PPC2 Hole Diameter 2 {F13.4}
ICV  .F3                                               :Integrated Cement Volume {F13.4}
IHV  .F3                                               :Integrated Hole Volume {F13.4}
ITT  .S                                                :Integrated Transit Time {F13.4}
SPHI .CFCF                                             :Sonic Porosity {F13.4}
TENS .LBF                                              :Cable Tension {F13.4}
#-----------------------------------------------------------------------------
# 
#     DEPT        BS           CDF          DF           DTCO         DTSM       GR_EDTC      HD1_PPC1     HD1_PPC2     HD2_PPC1     HD2_PPC2       ICV          IHV          ITT          SPHI         TENS
#
~A  
# ...
    3759.0      12.2500    1153.5975    1153.5975      79.6739     103.5495     133.9805      12.8626      12.8910      12.4384      12.7419     515.1458    1259.1356       0.1525       0.1857    2822.0000
    3758.5      12.2500    1153.5975    1153.5975      76.1617      83.6529     126.0991      12.8626      12.8910      12.4384      12.7419     515.3295    1259.5720       0.1526       0.1655    2813.0000
    3758.0      12.2500    1166.0400    1166.0400      85.7162     103.2057     117.9706      12.8626      12.8999      12.4384      12.7294     515.5132    1260.0084       0.1526       0.2167    2898.0000
    3757.5      12.2500    1153.5975    1153.5975      85.8332     104.1319     112.9703      12.8417      12.8698      12.4384      12.7182     515.6962    1260.4441       0.1527       0.2172    2851.0000
    3757.0      12.2500    1153.5975    1153.5975      86.3914     104.3230     114.1926      12.8415      12.8479      12.4384      12.7298     515.8792    1260.8798       0.1527       0.2199    2798.0000
    3756.5      12.2500    1166.0400    1166.0400      84.7918     104.7346     109.0379      12.8521      12.8801      12.4506      12.7656     516.0630    1261.3162       0.1528       0.2122    2857.0000
    3756.0      12.2500    1141.1550    1141.1550      85.1278     105.5186     103.4905      12.8732      12.8801      12.4384      12.7535     516.2471    1261.7529       0.1528       0.2139    2826.0000
    3755.5      12.2500    1166.0400    1166.0400      85.8952     105.1820     106.3420      12.8445      12.8804      12.4265      12.7182     516.4297    1262.1882       0.1528       0.2175    2783.0000
    3755.0      12.2500    1177.5938    1177.5938      85.1557     104.8074     106.3420      12.8521      12.8784      12.4506      12.7535     516.6135    1262.6246       0.1529       0.2140    2893.0000
    3754.5      12.2500    1166.0400    1166.0400      83.8992     104.4917     108.5228      12.8626      12.8589      12.4384      12.7540     516.7972    1263.0610       0.1529       0.2078    2793.0000
    3754.0      12.2500    1153.5975    1153.5975      83.0090     105.3765     105.2748      12.8521      12.8913      12.4622      12.7656     516.9814    1263.4979       0.1530       0.2034    2790.0000
    3753.5      12.2500    1190.0363    1190.0363      82.0522     105.5514     103.1683      12.8521      12.8913      12.4506      12.7656     517.1652    1263.9343       0.1530       0.1984    2988.0000
    3753.0      12.2500    1153.5975    1153.5975      80.5812     104.0759     108.7195      12.8310      12.8589      12.4262      12.7656     517.3475    1264.3691       0.1530       0.1907    2878.0000
    3752.5      12.2500    1166.0400    1166.0400      79.5320      99.2344     104.9526      12.8204      12.9040      12.4384      12.7065     517.5298    1264.8041       0.1531       0.1849    2723.0000
    3752.0      12.2500    1177.5938    1177.5938      81.3656     105.8522     105.2748      12.8521      12.8913      12.4384      12.7414     517.7131    1265.2401       0.1531       0.1948    2917.0000
    3751.5      12.2500    1166.0400    1166.0400      84.0063     106.1824     103.2638      12.8521      12.8910      12.4503      12.7419     517.8969    1265.6765       0.1532       0.2084    2844.0000
    3751.0      12.2500    1153.5975    1153.5975      86.5124     105.7882     104.8498      12.8521      12.8784      12.4506      12.7535     518.0807    1266.1129       0.1532       0.2204    2828.0000
    3750.5      12.2500    1153.5975    1153.5975      88.7796     105.6891     109.0132      12.8626      12.9019      12.4866      12.7540     518.2661    1266.5509       0.1533       0.2308    2844.0000
    3750.0      12.2500    1166.0400    1166.0400      88.8288     106.2355     100.1201      12.8626      12.8910      12.4744      12.7656     518.4511    1266.9885       0.1533       0.2310    2862.0000
    3749.5      12.2500    1153.5975    1153.5975      88.9707     107.0387      98.7323      12.8310      12.8910      12.4866      12.7656     518.6354    1267.4255       0.1533       0.2316    2876.0000
    3749.0      12.2500    1129.6013    1129.6013      88.3228     106.4730      92.3881      12.8835      12.8804      12.4866      12.7656     518.8215    1267.8643       0.1534       0.2287    2775.0000
    3748.5      12.2500    1166.0400    1166.0400      88.2735     106.2992      94.5503      12.8837      12.9019      12.4866      12.7656     519.0077    1268.3030       0.1534       0.2285    2823.0000
    3748.0      12.2500    1141.1550    1141.1550      88.2259     107.3918      95.1759      12.8973      12.9019      12.4867      12.7772     519.1943    1268.7422       0.1535       0.2283    2852.0000
    3747.5      12.2500    1153.5975    1153.5975      88.1078     107.3324      93.9864      12.8732      12.9019      12.4506      12.7298     519.3788    1269.1793       0.1535       0.2278    2843.0000
    3747.0      12.2500    1153.5975    1153.5975      84.5472     110.3122      90.6346      12.8626      12.9019      12.4503      12.7419     519.5629    1269.6161       0.1536       0.2110    2887.0000
    3746.5      12.2500    1153.5975    1153.5975      78.8182      96.8747      91.5037      13.1258      13.2854      12.4988      12.9309     519.7578    1270.0636       0.1536       0.1809    2829.0000
    3746.0      12.2500    1153.5975    1153.5975      79.9977     107.6908      94.2793      13.0205      12.9876      12.4866      12.8486     519.9485    1270.5071       0.1536       0.1875    2861.0000
    3745.5      12.2500    1153.5975    1153.5975      80.7328     108.8503      97.0549      13.2614      13.1809      12.5711      13.0018     520.1506    1270.9618       0.1537       0.1915    2839.0000
    3745.0      12.2500    1141.1550    1141.1550      81.9645     104.9666      92.1946      13.3866      13.1809      12.6189      13.0018     520.3586    1271.4225       0.1537       0.1980    2832.0000
    3744.5      12.2500    1166.0400    1166.0400      81.4051     105.1614      89.8155      13.2752      13.1490      12.6313      12.9898     520.5634    1271.8798       0.1538       0.1951    2876.0000
    3744.0      12.2500    1166.0400    1166.0400      81.3435     101.2289      89.2207      13.2092      13.1486      12.6311      12.9190     520.7657    1272.3348       0.1538       0.1947    2793.0000
    3743.5      12.2500    1214.9213    1214.9213      79.3508     100.2058      88.8195      13.1358      13.2237      12.6311      12.9195     520.9656    1272.7874       0.1538       0.1839    3017.0000
    3743.0      12.2500    1190.0363    1190.0363      80.4309     105.2113      83.0100      13.1882      13.3410      12.7751      12.9782     521.1725    1273.2468       0.1539       0.1898    3003.0000
    3742.5      12.2500    1153.5975    1153.5975      81.8943     105.3198      78.0536      13.3137      13.6176      13.0263      13.0844     521.3929    1273.7198       0.1539       0.1976    2764.0000
    3742.0      12.2500    1177.5938    1177.5938      83.7837     105.0776      75.5005      13.1881      13.2132      12.6907      12.8713     521.5968    1274.1763       0.1540       0.2073    2919.0000
    3741.5      12.2500    1177.5938    1177.5938      84.8777     103.5237      80.7592      12.8414      12.8698      12.3540      12.6591     521.7769    1274.6089       0.1540       0.2126    2970.0000
    3741.0      12.2500    1129.6013    1129.6013      83.1614     102.9648      77.5871      12.6937      12.8362      12.3779      12.6820     521.9528    1275.0375       0.1541       0.2041    2781.0000
    3740.5      12.2500    1166.0400    1166.0400      81.7451      99.8778      77.3973      12.6937      12.8267      12.3418      12.6708     522.1274    1275.4647       0.1541       0.1968    2848.0000
    3740.0      12.2500    1153.5975    1153.5975      80.2921      96.2233      70.9875      12.7147      12.8267      12.3418      12.6708     522.3027    1275.8927       0.1541       0.1891    2860.0000
