~VERSION INFORMATION
VERS.           2.0   :CWLS Log ASCII Standard - VERSION 2.0
WRAP.           YES   :Multiple lines per depth step
PROD.  Schlumberger   :LAS Producer
PROG.  DLIS to ASCII 19C0-187                          :LAS Program name and version
CREA.        2011/01/03 01:37                          :LAS Creation date {YYYY/MM/DD hh:mm}
DLIS_CREA.  2011-Jan-03 01:12                          :DLIS Creation date and time {YYYY-MMM-DD hh:mm}
SOURCE.     BC0W-00120_VENOCO_HAMES_VALLEY_1-35_FPEX_HRLA_HNGS_068PUP.DLIS  :DLIS File Name
FILE-ID.     TLD_MCFL_CNL_NGS_068PUP                   :File Identification Number
#--------------------------------------------------
~WELL INFORMATION
#MNEM.UNIT      DATA             DESCRIPTION
#---- ------ --------------   -----------------------------
STRT .F         5235.0       :START DEPTH     
STOP .F           78.5       :STOP DEPTH     
STEP .F           -0.5       :STEP     
NULL .          -999.25      :NULL VALUE
COMP .        VENOCO, INC.                             :COMPANY
WELL .        HAMES VALLEY 1-35                        :WELL
FLD  .        HAMES VALLEY                             :FIELD
LOC  .        LAT: 35.889467                           :LOCATION
CNTY .        MONTEREY                                 :COUNTY
STAT .        CALIFORNIA                               :STATE
CTRY .                                                 :COUNTRY
API  .        040532205900                             :API NUMBER
UWI  .        040532205900                             :UNIQUE WELL ID
DATE .        02-Jan-2011                              :LOG DATE {DD-MMM-YYYY}
SRVC .        Schlumberger                             :SERVICE COMPANY
LATI .DEG                                              :LATITUDE
LONG .DEG                                              :LONGITUDE
GDAT .                                                 :GeoDetic Datum
SECT .        35                                       :Section
RANG .        10E                                      :Range
TOWN .        23S                                      :Township
#-----------------------------------------------------------------------------
~PARAMETER INFORMATION
#MNEM.UNIT    VALUE                      DESCRIPTION
#---- -----   --------------------       ------------------------
RUN  .          ONE                      :RUN NUMBER
PDAT .        GROUND LEVEL               :Permanent Datum
EPD  .F         1002.000000              :Elevation of Permanent Datum above Mean Sea Level
LMF  .          KELLY BUSHING            :Logging Measured From (Name of Logging Elevation Reference)
APD  .F          23.000000               :Elevation of Depth Reference (LMF) above Permanent Datum
#-----------------------------------------------------------------------------
~CURVE INFORMATION
#MNEM.UNIT   API CODE                                  DESCRIPTION
#---- -----  --------                                  -----------------------
DEPT .F                                                :DEPTH (BOREHOLE) {F10.1}
BS   .IN                                               :Bit Size {F13.4}
CDF  .LBF                                              :Calibrated Downhole Force {F13.4}
DF   .LBF                                              :Uncalibrated Downhole Force {F13.4}
GR   .GAPI                                             :Gamma Ray {F13.4}
HBHK .CFCF                                             :HNGS Borehole Potassium Concentration {F13.4}
HCAL .IN                                               :HRCC Cal. Caliper {F13.4}
HCGR .GAPI                                             :HNGS Computed Gamma Ray {F13.4}
HDRA .G/C3                                             :HRDD Density Correction {F13.4}
HFK  .CFCF                                             :HNGS Formation Potassium Concentration {F13.4}
HMIN .OHMM                                             :MCFL Micro Inverse Resistivity {F13.4}
HMNO .OHMM                                             :MCFL Micro Normal Resistivity {F13.4}
HSGR .GAPI                                             :HNGS Standard Gamma Ray {F13.4}
HTHO .PPM                                              :HNGS Formation Thorium Concentration {F13.4}
HTPR .                                                 :HNGS Thorium/Potassium Ratio {F13.4}
HTUR .                                                 :HNGS Thorium/Uranium Ratio {F13.4}
HURA .PPM                                              :HNGS Formation Uranium Concentration {F13.4}
ICV  .F3                                               :Integrated Cement Volume {F13.4}
IHV  .F3                                               :Integrated Hole Volume {F13.4}
PEFZ .                                                 :HRDD Standard Resolution Formation Photoelectric Factor {F13.4}
RHOZ .G/C3                                             :HRDD Standard Resolution Formation Density {F13.4}
RLA1 .OHMM                                             :HRLT Borehole Corrected Resistivity 1 {F13.4}
RLA2 .OHMM                                             :HRLT Borehole Corrected Resistivity 2 {F13.4}
RLA3 .OHMM                                             :HRLT Borehole Corrected Resistivity 3 {F13.4}
RLA4 .OHMM                                             :HRLT Borehole Corrected Resistivity 4 {F13.4}
RLA5 .OHMM                                             :HRLT Borehole Corrected Resistivity 5 {F13.4}
RXOZ .OHMM                                             :MCFL Standard Resolution Invaded Zone Resistivity {F13.4}
SP   .MV                                               :SP Shifted {F13.4}
TENS .LBF                                              :Cable Tension {F13.4}
TNPH .CFCF                                             :Thermal Neutron Porosity {F13.4}
#-----------------------------------------------------------------------------
# DEPT       
#     BS           CDF          DF           GR_EDTC      HBHK         HCAL         
#     HCGR         HDRA         HFK          HMIN         HMNO         HSGR         
#     HTHO         HTPR         HTUR         HURA         ICV          IHV          
#     PEFZ         RHOZ         RLA1         RLA2         RLA3         RLA4         
#     RLA5         RXOZ         SP           TENS         TNPH         
~A  
# ...
1465.5
     17.5000     947.4075     947.4075      48.1756       0.0131      12.6269
     46.3995       1.6964       0.0191       0.0295       0.0268      62.0428
      3.6769       1.9203       1.8095       2.0320    1430.7537    3304.0020
     10.0000       4.0048       0.0246       0.0199       0.0180       0.0168
      0.0208       0.0353     101.4375    1900.0000       0.9186
1465.0
     17.5000     922.5225     922.5225      45.8390       0.0131      12.6269
     47.4913       1.5587       0.0198       0.0295       0.0268      62.8252
      3.6566       1.8487       1.8285       1.9997    1430.7537    3304.0020
     10.0000       3.8536       0.0251       0.0203       0.0184       0.0172
      0.0209       0.0353     101.0625    1959.0000       0.9233
1464.5
     17.5000     958.9612     958.9612      46.3616       0.0131      12.6269
     48.9513       1.5819       0.0203       0.0324       0.0303      64.1136
      3.8244       1.8846       1.8541       2.0627    1430.7537    3304.0020
     10.0000       3.8595       0.0205       0.0169       0.0154       0.0144
      0.0187       0.0389     100.8750    2004.0000       0.8022
1464.0
     17.5000     934.9650     934.9650      44.6432       0.0131      12.6309
     47.1932       1.5922       0.0201       0.0353       0.0320      62.5620
      3.3904       1.6892       1.6606       2.0417    1430.7537    3304.0020
     10.0000       3.8614       0.0251       0.0201       0.0182       0.0170
      0.0207       0.0389     101.3125    1987.0000       0.5729
1463.5
     17.5000     958.9612     958.9612      39.2170       0.0131      12.6309
     43.0704       1.5804       0.0185       0.0295       0.0268      58.0483
      2.9893       1.6161       1.5282       1.9561    1430.7537    3304.0020
     10.0000       3.8572       0.0241       0.0196       0.0177       0.0165
      0.0207       0.0389     102.5000    2010.0000       0.5055
1463.0
     17.5000     958.9612     958.9612      33.4408       0.0131      12.6349
     39.2992       1.5631       0.0171       0.0295       0.0268      52.5338
      2.5848       1.5097       1.4791       1.7476    1430.7537    3304.0020
     10.0000       3.8484       0.0229       0.0187       0.0170       0.0159
      0.0204       0.0353     103.0000    1997.0000       0.5472
1462.5
     17.5000     922.5225     922.5225      32.6706       0.0131      12.6349
     37.2577       1.5922       0.0165       0.0295       0.0268      49.6325
      2.2724       1.3742       1.3799       1.6468    1430.7537    3304.0020
     10.0000       3.8797       0.0235       0.0191       0.0174       0.0164
      0.0212       0.0386     103.3125    1954.0000       0.4920
1462.0
     17.5000     922.5225     922.5225      35.5487       0.0131      12.6507
     36.8536       1.6368       0.0163       0.0454       0.0414      49.3328
      2.2608       1.3840       1.3784       1.6402    1430.7537    3304.0020
     10.0000       3.9091       0.0268       0.0216       0.0195       0.0183
      0.0226       0.0499     103.6875    1992.0000       0.5505
1461.5
     17.5000     971.4037     971.4037      38.8219       0.0131      12.6547
     37.3982       1.6895       0.0163       0.0578       0.0517      48.0338
      2.4452       1.4985       1.7021       1.4366    1430.7537    3304.0020
     10.0000       3.9553       0.0295       0.0237       0.0213       0.0198
      0.0233       0.0499     104.3125    1939.0000       0.4762
1461.0
     17.5000     983.8463     983.8463      41.7100       0.0131      12.5832
     39.5570       1.5909       0.0176       0.0305       0.0278      51.1102
      2.3928       1.3603       1.6308       1.4673    1430.7537    3304.0020
     10.0000       3.8509       0.0354       0.0281       0.0253       0.0234
      0.0268       0.0421     104.9375    1971.0000       0.5364
1460.5
     17.5000     886.0837     886.0837      45.1786       0.0131      12.4046
     40.6687       1.3545       0.0183       0.0291       0.0265      50.5368
      2.3511       1.2868       1.7888       1.3144    1430.7537    3304.0020
     10.0000       3.5972       0.0256       0.0209       0.0188       0.0177
      0.0222       0.0348     105.0000    1949.0000       0.5660
1460.0
     17.5000     922.5225     922.5225      49.0295       0.0131      12.0791
     43.6970       0.9150       0.0193       0.0286       0.0261      52.7389
      2.6937       1.3925       2.2937       1.1744    1430.7537    3304.0020
     10.0000       3.0907       0.0239       0.0195       0.0177       0.0167
      0.0215       0.0347     104.3750    1963.0000       0.6122
1459.5
     17.5000     983.8463     983.8463      47.1041       0.0131      11.7218
     42.9730       0.4960       0.0190       0.0295       0.0268      51.6435
      2.6659       1.4034       2.4446       1.0905    1430.7537    3304.0020
     10.0000       2.6023       0.0244       0.0200       0.0182       0.0172
      0.0224       0.0348     105.5000    1975.0000       0.5801
1459.0
     17.5000     983.8463     983.8463      42.3788       0.0131      11.3447
     43.7142       0.3860       0.0198       0.0295       0.0269      52.6521
      2.4493       1.2388       2.3328       1.0499    1430.7537    3304.0020
      9.9472       2.4646       0.0238       0.0195       0.0178       0.0168
      0.0221       0.0354     106.1250    2085.0000       0.6317
1458.5
     17.5000     922.5225     922.5225      39.6832       0.0131      11.0152
     40.9141       0.5081       0.0186       0.0304       0.0274      50.5066
      2.2315       1.1991       1.9191       1.1628    1430.7537    3304.0020
      9.6371       2.5961       0.0235       0.0192       0.0175       0.0165
      0.0217       0.0354     105.9375    2013.0000       0.4846
1458.0
     17.5000     958.9612     958.9612      39.8758       0.0131      10.6499
     39.3792       0.7402       0.0180       0.0375       0.0299      49.8918
      2.0910       1.1611       1.6022       1.3050    1430.7537    3304.0020
      9.1310       2.8245       0.0230       0.0188       0.0172       0.0162
      0.0214       0.0354     106.0625    1970.0000       0.5086
1457.5
     17.5000     983.8463     983.8463      43.3359       0.0131      10.2927
     38.3207       0.8536       0.0175       0.0380       0.0301      49.5682
      2.0546       1.1747       1.4526       1.4144    1430.7537    3304.0020
      8.5381       2.9106       0.0252       0.0204       0.0185       0.0174
      0.0223       0.0354     106.0000    1945.0000       0.4333
1457.0
     17.5000     947.4075     947.4075      43.2302       0.0131       9.9433
     39.9145       0.8970       0.0182       0.0393       0.0305      51.0322
      2.1290       1.1674       1.6430       1.2958    1430.7537    3304.0020
      8.0874       2.9336       0.0270       0.0218       0.0197       0.0184
      0.0230       0.0354     106.1875    1944.0000       0.4186
1456.5
     17.5000     983.8463     983.8463      42.0749       0.0131       9.5860
     40.9512       0.9097       0.0188       0.0402       0.0308      52.7680
      2.1542       1.1482       1.5446       1.3947    1430.7537    3304.0020
      7.7659       2.9437       0.0234       0.0190       0.0173       0.0162
      0.0210       0.0354     106.3750    2010.0000       0.4018
1456.0
     17.5000     983.8463     983.8463      43.0232       0.0131       9.1890
     41.2738       0.9099       0.0189       0.0415       0.0312      54.0087
      2.1727       1.1491       1.4022       1.5495    1430.7537    3304.0020
      7.5348       2.9476       0.0180       0.0150       0.0138       0.0130
      0.0180       0.0354     106.4375    1888.0000       0.5163
1455.5
     17.5000     922.5225     922.5225      43.7066       0.0131       8.8397
     42.0432       0.9105       0.0191       0.0394       0.0306      54.9877
      2.2987       1.2026       1.3840       1.6609    1430.7537    3304.0020
      7.3841       2.9486       0.0178       0.0148       0.0135       0.0128
      0.0175       0.0354     105.8750    1902.0000       0.5255
