~VERSION INFORMATION
VERS.           2.0   :CWLS Log ASCII Standard - VERSION 2.0
WRAP.           YES   :Multiple lines per depth step
PROD.  Schlumberger   :LAS Producer
PROG.  DLIS to ASCII 19C0-187                          :LAS Program name and version
CREA.        2011/01/03 01:37                          :LAS Creation date {YYYY/MM/DD hh:mm}
DLIS_CREA.  2011-Jan-03 01:12                          :DLIS Creation date and time {YYYY-MMM-DD hh:mm}
SOURCE.     BC0W-00120_VENOCO_HAMES_VALLEY_1-35_FPEX_HRLA_HNGS_068PUP.DLIS  :DLIS File Name
FILE-ID.     TLD_MCFL_CNL_NGS_068PUP                   :File Identification Number
#--------------------------------------------------
~WELL INFORMATION
#MNEM.UNIT      DATA             DESCRIPTION
#---- ------ --------------   -----------------------------
STRT .F         5235.0       :START DEPTH     
STOP .F           78.5       :STOP DEPTH     
STEP .F           -0.5       :STEP     
NULL .          -999.25      :NULL VALUE
COMP .        VENOCO, INC.                             :COMPANY
WELL .        HAMES VALLEY 1-35                        :WELL
FLD  .        HAMES VALLEY                             :FIELD
LOC  .        LAT: 35.889467                           :LOCATION
CNTY .        MONTEREY                                 :COUNTY
STAT .        CALIFORNIA                               :STATE
CTRY .                                                 :COUNTRY
API  .        040532205900                             :API NUMBER
UWI  .        040532205900                             :UNIQUE WELL ID
DATE .        02-Jan-2011                              :LOG DATE {DD-MMM-YYYY}
SRVC .        Schlumberger                             :SERVICE COMPANY
LATI .DEG                                              :LATITUDE
LONG .DEG                                              :LONGITUDE
GDAT .                                                 :GeoDetic Datum
SECT .        35                                       :Section
RANG .        10E                                      :Range
TOWN .        23S                                      :Township
#-----------------------------------------------------------------------------
~PARAMETER INFORMATION
#MNEM.UNIT    VALUE                      DESCRIPTION
#---- -----   --------------------       ------------------------
RUN  .          ONE                      :RUN NUMBER
PDAT .        GROUND LEVEL               :Permanent Datum
EPD  .F         1002.000000              :Elevation of Permanent Datum above Mean Sea Level
LMF  .          KELLY BUSHING            :Logging Measured From (Name of Logging Elevation Reference)
APD  .F          23.000000               :Elevation of Depth Reference (LMF) above Permanent Datum
#-----------------------------------------------------------------------------
~CURVE INFORMATION
#MNEM.UNIT   API CODE                                  DESCRIPTION
#---- -----  --------                                  -----------------------
DEPT .F                                                :DEPTH (BOREHOLE) {F10.1}
BS   .IN                                               :Bit Size {F13.4}
CDF  .LBF                                              :Calibrated Downhole Force {F13.4}
DF   .LBF                                              :Uncalibrated Downhole Force {F13.4}
GR   .GAPI                                             :Gamma Ray {F13.4}
HBHK .CFCF                                             :HNGS Borehole Potassium Concentration {F13.4}
HCAL .IN                                               :HRCC Cal. Caliper {F13.4}
HCGR .GAPI                                             :HNGS Computed Gamma Ray {F13.4}
HDRA .G/C3                                             :HRDD Density Correction {F13.4}
HFK  .CFCF                                             :HNGS Formation Potassium Concentration {F13.4}
HMIN .OHMM                                             :MCFL Micro Inverse Resistivity {F13.4}
HMNO .OHMM                                             :MCFL Micro Normal Resistivity {F13.4}
HSGR .GAPI                                             :HNGS Standard Gamma Ray {F13.4}
HTHO .PPM                                              :HNGS Formation Thorium Concentration {F13.4}
HTPR .                                                 :HNGS Thorium/Potassium Ratio {F13.4}
HTUR .                                                 :HNGS Thorium/Uranium Ratio {F13.4}
HURA .PPM                                              :HNGS Formation Uranium Concentration {F13.4}
ICV  .F3                                               :Integrated Cement Volume {F13.4}
IHV  .F3                                               :Integrated Hole Volume {F13.4}
PEFZ .                                                 :HRDD Standard Resolution Formation Photoelectric Factor {F13.4}
RHOZ .G/C3                                             :HRDD Standard Resolution Formation Density {F13.4}
RLA1 .OHMM                                             :HRLT Borehole Corrected Resistivity 1 {F13.4}
RLA2 .OHMM                                             :HRLT Borehole Corrected Resistivity 2 {F13.4}
RLA3 .OHMM                                             :HRLT Borehole Corrected Resistivity 3 {F13.4}
RLA4 .OHMM                                             :HRLT Borehole Corrected Resistivity 4 {F13.4}
RLA5 .OHMM                                             :HRLT Borehole Corrected Resistivity 5 {F13.4}
RXOZ .OHMM                                             :MCFL Standard Resolution Invaded Zone Resistivity {F13.4}
SP   .MV                                               :SP Shifted {F13.4}
TENS .LBF                                              :Cable Tension {F13.4}
TNPH .CFCF                                             :Thermal Neutron Porosity {F13.4}
#-----------------------------------------------------------------------------
# DEPT       
#     BS           CDF          DF           GR_EDTC      HBHK         HCAL         
#     HCGR         HDRA         HFK          HMIN         HMNO         HSGR         
#     HTHO         HTPR         HTUR         HURA         ICV          IHV          
#     PEFZ         RHOZ         RLA1         RLA2         RLA3         RLA4         
#     RLA5         RXOZ         SP           TENS         TNPH         
~A  
# ...
4888.5
     12.2500    1031.8387    1031.8387      96.1556       0.0163      12.6825
     69.3315      -0.0009       0.0239       2.4300       2.3365     101.6054
      8.2567       3.4595       1.9567       4.2196     133.2550     306.5579
      2.5353       2.2433       2.4408       3.6523       4.2617       4.3358
      4.5417       4.5161      -2.9375    3178.0000       0.3187
4888.0
     12.2500    1020.2850    1020.2850     103.5474       0.0163      12.6825
     74.3730       0.0011       0.0251       2.0244       2.0255     108.1030
      9.1334       3.6342       2.0318       4.4952     133.4410     306.9966
      2.5090       2.2633       2.5524       3.8381       4.4526       4.5294
      4.7488       4.8223       0.8750    3173.0000       0.3272
4887.5
     12.2500    1031.8387    1031.8387     107.8793       0.0163      12.5634
     76.5720       0.0052       0.0261       1.5656       1.6971     112.3110
      9.2590       3.5444       1.9758       4.6862     133.6188     307.4270
      2.4820       2.2720       2.5869       3.7572       4.2703       4.3406
      4.5439       5.0284       3.9375    3220.0000       0.3432
4887.0
     12.2500    1020.2850    1020.2850     106.2065       0.0163      12.4642
     80.3738       0.0123       0.0262       1.3671       1.5689     117.3766
     10.4544       3.9957       2.1249       4.9200     133.7898     307.8506
      2.4634       2.2741       2.6162       3.8202       4.3624       4.4609
      4.6539       4.9441      -0.1875    3227.0000       0.3615
4886.5
     12.2500    1007.8425    1007.8425     107.2508       0.0163      12.3173
     79.1379       0.0135       0.0256       1.8397       1.8873     115.8127
     10.3973       4.0638       2.1516       4.8324     133.9509     308.2643
      2.3942       2.2681       2.5851       3.7972       4.4013       4.5401
      4.7149       4.7923      -1.5000    3196.0000       0.3525
4886.0
     12.2500    1044.2813    1044.2813     105.9829       0.0163      12.4522
     73.5051       0.0109       0.0239       1.6988       1.7583     109.4306
      9.5622       3.9965       2.0812       4.5946     134.1211     308.6872
      2.2830       2.2529       2.5708       3.7723       4.4507       4.5798
      4.7481       4.4154      -0.8125    3264.0000       0.3377
4885.5
     12.2500    1031.8387    1031.8387     108.6348       0.0163      12.4602
     71.3748       0.0030       0.0231       2.0569       2.0051     105.5282
      9.3501       4.0438       2.1641       4.3205     134.2919     309.1106
      2.1952       2.2271       2.5232       3.6969       4.4106       4.5151
      4.6811       3.8031      -2.1250    3227.0000       0.3308
4885.0
     12.2500    1020.2850    1020.2850     102.6780       0.0163      12.5316
     74.3911      -0.0000       0.0243       2.1445       1.9840     106.1493
      9.6517       3.9787       2.4399       3.9558     134.4675     309.5388
      2.2170       2.2072       2.3738       3.4774       4.1289       4.1940
      4.3545       3.8161      -2.8125    3191.0000       0.3338
4884.5
     12.2500    1031.8387    1031.8387     103.1061       0.0163      12.6984
     77.5855      -0.0003       0.0258       2.9963       2.7224     110.3201
      9.7673       3.7842       2.5010       3.9054     134.6546     309.9785
      2.2607       2.2086       2.4567       3.8144       4.5622       4.6410
      4.8408       3.8306      -2.5000    3201.0000       0.3344
4884.0
     12.2500    1031.8387    1031.8387      97.8912       0.0163      12.8175
     74.5787       0.0010       0.0257       2.8972       2.6520     108.9613
      8.8954       3.4675       2.2362       3.9780     134.8500     310.4265
      2.2886       2.2178       2.4722       3.8334       4.4883       4.5615
      4.7361       4.6408      -1.6875    3257.0000       0.3243
4883.5
     12.2500    1020.2850    1020.2850      97.4653       0.0163      12.7023
     72.5324       0.0025       0.0248       2.8066       2.6034     106.4921
      8.7254       3.5150       2.2432       3.8897     135.0373     310.8665
      2.2346       2.2207       2.4536       3.7186       4.3055       4.3658
      4.5411       3.6934      -2.5625    3217.0000       0.3356
4883.0
     12.2500    1031.8387    1031.8387      92.1093       0.0163      12.4522
     69.2775       0.0024       0.0241       0.8076       1.0040     102.4133
      8.1288       3.3786       2.1798       3.7291     135.2075     311.2894
      2.1850       2.1991       2.2146       3.1750       3.6222       3.6511
      3.8148       2.9564      -2.3750    3171.0000       0.3435
4882.5
     12.2500    1044.2813    1044.2813      87.2958       0.0163      12.5237
     67.0118       0.0015       0.0236       0.5896       0.7095     101.6918
      7.6985       3.2685       1.9954       3.8581     135.3826     311.7171
      2.1354       2.1729       2.0111       2.7816       3.1628       3.1638
      3.3294       1.7789      -1.0625    3225.0000       0.3389
4882.0
     12.2500    1031.8387    1031.8387      88.9702       0.0163      12.5793
     67.5254       0.0018       0.0239       0.7335       0.7400      99.4702
      7.6677       3.2099       2.1631       3.5448     135.5615     312.1486
      2.1194       2.1627       1.8648       2.5193       2.8424       2.8398
      2.9915       1.6561      -1.5625    3234.0000       0.3391
4881.5
     12.2500    1020.2850    1020.2850      91.1747       0.0163      12.5118
     69.9848       0.0034       0.0251       1.7080       1.5159     101.3446
      7.7200       3.0701       2.2774       3.3898     135.7358     312.5755
      2.1305       2.1781       2.0149       2.8653       3.3558       3.3856
      3.5811       1.8977      -1.3125    3194.0000       0.3277
4881.0
     12.2500    1031.8387    1031.8387      97.9009       0.0163      12.7301
     70.1554       0.0020       0.0255       2.0845       1.9944     100.8883
      7.5486       2.9566       2.3122       3.2646     135.9251     313.0174
      2.1377       2.1973       2.1993       3.4159       4.0793       4.1819
      4.4347       2.9600      -1.1875    3207.0000       0.3240
4880.5
     12.2500    1020.2850    1020.2850      95.6105       0.0163      13.0636
     70.9375       0.0003       0.0262       2.0801       1.9653     101.8289
      7.4291       2.8394       2.2277       3.3349     136.1378     313.4828
      2.1253       2.2164       2.2406       3.5437       4.2655       4.3898
      4.6795       3.0871      -1.4375    3211.0000       0.3205
4880.0
     12.2500    1031.8387    1031.8387      93.6702       0.0163      12.9445
     67.2773      -0.0018       0.0249       1.2752       1.2611      95.4160
      7.0158       2.8216       2.2344       3.1399     136.3421     313.9397
      2.1073       2.2210       2.1627       3.2537       3.7644       3.8479
      4.0852       2.6888      -1.0625    3227.0000       0.3217
4879.5
     12.2500    1020.2850    1020.2850      91.0336       0.0163      12.6825
     66.5284      -0.0032       0.0242       1.1559       1.1853      94.5625
      7.1507       2.9518       2.2784       3.1385     136.5281     314.3784
      2.1224       2.2162       2.1635       3.1631       3.6945       3.7638
      4.0074       2.2608      -1.4375    3217.0000       0.3220
4879.0
     12.2500    1020.2850    1020.2850      92.2656       0.0163      12.3689
     62.7057      -0.0055       0.0233       1.3687       1.2733      93.2714
      6.4693       2.7772       1.8079       3.5784     136.6927     314.7956
      2.1484       2.2073       2.1081       3.1275       3.6790       3.7663
      4.0255       2.3692      -1.8125    3178.0000       0.3213
4878.5
     12.2500    1031.8387    1031.8387      93.6440       0.0163      12.5237
     67.2743      -0.0075       0.0253       2.3270       2.0658     100.3059
      6.7380       2.6592       1.7906       3.7630     136.8678     315.2233
      2.1671       2.2033       2.1789       3.2836       3.9407       4.0566
      4.3431       2.6515      -2.0625    3243.0000       0.3123
