~Version Information
VERS  .          2.0                              :CWLS Log Ascii Standard - Version 2.0
WRAP  .          NO                               :One line per depth step
~Well Information Block
#MNEM.UNIT       Data Type                        Information
#---------       ---------                        -------------------------------
STRT  .F         5219.99583                       :START DEPTH
STOP  .F         1629.99583                       :STOP DEPTH
STEP  .F         -0.00000                         :INCREMENT
NULL  .          -999.25                          :NULL DATA VALUE
COMP  .          VENOCO, INC.                     :COMPANY
WELL  .          HAMES VALLEY 1-35                :WELL
FLD   .          SOUTH SALINAS                    :FIELD
LOC   .                                           :LOCATION
PROV  .          CALIFORNIA                       :PROVINCE
STAT  .          CALIFORNIA                       :STATE
CNTY  .          MONTEREY                         :COUNTY
CTRY  .          U.S.A                            :COUNTRY
DATE  .          2-Jan-2011                       :DATE
UWI   .          040532205900                     :UNIQUE WELL UWI
LIC   .                                           :LICENSE NUMBER
API   .          040532205900                                                                                                                      :API NUMBER
SRVC  .                                           :SERVICE COMPANY
~Parameter Information Block
#MNEM.UNIT       Value                            Description
#---------       ---------                        -------------
LONG  .DEG       -120.859398                      :Well Surface Location
LATI  .DEG       35.889400                        :Well Surface Location
XWELL .DEG       -120.859398                      :X-coordinate of Well Head
YWELL .DEG       35.889400                        :Y-coordinate of Well Head
~Curve Information Block
#MNEM.UNIT       API Code            Curve    Description
#--------        --------------      -----    -------------------
DEPT  .F                             :0       Index
DIP_HEIGHT.F                         :1       Height of Dip Plane Intersection with Borehole
DPAA_NAZ.DEG                         :2       Apparent Dip Azimuth - North  
DPAA_TOH.DEG                         :3       Apparent Dip Azimuth - Top of Hole
DPAP  .DEG                           :4       Apparent Dip Angle - Tool     
DPAZ  .DEG                           :5       True Dip Azimuth              
DPTR  .DEG                           :6       True Dip Angle                
QUAF  .                              :7       Dip Quality Factor            
~Ascii Data Section
# ...
   2925.99583       0.24450     157.09489      93.02235      12.10925     160.97652      12.18176      17.00000 
   2923.99583       0.23537     148.24541      81.63333      11.84309     152.74428      11.74242      18.00000 
   2921.99583       0.23130     154.60336      87.41935      11.65042     159.75876      11.65034      17.00000 
   2919.99583       0.22957     154.48482      89.18624      11.75799     160.04089      11.79767      17.00000 
   2917.99583       0.21975     157.65691      96.28018      11.28891     163.82741      11.49390      17.00000 
   2915.99583       0.18331     156.67564      99.81724       9.58959     164.30403       9.90750      17.00000 
   2913.99583       0.17392     150.64517      98.23725       9.00713     159.35419       9.32114      17.00000 
   2911.99583       0.21845     155.08884     105.32663      11.22503     162.25230      11.72289      17.00000 
   2909.99583       0.23616     149.02428     100.87225      11.99274     156.35062      12.40310      17.00000 
   2907.99583       0.23897     150.49382     103.03880      11.88172     158.13107      12.37882      17.00000 
   2905.99583       0.24066     150.11821     103.67444      11.86832     158.09856      12.41476      17.00000 
   2903.99583       0.24752     148.04041     103.67094      12.12224     156.13243      12.69053      17.00000 
   2901.99583       0.22988     146.23538     104.21899      10.97422     155.36861      11.59403      17.00000 
   2899.99583       0.22445     145.11780     105.40078      10.80269     154.41974      11.47106      17.00000 
   2897.99583       0.20206     146.91914     109.00100      10.05753     156.60225      10.84724      17.00000 
   2895.99583       0.19606     150.47546     113.61313       9.60085     160.13872      10.53039      17.00000 
   2893.99583       0.21557     149.64951     113.26653      10.60147     158.38165      11.49385      17.00000 
   2891.99583       0.22292     149.68506     112.85170      11.31167     157.74599      12.16015      17.00000 
   2889.99583       0.22305     151.66266     113.95742      11.34761     159.46964      12.20753      17.00000 
   2887.99583       0.21411     153.34967     114.47024      10.86614     161.34988      11.73260      17.00000 
   2885.99583       0.21568     155.48248     115.55099      10.97810     163.30952      11.87119      17.00000 
   2883.99583       0.23149     150.39857     110.02826      11.70342     158.22273      12.44606      17.00000 
   2881.99583       0.24494     150.43233     110.23251      12.34604     157.94426      13.10009      17.00000 
   2879.99583       0.23984     149.93027     109.65878      12.32247     157.50121      13.06123      17.00000 
   2877.99583       0.25179     152.04431     111.13497      12.79360     159.14845      13.55723      17.00000 
   2875.99583       0.24889     154.62968     112.24091      12.71569     161.63997      13.50210      17.00000 
   2873.99583       0.26510     147.86475     103.95945      13.55891     154.81624      14.09560      17.00000 
   2871.99583       0.26355     146.90443     102.09595      13.35990     154.05737      13.84495      17.00000 
   2869.99583       0.24238     147.63661     103.81530      12.41448     155.48430      12.97965      17.00000 
   2867.99583       0.22790     148.64233     105.75442      11.69706     157.00423      12.34246      17.00000 
   2865.99583       0.23409     150.71420     109.06837      11.95687     158.68402      12.69755      17.00000 
   2863.99583       0.23271     151.32478     110.26246      11.90629     159.19402      12.67616      17.00000 
   2861.99583       0.19347     152.82144     110.57981       9.93819     161.91220      10.71514      17.00000 
   2859.99583       0.18697     153.60149     110.23454       9.60044     162.67731      10.33680      17.00000 
   2857.99583       0.21421     151.34094     105.90780      10.80441     159.47144      11.38371      17.00000 
   2855.99583       0.21452     150.43968     102.43347      11.00240     158.42845      11.47022      17.00000 
   2853.99583       0.20655     150.41473      99.45699      10.63891     158.52463      11.01152      17.00000 
   2851.99583       0.21134     149.04753      95.60307      10.81961     157.02333      11.08030      17.00000 
   2849.99583       0.23189     151.75075      95.87344      11.84788     158.94231      12.10215      17.00000 
   2847.99583       0.23438     150.71788      92.82742      11.99994     157.64534      12.16328      17.00000 
   2845.99583       0.23634     150.89476      90.14635      12.01034     157.63763      12.09876      17.00000 
   2843.99583       0.23483     152.37450      86.43652      12.00479     159.06729      11.99932      17.00000 
   2841.99583       0.24900     152.39645      81.02608      12.38449     158.99579      12.24127      17.00000 
   2839.99583       0.24978     151.14093      75.63985      12.21582     158.09067      11.92975      17.00000 
   2837.99583       0.26054     151.09868      74.87399      12.48154     158.43976      12.15637      17.00000 
   2835.99583       0.27165     147.42169      73.07645      13.36396     154.68404      12.96245      17.00000 
   2833.99583       0.27191     147.98428      76.32450      13.39210     155.49776      13.08279      17.00000 
   2831.99583       0.25326     149.98363      81.91490      12.74687     158.10042      12.61807      17.00000 
   2829.99583       0.24991     150.49767      85.05489      12.48726     158.79117      12.46151      17.00000 
   2827.99583       0.24216     150.40656      87.16523      11.99326     158.90179      12.03769      17.00000 
   2825.99583       0.24673     150.70395      89.29570      12.30345     158.89491      12.40963      17.00000 
   2823.99583       0.24221     150.25038      90.63370      12.13534     158.70590      12.29084      17.00000 
   2821.99583       0.23455     150.93829      92.95081      11.78741     159.82478      12.03049      17.00000 
   2819.99583       0.22304     150.26054      94.68276      11.40002     159.84056      11.72701      17.00000 
   2817.99583       0.22512     147.96465      95.00236      11.29254     158.15839      11.66113      17.00000 
   2815.99583       0.21800     148.11438      99.11716      10.98291     158.71771      11.52550      17.00000 
   2813.99583       0.22842     146.01678     100.52956      11.21114     156.46007      11.81102      17.00000 
   2811.99583       0.23014     145.98802     104.02518      11.31575     156.04739      12.03360      17.00000 
   2809.99583       0.23897     149.90263     111.20288      11.76919     158.87241      12.70433      17.00000 
   2807.99583       0.23880     148.55971     111.77142      11.61909     157.38219      12.54721      17.00000 
   2805.99583       0.22541     147.81155     111.93800      11.13798     156.79457      12.05390      17.00000 
   2803.99583       0.22188     149.48259     113.94770      11.09841     158.25407      12.06741      17.00000 
   2801.99583       0.22370     147.17241     112.03570      11.19783     156.06818      12.11173      17.00000 
   2799.99583       0.23270     145.20068     110.50547      11.65438     153.93103      12.52067      17.00000 
   2797.99583       0.24057     146.18771     112.11182      11.98309     154.54971      12.89375      17.00000 
   2795.99583       0.22458     147.49783     114.06274      11.23252     156.03369      12.18592      17.00000 
   2793.99583       0.21129     150.06618     117.08735      10.86675     158.36337      11.87849      17.00000 
   2791.99583       0.24113     152.94627     120.54379      11.96465     159.90735      13.00414      17.00000 
   2789.99583       0.24393     152.15263     120.02685      12.24481     158.76923      13.22744      17.00000 
   2787.99583       0.24137     150.77515     118.77361      12.36059     157.34102      13.29595      17.00000 
   2785.99583       0.23535     150.27530     118.39442      12.07985     157.01353      13.00723      17.00000 
