~Version Information
VERS  .          2.0                              :CWLS Log Ascii Standard - Version 2.0
WRAP  .          NO                               :One line per depth step
~Well Information Block
#MNEM.UNIT       Data Type                        Information
#---------       ---------                        -------------------------------
STRT  .F         5219.99583                       :START DEPTH
STOP  .F         1629.99583                       :STOP DEPTH
STEP  .F         -0.00000                         :INCREMENT
NULL  .          -999.25                          :NULL DATA VALUE
COMP  .          VENOCO, INC.                     :COMPANY
WELL  .          HAMES VALLEY 1-35                :WELL
FLD   .          SOUTH SALINAS                    :FIELD
LOC   .                                           :LOCATION
PROV  .          CALIFORNIA                       :PROVINCE
STAT  .          CALIFORNIA                       :STATE
CNTY  .          MONTEREY                         :COUNTY
CTRY  .          U.S.A                            :COUNTRY
DATE  .          2-Jan-2011                       :DATE
UWI   .          040532205900                     :UNIQUE WELL UWI
LIC   .                                           :LICENSE NUMBER
API   .          040532205900                                                                                                                      :API NUMBER
SRVC  .                                           :SERVICE COMPANY
~Parameter Information Block
#MNEM.UNIT       Value                            Description
#---------       ---------                        -------------
LONG  .DEG       -120.859398                      :Well Surface Location
LATI  .DEG       35.889400                        :Well Surface Location
XWELL .DEG       -120.859398                      :X-coordinate of Well Head
YWELL .DEG       35.889400                        :Y-coordinate of Well Head
~Curve Information Block
#MNEM.UNIT       API Code            Curve    Description
#--------        --------------      -----    -------------------
DEPT  .F                             :0       Index
DIP_HEIGHT.F                         :1       Height of Dip Plane Intersection with Borehole
DPAA_NAZ.DEG                         :2       Apparent Dip Azimuth - North  
DPAA_TOH.DEG                         :3       Apparent Dip Azimuth - Top of Hole
DPAP  .DEG                           :4       Apparent Dip Angle - Tool     
DPAZ  .DEG                           :5       True Dip Azimuth              
DPTR  .DEG                           :6       True Dip Angle                
QUAF  .                              :7       Dip Quality Factor            
~Ascii Data Section
# ...
   2215.99583       0.18343     128.21379     101.85675       9.34291     137.21027       9.78817      17.00000 
   2213.99583       0.17693     126.35079     101.79687       8.97498     135.72218       9.42455      17.00000 
   2211.99583       0.18720     122.92892      99.45735       9.40808     131.85095       9.78218      17.00000 
   2209.99583       0.17929     120.18578      96.72211       9.08226     129.36136       9.38082      17.00000 
   2207.99583       0.17943     122.87693      98.18694       9.14280     131.77827       9.47015      17.00000 
   2205.99583       0.18868     122.61352      96.56288       9.57025     131.20236       9.85234      17.00000 
   2203.99583       0.18130     121.95079      95.55708       9.15962     131.11880       9.42820      17.00000 
   2201.99583       0.17516     124.87091      99.49245       8.80827     134.38069       9.19115      17.00000 
   2199.99583       0.17309     121.75497      98.23154       8.72771     131.44229       9.08065      17.00000 
   2197.99583       0.17630     121.20116      98.89072       8.87680     130.57814       9.23829      17.00000 
   2195.99583       0.17401     124.66169     102.18365       8.80741     133.78690       9.24403      17.00000 
   2193.99583       0.16309     131.29655     107.17665       8.29457     140.55167       8.85348      17.00000 
   2191.99583       0.16347     129.78860     104.16265       8.29093     139.32539       8.78255      17.00000 
   2189.99583       0.16667     127.70127     101.70795       8.42322     137.40315       8.86225      17.00000 
   2187.99583       0.16090     125.89984     101.21072       8.09785     136.08081       8.53373      17.00000 
   2185.99583       0.16574     125.85013     103.56603       8.30994     135.52348       8.79463      17.00000 
   2183.99583       0.17255     125.13380     104.19802       8.70637     134.09631       9.18384      18.00000 
   2181.99583       0.16047     123.31255     101.21758       8.19707     132.66093       8.59032      17.00000 
   2179.99583       0.16711     128.82832     103.08775       8.57040     137.39694       8.98469      17.00000 
   2177.99583       0.18681     132.06448     102.70918       9.57195     139.77759       9.96714      17.00000 
   2175.99583       0.18750     130.87784     100.74805       9.58658     138.91087       9.95123      17.00000 
   2173.99583       0.17018     127.08154      98.96959       8.65249     136.13275       8.98991      17.00000 
   2171.99583       0.16642     124.94313     100.12141       8.41596     134.03156       8.77590      17.00000 
   2169.99583       0.15634     121.20520      96.96683       7.96187     130.47528       8.23300      17.00000 
   2167.99583       0.17353     122.97149      96.39845       8.88605     130.86459       9.11440      17.00000 
   2165.99583       0.17669     122.99117      92.76511       8.97670     130.83379       9.12319      17.00000 
   2163.99583       0.15886     122.25651      90.58349       8.07657     131.24030       8.19068      17.00000 
   2161.99583       0.16356     119.81728      89.04433       8.31990     128.84236       8.40238      17.00000 
   2159.99583       0.17355     118.45235      90.36485       8.81093     126.96704       8.91833      17.00000 
   2157.99583       0.16581     120.20130      93.95153       8.43415     128.75908       8.61989      17.00000 
   2155.99583       0.16027     122.01109      93.84415       8.24667     130.29880       8.41712      17.00000 
   2153.99583       0.16968     124.75900      93.03816       8.75882     132.55232       8.90617      17.00000 
   2151.99583       0.17749     124.11473      91.14079       9.08858     131.96701       9.20067      17.00000 
   2149.99583       0.20628     125.11599      93.74136      10.10778     132.39336      10.27725      17.00000 
   2147.99583       0.19203     113.85758      86.71152       9.11426     122.22464       9.13520      17.00000 
   2145.99583       0.19684     108.03908      85.41161       9.77926     115.68227       9.76157      18.00000 
   2143.99583       0.18321     110.91912      90.23866       9.09660     118.53522       9.18332      18.00000 
   2141.99583       0.17479     114.72730      91.27036       8.76104     122.13010       8.86090      17.00000 
   2139.99583       0.18372     121.36663      93.91816       9.22945     128.33792       9.37789      17.00000 
   2137.99583       0.16120     126.35854      97.18745       8.12868     134.37604       8.35877      17.00000 
   2135.99583       0.16478     127.68822      99.05743       8.25618     135.78824       8.53475      17.00000 
   2133.99583       0.18681     126.64107     101.07180       9.31639     133.84619       9.63137      17.00000 
   2131.99583       0.16458     126.75939     102.33271       8.24311     134.70331       8.58715      17.00000 
   2129.99583       0.15169     129.86826     103.40434       7.70434     137.91901       8.05446      17.00000 
   2127.99583       0.15410     120.14555      89.64948       7.88862     128.39598       7.96444      17.00000 
   2125.99583       0.17596     113.39577      79.40477       8.91454     120.88954       8.77434      17.00000 
   2123.99583       0.72855      81.99643      47.76083      32.91162      83.41177      32.11577      11.00000 
   2121.99583       0.72686      82.09830      47.86270      32.49854      83.53880      31.70448       9.00000 
   2119.99583       0.14076     152.30702     122.56539       6.94059     160.16243       7.68697      17.00000 
   2117.99583       0.16290     141.59254     111.09086       8.12343     149.17897       8.64228      17.00000 
   2115.99583       0.15092     144.72026     111.39020       7.63685     152.66187       8.15944      17.00000 
   2113.99583       0.14179     136.35709      98.87166       7.19054     145.55809       7.47453      17.00000 
   2111.99583       0.17280     126.04630      86.54899       8.75286     133.98227       8.76383      17.00000 
   2109.99583       0.20352     118.37204      79.94982      10.10887     125.23648       9.96778      17.00000 
   2107.99583       0.17707     121.84004      86.62238       8.70520     129.84163       8.71848      17.00000 
   2105.99583       0.17759     115.86972      83.44976       8.84495     123.74213       8.78909      17.00000 
   2103.99583       0.19447     115.95184      83.40429       9.78120     123.01398       9.71616      17.00000 
   2101.99583       0.20193     117.38763      82.80370      10.20413     124.07857      10.12330      17.00000 
   2099.99583       0.21697     118.28944      80.59629      10.88553     124.46281      10.75485      17.00000 
   2097.99583       0.24535     122.89013      82.41963      12.10440     128.34914      12.00543      17.00000 
   2095.99583       0.20058     119.55342      76.16605       9.89498     126.09408       9.68441      16.00000 
   2093.99583       0.18225     121.02824      73.47658       9.02556     128.02066       8.77208      16.00000 
   2091.99583       0.15727     116.20176      62.88208       7.98951     123.68337       7.54792      17.00000 
   2089.99583       0.15647     113.54929      53.59094       7.93852     120.72349       7.31834      17.00000 
   2087.99583       0.16474     119.94099      54.94048       8.31363     127.31245       7.68160      17.00000 
   2085.99583       0.18625     124.63903      58.26593       9.42333     131.71873       8.81379      17.00000 
   2083.99583       0.20090     120.75071      56.26114      10.06426     127.68575       9.37078      17.00000 
   2081.99583       0.17287     105.16051      43.05014       8.58466     112.55559       7.59529      17.00000 
   2079.99583       0.15303      99.93360      41.50256       7.63019     107.96715       6.64172      17.00000 
   2077.99583       0.18136     114.96056      57.85443       9.12574     122.54664       8.49097      17.00000 
   2075.99583       0.19050     115.69446      57.68140       9.59621     122.31597       8.99506      17.00000 
