~VERSION INFORMATION
VERS.           2.0   :CWLS Log ASCII Standard - VERSION 2.0
WRAP.           YES   :Multiple lines per depth step
PROD.  Schlumberger   :LAS Producer
PROG.  DLIS to ASCII 19C0-187                          :LAS Program name and version
CREA.        2011/01/03 01:37                          :LAS Creation date {YYYY/MM/DD hh:mm}
DLIS_CREA.  2011-Jan-03 01:12                          :DLIS Creation date and time {YYYY-MMM-DD hh:mm}
SOURCE.     BC0W-00120_VENOCO_HAMES_VALLEY_1-35_FPEX_HRLA_HNGS_068PUP.DLIS  :DLIS File Name
FILE-ID.     TLD_MCFL_CNL_NGS_068PUP                   :File Identification Number
#--------------------------------------------------
~WELL INFORMATION
#MNEM.UNIT      DATA             DESCRIPTION
#---- ------ --------------   -----------------------------
STRT .F         5235.0       :START DEPTH     
STOP .F           78.5       :STOP DEPTH     
STEP .F           -0.5       :STEP     
NULL .          -999.25      :NULL VALUE
COMP .        VENOCO, INC.                             :COMPANY
WELL .        HAMES VALLEY 1-35                        :WELL
FLD  .        HAMES VALLEY                             :FIELD
LOC  .        LAT: 35.889467                           :LOCATION
CNTY .        MONTEREY                                 :COUNTY
STAT .        CALIFORNIA                               :STATE
CTRY .                                                 :COUNTRY
API  .        040532205900                             :API NUMBER
UWI  .        040532205900                             :UNIQUE WELL ID
DATE .        02-Jan-2011                              :LOG DATE {DD-MMM-YYYY}
SRVC .        Schlumberger                             :SERVICE COMPANY
LATI .DEG                                              :LATITUDE
LONG .DEG                                              :LONGITUDE
GDAT .                                                 :GeoDetic Datum
SECT .        35                                       :Section
RANG .        10E                                      :Range
TOWN .        23S                                      :Township
#-----------------------------------------------------------------------------
~PARAMETER INFORMATION
#MNEM.UNIT    VALUE                      DESCRIPTION
#---- -----   --------------------       ------------------------
RUN  .          ONE                      :RUN NUMBER
PDAT .        GROUND LEVEL               :Permanent Datum
EPD  .F         1002.000000              :Elevation of Permanent Datum above Mean Sea Level
LMF  .          KELLY BUSHING            :Logging Measured From (Name of Logging Elevation Reference)
APD  .F          23.000000               :Elevation of Depth Reference (LMF) above Permanent Datum
#-----------------------------------------------------------------------------
~CURVE INFORMATION
#MNEM.UNIT   API CODE                                  DESCRIPTION
#---- -----  --------                                  -----------------------
DEPT .F                                                :DEPTH (BOREHOLE) {F10.1}
BS   .IN                                               :Bit Size {F13.4}
CDF  .LBF                                              :Calibrated Downhole Force {F13.4}
DF   .LBF                                              :Uncalibrated Downhole Force {F13.4}
GR   .GAPI                                             :Gamma Ray {F13.4}
HBHK .CFCF                                             :HNGS Borehole Potassium Concentration {F13.4}
HCAL .IN                                               :HRCC Cal. Caliper {F13.4}
HCGR .GAPI                                             :HNGS Computed Gamma Ray {F13.4}
HDRA .G/C3                                             :HRDD Density Correction {F13.4}
HFK  .CFCF                                             :HNGS Formation Potassium Concentration {F13.4}
HMIN .OHMM                                             :MCFL Micro Inverse Resistivity {F13.4}
HMNO .OHMM                                             :MCFL Micro Normal Resistivity {F13.4}
HSGR .GAPI                                             :HNGS Standard Gamma Ray {F13.4}
HTHO .PPM                                              :HNGS Formation Thorium Concentration {F13.4}
HTPR .                                                 :HNGS Thorium/Potassium Ratio {F13.4}
HTUR .                                                 :HNGS Thorium/Uranium Ratio {F13.4}
HURA .PPM                                              :HNGS Formation Uranium Concentration {F13.4}
ICV  .F3                                               :Integrated Cement Volume {F13.4}
IHV  .F3                                               :Integrated Hole Volume {F13.4}
PEFZ .                                                 :HRDD Standard Resolution Formation Photoelectric Factor {F13.4}
RHOZ .G/C3                                             :HRDD Standard Resolution Formation Density {F13.4}
RLA1 .OHMM                                             :HRLT Borehole Corrected Resistivity 1 {F13.4}
RLA2 .OHMM                                             :HRLT Borehole Corrected Resistivity 2 {F13.4}
RLA3 .OHMM                                             :HRLT Borehole Corrected Resistivity 3 {F13.4}
RLA4 .OHMM                                             :HRLT Borehole Corrected Resistivity 4 {F13.4}
RLA5 .OHMM                                             :HRLT Borehole Corrected Resistivity 5 {F13.4}
RXOZ .OHMM                                             :MCFL Standard Resolution Invaded Zone Resistivity {F13.4}
SP   .MV                                               :SP Shifted {F13.4}
TENS .LBF                                              :Cable Tension {F13.4}
TNPH .CFCF                                             :Thermal Neutron Porosity {F13.4}
#-----------------------------------------------------------------------------
# DEPT       
#     BS           CDF          DF           GR_EDTC      HBHK         HCAL         
#     HCGR         HDRA         HFK          HMIN         HMNO         HSGR         
#     HTHO         HTPR         HTUR         HURA         ICV          IHV          
#     PEFZ         RHOZ         RLA1         RLA2         RLA3         RLA4         
#     RLA5         RXOZ         SP           TENS         TNPH         
~A  
# ...
90.0
     17.5000     801.6525     801.6525      42.6017       0.0043       3.3772
     50.5504       0.1621       0.0202       0.0731       0.0572      57.4363
      4.3643       2.1556       4.5685       0.9553    1430.7537    3304.0020
      4.3204       1.7780       0.0403       0.0344       0.0314       0.0288
      0.0278       0.0667     -58.7500    1404.0000       0.7196
89.5
     17.5000     813.2062     813.2062      43.3679       0.0043       3.3772
     53.1593       0.1655       0.0213       0.0751       0.0576      60.5556
      4.5976       2.1608       4.2314       1.0865    1430.7537    3304.0020
      4.3352       1.7870       0.0366       0.0308       0.0281       0.0257
      0.0249       0.0668     -58.9375    1393.0000       0.6152
89.0
     17.5000     813.2062     813.2062      39.8102       0.0043       3.3772
     51.4851       0.1641       0.0204       0.0742       0.0579      59.0081
      4.5890       2.2523       4.0704       1.1274    1430.7537    3304.0020
      4.3269       1.7898       0.0424       0.0359       0.0326       0.0298
      0.0282       0.0667     -59.3750    1397.0000       0.6410
88.5
     17.5000     813.2062     813.2062      47.1814       0.0043       3.3653
     53.2188       0.1600       0.0208       0.0743       0.0577      61.8172
      4.9170       2.3680       3.5016       1.4042    1430.7537    3304.0020
      4.3121       1.7873       0.0346       0.0294       0.0269       0.0246
      0.0238       0.0670     -59.5000    1395.0000       0.6313
88.0
     17.5000     813.2062     813.2062      46.2682       0.0043       3.3772
     49.8095       0.1570       0.0193       0.0768       0.0583      60.8910
      4.6607       2.4106       2.7128       1.7180    1430.7537    3304.0020
      4.3366       1.7801       0.0384       0.0326       0.0296       0.0271
      0.0258       0.0666     -59.5000    1409.0000       0.5727
87.5
     17.5000     813.2062     813.2062      51.2489       0.0043       3.3772
     49.5450       0.1585       0.0194       0.0752       0.0577      61.0208
      4.5352       2.3373       2.6955       1.6825    1430.7537    3304.0020
      4.4023       1.7777       0.0413       0.0353       0.0321       0.0294
      0.0277       0.0665     -59.5625    1389.0000       0.5544
87.0
     17.5000     825.6487     825.6487      48.8197       0.0043       3.3772
     46.4338       0.1646       0.0199       0.0761       0.0582      60.1691
      3.2564       1.6378       1.6626       1.9587    1430.7537    3304.0020
      4.4809       1.7824       0.0401       0.0346       0.0315       0.0288
      0.0273       0.0664     -59.5625    1385.0000       0.4874
86.5
     17.5000     838.0912     838.0912      50.0056       0.0043       3.3772
     47.1259       0.1694       0.0204       0.0764       0.0580      60.8663
      3.1533       1.5428       1.5332       2.0566    1430.7537    3304.0020
      4.5407       1.7878       0.0368       0.0313       0.0285       0.0261
      0.0254       0.0664     -59.3750    1395.0000       0.5021
86.0
     17.5000     838.0912     838.0912      52.7101       0.0043       3.3772
     49.1420       0.1696       0.0213       0.0800       0.0596      62.8433
      3.2813       1.5388       1.6252       2.0191    1430.7537    3304.0020
      4.5760       1.7881       0.0396       0.0340       0.0310       0.0284
      0.0273       0.0669     -59.6875    1411.0000       0.5046
85.5
     17.5000     838.0912     838.0912      48.0193       0.0043       3.3772
     50.6507       0.1707       0.0214       0.0789       0.0595      62.8448
      3.7461       1.7540       2.1245       1.7633    1430.7537    3304.0020
      4.6034       1.7927       0.0432       0.0369       0.0336       0.0308
      0.0291       0.0671     -59.8125    1405.0000       0.5378
85.0
     17.5000     862.0875     862.0875      45.1437       0.0043       3.3772
     52.4415       0.1707       0.0213       0.0794       0.0596      62.3832
      4.3814       2.0615       2.9668       1.4768    1430.7537    3304.0020
      4.6034       1.7927       0.0341       0.0294       0.0270       0.0246
      0.0240       0.0675     -59.8125    1399.0000       0.5278
84.5
     17.5000     838.0912     838.0912      38.3916       0.0043       3.3653
     56.0531       0.1707       0.0222       0.0778       0.0593      61.8433
      4.9904       2.2487       5.6372       0.8853    1430.7537    3304.0020
      4.6034       1.7927       0.0335       0.0283       0.0260       0.0239
      0.0231       0.0677     -60.1250    1389.0000       0.4958
84.0
     17.5000     849.6450     849.6450      39.0891       0.0043       3.3772
     54.9273       0.1707       0.0217       0.0762       0.0587      60.6026
      4.9172       2.2659       6.6784       0.7363    1430.7537    3304.0020
      4.6034       1.7927       0.0423       0.0361       0.0328       0.0301
      0.0287       0.0674     -60.1875    1399.0000       0.4986
83.5
     17.5000     862.0875     862.0875      41.1822       0.0043       3.3772
     53.6151       0.1707       0.0210       0.0789       0.0592      60.1257
      4.9326       2.3539       5.7875       0.8523    1430.7537    3304.0020
      4.6034       1.7927       0.0418       0.0353       0.0322       0.0295
      0.0280       0.0670     -60.2500    1421.0000       0.5210
83.0
     17.5000     922.5225     922.5225      44.2620       0.0043       3.3772
     53.8456       0.1707       0.0207       0.0781       0.0587      59.3611
      5.1473       2.4849       7.3585       0.6995    1430.7537    3304.0020
      4.6034       1.7927       0.0286       0.0249       0.0227       0.0208
      0.0206       0.0664     -60.6250    1426.0000       0.5534
82.5
     17.5000     922.5225     922.5225      49.4592       0.0043       3.3772
     57.9745       0.1707       0.0219       0.0760       0.0577      58.9677
      5.7603       2.6267      11.5206       0.1614    1430.7537    3304.0020
      4.6034       1.7927       0.0381       0.0329       0.0299       0.0274
      0.0264       0.0662     -60.8750    1421.0000       0.5193
82.0
     17.5000     971.4037     971.4037      49.5301       0.0043       3.3653
     61.1010       0.1707       0.0231       0.0764       0.0581      61.4686
      6.1050       2.6481      12.2100       0.0044    1430.7537    3304.0020
      4.6034       1.7927       0.0375       0.0323       0.0293       0.0268
      0.0261       0.0664     -61.0000    1418.0000       0.6320
81.5
     17.5000     947.4075     947.4075      53.9979       0.0043       3.3653
     64.2620       0.1707       0.0237       0.0754       0.0577      65.0350
      6.7340       2.8398      13.4679       0.0446    1430.7537    3304.0020
      4.6034       1.7927       0.0345       0.0294       0.0270       0.0247
      0.0246       0.0664     -61.4375    1444.0000       0.7046
81.0
     17.5000     922.5225     922.5225      54.2558       0.0043       3.3772
     67.2140       0.1707       0.0249       0.0772       0.0584      68.5822
      6.9980       2.8128      13.9959       0.0889    1430.7537    3304.0020
      4.6034       1.7927       0.0371       0.0318       0.0288       0.0264
      0.0259       0.0667     -61.0625    1435.0000       0.7470
80.5
     17.5000     947.4075     947.4075      55.4046       0.0043       3.3772
     67.2140       0.1707       0.0249       0.0789       0.0596      68.5822
      6.9980       2.8128      13.9959       0.0889    1430.7537    3304.0020
      4.6034       1.7927       0.0456       0.0385       0.0352       0.0322
      0.0309       0.0675     -62.0625    1434.0000       0.5637
80.0
     17.5000     947.4075     947.4075      55.2011       0.0043       3.3772
     67.2140       0.1707       0.0249       0.0790       0.0603      68.5822
      6.9980       2.8128      13.9959       0.0889    1430.7537    3304.0020
      4.6034       1.7927       0.0343       0.0295       0.0269       0.0247
      0.0241       0.0687     -62.2500    1450.0000       0.4662
