~VERSION INFORMATION
VERS.           2.0   :CWLS Log ASCII Standard - VERSION 2.0
WRAP.           NO    :One Line per depth step
PROD.  Schlumberger   :LAS Producer
PROG.  DLIS to ASCII 19C0-187                          :LAS Program name and version
CREA.        2011/01/03 01:40                          :LAS Creation date {YYYY/MM/DD hh:mm}
DLIS_CREA.  2011-Jan-02 17:53                          :DLIS Creation date and time {YYYY-MMM-DD hh:mm}
SOURCE.     BC0W-00120_VENOCO_HAMES_VALLEY_HAMES_VALLEY_1-35_FMI_DSST_MAIN.DLIS  :DLIS File Name
FILE-ID.     FMI_CAL_DSI_028PUP                        :File Identification Number
#--------------------------------------------------
~WELL INFORMATION
#MNEM.UNIT      DATA             DESCRIPTION
#---- ------ --------------   -----------------------------
STRT .F         5241.0       :START DEPTH     
STOP .F         1500.5       :STOP DEPTH     
STEP .F           -0.5       :STEP     
NULL .          -999.25      :NULL VALUE
COMP .        VENOCO, INC.                             :COMPANY
WELL .        HAMES VALLEY 1-35                        :WELL
FLD  .        HAMES VALLEY                             :FIELD
LOC  .        LAT: 35.889467                           :LOCATION
CNTY .        MONTEREY                                 :COUNTY
STAT .        CALIFORNIA                               :STATE
CTRY .                                                 :COUNTRY
API  .        040532205900                             :API NUMBER
UWI  .        040532205900                             :UNIQUE WELL ID
DATE .        02-Jan-2011                              :LOG DATE {DD-MMM-YYYY}
SRVC .        Schlumberger                             :SERVICE COMPANY
LATI .DEG                                              :LATITUDE
LONG .DEG                                              :LONGITUDE
GDAT .                                                 :GeoDetic Datum
SECT .        35                                       :Section
RANG .        10E                                      :Range
TOWN .        23S                                      :Township
#-----------------------------------------------------------------------------
~PARAMETER INFORMATION
#MNEM.UNIT    VALUE                      DESCRIPTION
#---- -----   --------------------       ------------------------
RUN  .          ONE                      :RUN NUMBER
PDAT .        GROUND LEVEL               :Permanent Datum
EPD  .F         1002.000000              :Elevation of Permanent Datum above Mean Sea Level
LMF  .          KELLY BUSHING            :Logging Measured From (Name of Logging Elevation Reference)
APD  .F          23.000000               :Elevation of Depth Reference (LMF) above Permanent Datum
#-----------------------------------------------------------------------------
~CURVE INFORMATION
#MNEM.UNIT   API CODE                                  DESCRIPTION
#---- -----  --------                                  -----------------------
DEPT .F                                                :DEPTH (BOREHOLE) {F10.1}
BS   .IN                                               :Bit Size {F13.4}
CDF  .LBF                                              :Calibrated Downhole Force {F13.4}
DF   .LBF                                              :Uncalibrated Downhole Force {F13.4}
DTCO .US/F                                             :Delta-T Compressional {F13.4}
DTSM .US/F                                             :Delta-T Shear {F13.4}
GR_EDTC.GAPI                                           :EDTC Gamma Ray {F13.4}
HD1_PPC1.IN                                            :PPC1 Hole Diameter 1 {F13.4}
HD1_PPC2.IN                                            :PPC2 Hole Diameter 1 {F13.4}
HD2_PPC1.IN                                            :PPC1 Hole Diameter 2 {F13.4}
HD2_PPC2.IN                                            :PPC2 Hole Diameter 2 {F13.4}
ICV  .F3                                               :Integrated Cement Volume {F13.4}
IHV  .F3                                               :Integrated Hole Volume {F13.4}
ITT  .S                                                :Integrated Transit Time {F13.4}
SPHI .CFCF                                             :Sonic Porosity {F13.4}
TENS .LBF                                              :Cable Tension {F13.4}
#-----------------------------------------------------------------------------
# 
#     DEPT        BS           CDF          DF           DTCO         DTSM       GR_EDTC      HD1_PPC1     HD1_PPC2     HD2_PPC1     HD2_PPC2       ICV          IHV          ITT          SPHI         TENS
#
~A  
# ...
    3252.0      12.2500    1141.1550    1141.1550     107.8077     159.8464      84.3426      13.0727      13.0828      12.6311      12.8720     702.2337    1702.3905       0.1963       0.3003    2753.0000
    3251.5      12.2500    1166.0400    1166.0400     108.7270     162.3036      90.9196      13.0801      13.0850      12.5712      12.8486     702.4295    1702.8390       0.1963       0.3031    2810.0000
    3251.0      12.2500    1129.6013    1129.6013     108.7620     161.2449      86.1021      13.1430      13.3392      12.6074      13.0251     702.6288    1703.2909       0.1964       0.3032    2678.0000
    3250.5      12.2500    1129.6013    1129.6013     108.0429     159.5582      85.9038      13.2265      13.2563      12.7629      13.0493     702.8365    1703.7512       0.1964       0.3011    2657.0000
    3250.0      12.2500    1141.1550    1141.1550     108.3297     161.6178      75.9399      13.1324      13.1256      12.6430      12.8953     703.0367    1704.2040       0.1965       0.3019    2704.0000
    3249.5      12.2500    1129.6013    1129.6013     109.1703     164.5675      72.7440      13.1011      13.1684      12.6667      12.9304     703.2367    1704.6566       0.1965       0.3044    2708.0000
    3249.0      12.2500    1129.6013    1129.6013     109.2714     164.9297      69.3970      13.1462      13.1279      12.6672      12.9199     703.4382    1705.1108       0.1966       0.3047    2637.0000
    3248.5      12.2500    1104.7163    1104.7163     107.7661     160.5453      71.2989      13.0278      13.0508      12.6430      12.9189     703.6348    1705.5601       0.1966       0.3002    2584.0000
    3248.0      12.2500    1129.6013    1129.6013     104.9209     166.1005      75.6357      12.9468      13.0290      12.5951      12.9199     703.8270    1706.0048       0.1967       0.2914    2704.0000
    3247.5      12.2500    1153.5975    1153.5975     106.1399     167.9196      76.8874      13.0278      13.0312      12.6430      12.9195     704.0236    1706.4540       0.1967       0.2952    2693.0000
    3247.0      12.2500    1141.1550    1141.1550     105.0549     172.3267      81.3464      13.0276      13.0290      12.6068      12.9189     704.2189    1706.9019       0.1968       0.2918    2730.0000
    3246.5      12.2500    1141.1550    1141.1550     107.0660     176.2188      76.4149      13.0068      12.9970      12.6187      12.9079     704.4139    1707.3495       0.1968       0.2981    2714.0000
    3246.0      12.2500    1153.5975    1153.5975     104.1374     178.9040      72.5588      12.9646      12.9886      12.5950      12.9079     704.6066    1707.7948       0.1969       0.2889    2689.0000
    3245.5      12.2500    1166.0400    1166.0400     105.2709     179.3580      65.8180      13.3727      13.4031      12.8226      13.1072     704.8216    1708.2625       0.1970       0.2925    2736.0000
    3245.0      12.2500    1166.0400    1166.0400     100.3512     173.7496      71.1710      13.2821      13.2346      12.9066      13.1785     705.0365    1708.7300       0.1970       0.2762    2869.0000
    3244.5      12.2500    1129.6013    1129.6013      93.8821     164.2851      71.2158      13.1145      13.1812      12.7872      13.0844     705.2412    1709.1874       0.1970       0.2522    2630.0000
    3244.0      12.2500    1129.6013    1129.6013      86.3388     155.5921      69.8280      13.4661      13.3312      12.7147      12.9074     705.4555    1709.6543       0.1971       0.2196    2658.0000
    3243.5      12.2500    1153.5975    1153.5975      84.9913     155.0041      64.6305      12.9855      12.9677      12.5225      12.7892     705.6464    1710.0978       0.1971       0.2132    2784.0000
    3243.0      12.2500    1117.1588    1117.1588      80.7925     145.2677      59.8311      12.9780      12.8920      12.5226      12.7892     705.8370    1710.5410       0.1972       0.1918    2654.0000
    3242.5      12.2500    1129.6013    1129.6013      69.7179     132.9017      57.2538      12.9465      12.9435      12.4988      12.7535     706.0256    1710.9823       0.1972       0.1230    2679.0000
    3242.0      12.2500    1153.5975    1153.5975      57.3220     115.7032      54.9174      12.8729      12.8814      12.4988      12.7776     706.2118    1711.4211       0.1972       0.0144    2660.0000
    3241.5      12.2500    1202.4788    1202.4788      70.5681     131.4250      52.0647      12.8593      12.8489      12.4866      12.7776     706.3971    1711.8590       0.1973       0.1290    2840.0000
    3241.0      12.2500    1153.5975    1153.5975      62.2322     117.3157      56.0502      12.8307      12.8153      12.4863      12.7651     706.5814    1712.2959       0.1973       0.0626    2783.0000
    3240.5      12.2500    1177.5938    1177.5938      68.3438     128.6067      54.6008      12.8623      12.8469      12.4625      12.7772     706.7659    1712.7330       0.1973       0.1129    2658.0000
    3240.0      12.2500    1202.4788    1202.4788      71.2230     127.2706      65.5822      12.8307      12.8383      12.4866      12.7660     706.9503    1713.1699       0.1974       0.1336    2893.0000
    3239.5      12.2500    1166.0400    1166.0400      72.6804     129.9504      64.1739      12.8384      12.8595      12.5350      12.8133     707.1365    1713.6088       0.1974       0.1434    2735.0000
    3239.0      12.2500    1153.5975    1153.5975      73.7311     136.7759      69.1920      12.8699      12.8578      12.5469      12.7892     707.3243    1714.0492       0.1974       0.1503    2691.0000
    3238.5      12.2500    1190.0363    1190.0363      72.1066     131.4872      65.1841      12.8623      12.9008      12.5229      12.7772     707.5109    1714.4885       0.1975       0.1396    2930.0000
    3238.0      12.2500    1129.6013    1129.6013      71.1095     123.2198      68.1579      13.0412      13.0209      12.7990      13.0493     707.7135    1714.9437       0.1975       0.1328    2703.0000
    3237.5      12.2500    1141.1550    1141.1550      70.5185     125.1465      66.5719      12.8908      12.9329      12.4987      12.7772     707.9003    1715.3832       0.1976       0.1287    2704.0000
    3237.0      12.2500    1153.5975    1153.5975      77.7614     141.1817      65.6233      12.8699      12.9332      12.4987      12.7651     708.0864    1715.8219       0.1976       0.1749    2696.0000
    3236.5      12.2500    1166.0400    1166.0400      92.7238     156.0313      63.0460      12.8729      12.9132      12.5226      12.8370     708.2734    1716.2616       0.1976       0.2475    2767.0000
    3236.0      12.2500    1153.5975    1153.5975      71.3683     119.8601      64.2355      12.9991      13.5019      12.6791      13.3434     708.4703    1716.7111       0.1977       0.1346    2709.0000
    3235.5      12.2500    1129.6013    1129.6013      81.3534     132.9310      65.4173      13.4871      13.5441      13.0733      13.4246     708.6985    1717.1919       0.1977       0.1948    2743.0000
    3235.0      12.2500    1166.0400    1166.0400      82.2673     129.6951      66.0121      13.5181      13.7212      13.1802      13.2718     708.9318    1717.6779       0.1978       0.1996    2762.0000
    3234.5      12.2500    1141.1550    1141.1550      81.7456     128.2212      61.4522      13.6982      13.5199      12.9906      13.2258     709.1645    1718.1632       0.1978       0.1968    2721.0000
    3234.0      12.2500    1129.6013    1129.6013      79.9023     129.7392      57.6930      13.2787      13.2566      12.8825      13.1904     709.3784    1718.6298       0.1978       0.1870    2599.0000
    3233.5      12.2500    1166.0400    1166.0400      71.6426     119.9923      56.1648      13.1430      13.0181      12.6910      12.9309     709.5807    1719.0847       0.1979       0.1365    2757.0000
    3233.0      12.2500    1177.5938    1177.5938      70.8820     117.0013      62.3108      13.1148      13.1898      12.8351      13.1307     709.7872    1719.5438       0.1979       0.1312    2819.0000
